Time,header.seq,header.stamp.secs,header.stamp.nsecs,header.frame_id,name,position_0,position_1,position_2,position_3,position_4,position_5,position_6,position_7,position_8,position_9,position_10,position_11,velocity_0,velocity_1,velocity_2,velocity_3,velocity_4,velocity_5,velocity_6,velocity_7,velocity_8,velocity_9,velocity_10,velocity_11,effort_0,effort_1,effort_2,effort_3,effort_4,effort_5,effort_6,effort_7,effort_8,effort_9,effort_10,effort_11
190.31975,190185,190,306500000,,"['FL_calf_joint', 'FL_hip_joint', 'FL_thigh_joint', 'FR_calf_joint', 'FR_hip_joint', 'FR_thigh_joint', 'RL_calf_joint', 'RL_hip_joint', 'RL_thigh_joint', 'RR_calf_joint', 'RR_hip_joint', 'RR_thigh_joint']",-1.5767253198103446,-0.0015649742062153749,0.8265458385306017,-1.5726452363061187,0.01844853567584437,0.8196384437496524,-1.5949654307311167,-0.005593443588334246,0.774868663459543,-1.584763244390576,0.012441038314607411,0.7672398458020746,0.8457672406885568,-0.04802739752940155,-0.46467839729322524,0.7647763825005907,-0.05414752698522781,-0.4173102132417069,0.9440447684597892,-0.044634881593988616,-0.49158886020808784,0.8617395969432049,-0.05067788902008852,-0.44665108071959925,4.4076457023620605,-1.5963672399520874,-0.02015097253024578,4.108032703399658,1.4224107265472412,0.03882398456335068,5.273364067077637,-1.8574068546295166,0.5403653979301453,4.929559230804443,1.7742178440093994,0.5468710660934448
190.31975,190186,190,307500000,,"['FL_calf_joint', 'FL_hip_joint', 'FL_thigh_joint', 'FR_calf_joint', 'FR_hip_joint', 'FR_thigh_joint', 'RL_calf_joint', 'RL_hip_joint', 'RL_thigh_joint', 'RR_calf_joint', 'RR_hip_joint', 'RR_thigh_joint']",-1.5767124728089636,-0.0016187736062542868,0.8265385630290245,-1.5726616013252968,0.01839488079481022,0.8196483210496437,-1.5949515581170752,-0.0056457555987323715,0.7748612216591599,-1.584780222317658,0.012388792178748886,0.7672496086232004,0.8481212204345596,-0.053197641270706544,-0.46598525320234135,0.7623249633545508,-0.05930505450746104,-0.41595399691350166,0.9464007674940023,-0.04976538855901483,-0.49283012726749076,0.8592600387344103,-0.05580647202189196,-0.4453465149074764,4.4076457023620605,-1.5963672399520874,-0.02015097253024578,4.108032703399658,1.4224107265472412,0.03882398456335068,5.273364067077637,-1.8574068546295166,0.5403653979301453,4.929559230804443,1.7742178440093994,0.5468710660934448
190.31975,190187,190,308500000,,"['FL_calf_joint', 'FL_hip_joint', 'FL_thigh_joint', 'FR_calf_joint', 'FR_hip_joint', 'FR_thigh_joint', 'RL_calf_joint', 'RL_hip_joint', 'RL_thigh_joint', 'RR_calf_joint', 'RR_hip_joint', 'RR_thigh_joint']",-1.5766982325555232,-0.0016777174790023608,0.8265305071563924,-1.572679501816546,0.018336093904009587,0.819659054944939,-1.5949362863464405,-0.005703175546007522,0.7748530360607884,-1.584798734770743,0.012331444091158161,0.7672601859251031,0.850063979823064,-0.05829724399517245,-0.4670660670884899,0.7602703458522335,-0.06439239603369339,-0.41481513969988393,0.9483437250423064,-0.05482742386729696,-0.4938561833357912,0.8571918262498643,-0.06086546476144629,-0.4442559973093761,4.4076457023620605,-1.5963672399520874,-0.02015097253024578,4.108032703399658,1.4224107265472412,0.03882398456335068,5.273364067077637,-1.8574068546295166,0.5403653979301453,4.929559230804443,1.7742178440093994,0.5468710660934448
190.31975,190188,190,309500000,,"['FL_calf_joint', 'FL_hip_joint', 'FL_thigh_joint', 'FR_calf_joint', 'FR_hip_joint', 'FR_thigh_joint', 'RL_calf_joint', 'RL_hip_joint', 'RL_thigh_joint', 'RR_calf_joint', 'RR_hip_joint', 'RR_thigh_joint']",-1.5766826675733783,-0.0017417149744760607,0.8265217090000005,-1.572698866814013,0.018272265225279583,0.8196706060107433,-1.5949196712808558,-0.005765613381675472,0.7748441361783112,-1.5848187213724128,0.012269083463186448,0.7672715457070387,0.8517922009470602,-0.06326641133912146,-0.4680287421092289,0.7584270157606025,-0.06934974320012201,-0.41379244070752474,0.9500761491958385,-0.059760457101615594,-0.4947724024432858,0.8553374211267684,-0.06579509992865673,-0.44327709616715144,4.407575607299805,-1.594809651374817,-0.020123502239584923,4.1081156730651855,1.423854947090149,0.038771454244852066,5.273266792297363,-1.8557287454605103,0.5403910875320435,4.929653644561768,1.775787591934204,0.5468101501464844
190.32,190189,190,310500000,,"['FL_calf_joint', 'FL_hip_joint', 'FL_thigh_joint', 'FR_calf_joint', 'FR_hip_joint', 'FR_thigh_joint', 'RL_calf_joint', 'RL_hip_joint', 'RL_thigh_joint', 'RR_calf_joint', 'RR_hip_joint', 'RR_thigh_joint']",-1.5766657700733426,-0.001810527335012857,0.8265121652100378,-1.5727196923849358,0.01820363301888328,0.8196829706244824,-1.594901700921282,-0.0058328330991335164,0.7748345167189541,-1.5848401837957677,0.01220194549049225,0.7672836872903845,0.8533698033688228,-0.06800631192935891,-0.46890769217259043,0.7567383432460479,-0.07407851117229178,-0.41285591979573016,0.951659767223055,-0.0644686106520282,-0.49561004569895695,0.8536397592290743,-0.07049985555060656,-0.4423813480931098,4.407575607299805,-1.594809651374817,-0.020123502239584923,4.1081156730651855,1.423854947090149,0.038771454244852066,5.273266792297363,-1.8557287454605103,0.5403910875320435,4.929653644561768,1.775787591934204,0.5468101501464844
190.32,190190,190,311500000,,"['FL_calf_joint', 'FL_hip_joint', 'FL_thigh_joint', 'FR_calf_joint', 'FR_hip_joint', 'FR_thigh_joint', 'RL_calf_joint', 'RL_hip_joint', 'RL_thigh_joint', 'RR_calf_joint', 'RR_hip_joint', 'RR_thigh_joint']",-1.576646771121562,-0.0018846955065372484,0.8265014528999446,-1.5727427458270706,0.018129657714551328,0.819696569346597,-1.5948815987675697,-0.005905372151455701,0.7748237728935568,-1.5848639127658668,0.012129490079887617,0.7672970222854092,0.8563918931617586,-0.0739740190747143,-0.47058221238390074,0.7535981545846075,-0.08003191620506271,-0.41112242293643086,0.9547104099614692,-0.07039326204470792,-0.4972138340132181,0.8504405805090136,-0.07642467250149253,-0.440702270965424,4.4204607009887695,-1.603789210319519,-0.020899485796689987,4.095486164093018,1.4151890277862549,0.03933635354042053,5.286927223205566,-1.8649331331253052,0.5412025451660156,4.915989875793457,1.766435980796814,0.5458593964576721
190.32,190191,190,312500000,,"['FL_calf_joint', 'FL_hip_joint', 'FL_thigh_joint', 'FR_calf_joint', 'FR_hip_joint', 'FR_thigh_joint', 'RL_calf_joint', 'RL_hip_joint', 'RL_thigh_joint', 'RR_calf_joint', 'RR_hip_joint', 'RR_thigh_joint']",-1.5766253354905149,-0.001965225712468488,0.8264893848543222,-1.5727683870872897,0.018049335458247384,0.8197116025797273,-1.594859052486453,-0.005984227593400782,0.7748117387493689,-1.5848902490263868,0.012050721616052584,0.7673117315814846,0.859149470970128,-0.08028842758787905,-0.4721126889423473,0.7507040992714071,-0.08633171588432619,-0.40952232550890855,0.9574764077849897,-0.0766624301148276,-0.49867086768454266,0.8475160908701619,-0.08269216303883163,-0.43916444961649115,4.4204607009887695,-1.603789210319519,-0.020899485796689987,4.095486164093018,1.4151890277862549,0.03933635354042053,5.286927223205566,-1.8649331331253052,0.5412025451660156,4.915989875793457,1.766435980796814,0.5458593964576721
190.32,190192,190,313500000,,"['FL_calf_joint', 'FL_hip_joint', 'FL_thigh_joint', 'FR_calf_joint', 'FR_hip_joint', 'FR_thigh_joint', 'RL_calf_joint', 'RL_hip_joint', 'RL_thigh_joint', 'RR_calf_joint', 'RR_hip_joint', 'RR_thigh_joint']",-1.5766021827427301,-0.002052003690866222,0.8264763582228971,-1.572795902388838,0.01796277941878799,0.8197276815241379,-1.5948347934151457,-0.006069289135898437,0.7747987970737,-1.5849185189861394,0.011965752576966082,0.7673274666635903,0.8612203566048149,-0.0863900256305305,-0.473257961342574,0.7485163030587185,-0.09241998459716755,-0.4083014800757791,0.959524519378322,-0.08272274505061884,-0.4997461106597632,0.8450651158604916,-0.08874901520172551,-0.4378658712031218,4.414340972900391,-1.6007438898086548,-0.02049708552658558,4.102020740509033,1.4184691905975342,0.038871005177497864,5.280313014984131,-1.8620500564575195,0.5408403873443604,4.915989875793457,1.766435980796814,0.5458593964576721
190.32,190193,190,314500000,,"['FL_calf_joint', 'FL_hip_joint', 'FL_thigh_joint', 'FR_calf_joint', 'FR_hip_joint', 'FR_thigh_joint', 'RL_calf_joint', 'RL_hip_joint', 'RL_thigh_joint', 'RR_calf_joint', 'RR_hip_joint', 'RR_thigh_joint']",-1.5765778849045318,-0.0021444516957407345,0.8264626928846441,-1.5728246712703338,0.017870564892470853,0.8197444682252115,-1.594809396305818,-0.006159986820640562,0.7747852529520127,-1.5849480768158344,0.01187515408870965,0.767343893352618,0.862590474956833,-0.09185684105626635,-0.4740241009458542,0.7470651340431771,-0.09787644152914925,-0.4074942658613283,0.9608858546335545,-0.08815797977942808,-0.5004694203459679,0.8437415738296159,-0.09417938398043399,-0.4371634674082352,4.414340972900391,-1.6007438898086548,-0.02049708552658558,4.102020740509033,1.4184691905975342,0.038871005177497864,5.280313014984131,-1.8620500564575195,0.5408403873443604,4.922937393188477,1.769645094871521,0.5461798906326294
190.32,190194,190,315500000,,"['FL_calf_joint', 'FL_hip_joint', 'FL_thigh_joint', 'FR_calf_joint', 'FR_hip_joint', 'FR_thigh_joint', 'RL_calf_joint', 'RL_hip_joint', 'RL_thigh_joint', 'RR_calf_joint', 'RR_hip_joint', 'RR_thigh_joint']",-1.5765520757615952,-0.002242316790387555,0.8264481834832251,-1.572855082045375,0.017772944031314353,0.8197621674734927,-1.5947824546492768,-0.006256069139989329,0.7747708904622339,-1.5849792045492652,0.011779173563709833,0.7673611506006521,0.8641421593630283,-0.09723804984334015,-0.47488927254804914,0.7454107010984765,-0.10324756975951266,-0.40657653812035094,0.9624476675880869,-0.09350744005156861,-0.5012965259745699,0.8421299009316621,-0.09952612163641421,-0.43631209180194697,4.414340972900391,-1.6007438898086548,-0.02049708552658558,4.102020740509033,1.4184691905975342,0.038871005177497864,5.280313014984131,-1.8620500564575195,0.5408403873443604,4.922937393188477,1.769645094871521,0.5461798906326294
190.32,190195,190,316500000,,"['FL_calf_joint', 'FL_hip_joint', 'FL_thigh_joint', 'FR_calf_joint', 'FR_hip_joint', 'FR_thigh_joint', 'RL_calf_joint', 'RL_hip_joint', 'RL_thigh_joint', 'RR_calf_joint', 'RR_hip_joint', 'RR_thigh_joint']",-1.5765245672028736,-0.0023454772663784595,0.8264327272418361,-1.5728873270738464,0.017670037900536784,0.8197808835873435,-1.5947537837796375,-0.006357414921860816,0.7747556139399823,-1.5850121777160648,0.011677931178905254,0.7673793806280358,0.8657215134770408,-0.10238916620919063,-0.47576901420643397,0.7437255790222088,-0.10838959526617983,-0.405642931756998,0.9640402996248447,-0.09862682040181794,-0.5021392803471088,0.8404536682986439,-0.10464365102646309,-0.43542789491353107,4.414137363433838,-1.5968066453933716,-0.020375585183501244,4.102275848388672,1.422283411026001,0.03875620663166046,5.279958248138428,-1.8577589988708496,0.5408599972724915,4.92324161529541,1.7738401889801025,0.5460855960845947
190.32,190196,190,317500000,,"['FL_calf_joint', 'FL_hip_joint', 'FL_thigh_joint', 'FR_calf_joint', 'FR_hip_joint', 'FR_thigh_joint', 'RL_calf_joint', 'RL_hip_joint', 'RL_thigh_joint', 'RR_calf_joint', 'RR_hip_joint', 'RR_thigh_joint']",-1.5764954569605192,-0.0024534339597233057,0.8264163796865232,-1.5729212897367808,0.017562343958516635,0.8198005504434986,-1.5947234970299915,-0.006463530355140357,0.7747394842754574,-1.5850468889867102,0.011571919532238795,0.7673985252134345,0.8671910880787894,-0.10705603788468436,-0.47658598630531585,0.7421613086294219,-0.11304888972345148,-0.40477834473153074,0.9655156743899609,-0.10327039814857797,-0.5029182458941908,0.8388913641507603,-0.10928632090113966,-0.43460615148332465,4.414137363433838,-1.5968066453933716,-0.020375585183501244,4.102275848388672,1.422283411026001,0.03875620663166046,5.279958248138428,-1.8577589988708496,0.5408599972724915,4.92324161529541,1.7738401889801025,0.5460855960845947
190.32,190197,190,318500000,,"['FL_calf_joint', 'FL_hip_joint', 'FL_thigh_joint', 'FR_calf_joint', 'FR_hip_joint', 'FR_thigh_joint', 'RL_calf_joint', 'RL_hip_joint', 'RL_thigh_joint', 'RR_calf_joint', 'RR_hip_joint', 'RR_thigh_joint']",-1.576464781249857,-0.0025660129309885704,0.826399161463157,-1.5729569268264814,0.017450035167765776,0.819821143449925,-1.59469163276761,-0.006574244049118327,0.7747225222455061,-1.5850832943302589,0.011461309478061565,0.7674185604662345,0.8686736503960821,-0.11164908554393016,-0.4774098986953042,0.740582220204439,-0.11763490394992461,-0.4039059479254012,0.967008906587644,-0.10783937341217857,-0.5037064964210177,0.8373051403989307,-0.1138548796096892,-0.4337721089278887,4.414137363433838,-1.5968066453933716,-0.020375585183501244,4.102275848388672,1.422283411026001,0.03875620663166046,5.279958248138428,-1.8577589988708496,0.5408599972724915,4.92324161529541,1.7738401889801025,0.5460855960845947
190.32,190198,190,319500000,,"['FL_calf_joint', 'FL_hip_joint', 'FL_thigh_joint', 'FR_calf_joint', 'FR_hip_joint', 'FR_thigh_joint', 'RL_calf_joint', 'RL_hip_joint', 'RL_thigh_joint', 'RR_calf_joint', 'RR_hip_joint', 'RR_thigh_joint']",-1.576433012746294,-0.0026828820351854077,0.8263813269321476,-1.5729938638945078,0.017333443248755742,0.8198424489395943,-1.594658543350218,-0.006689228994294361,0.7747049061306175,-1.5851209962452089,0.011346428727232905,0.7674392709485529,0.8693747919506698,-0.11570470054598185,-0.4778089323579394,0.739720412622171,-0.12168519861417593,-0.40343584358178874,0.9678289641107487,-0.11188027136300523,-0.5041484866462129,0.8364620733023203,-0.11789440768987552,-0.43333423703158713,4.408358097076416,-1.5946065187454224,-0.019803591072559357,4.108611106872559,1.4250229597091675,0.038129959255456924,5.2737298011779785,-1.8558247089385986,0.540812611579895,4.929978370666504,1.7759019136428833,0.5461402535438538
190.32075,190199,190,320500000,,"['FL_calf_joint', 'FL_hip_joint', 'FL_thigh_joint', 'FR_calf_joint', 'FR_hip_joint', 'FR_thigh_joint', 'RL_calf_joint', 'RL_hip_joint', 'RL_thigh_joint', 'RR_calf_joint', 'RR_hip_joint', 'RR_thigh_joint']",-1.5763999995846087,-0.0028036849595070024,0.8263628012042661,-1.573031982484531,0.01721292147984954,0.8198644068439753,-1.5946243251267935,-0.006808134026450752,0.774686694403405,-1.585159886043483,0.011227627288914022,0.7674606048992496,0.8703953829779155,-0.1196158156405084,-0.4783757898152478,0.7387220245173662,-0.12559254087545363,-0.4028850093636456,0.9687908069533473,-0.11577800817316714,-0.5046568694186938,0.835460740890777,-0.12179223177676798,-0.4328080705196277,4.408358097076416,-1.5946065187454224,-0.019803591072559357,4.108611106872559,1.4250229597091675,0.038129959255456924,5.2737298011779785,-1.8558247089385986,0.540812611579895,4.929978370666504,1.7759019136428833,0.5461402535438538
190.32425,190200,190,321500000,,"['FL_calf_joint', 'FL_hip_joint', 'FL_thigh_joint', 'FR_calf_joint', 'FR_hip_joint', 'FR_thigh_joint', 'RL_calf_joint', 'RL_hip_joint', 'RL_thigh_joint', 'RR_calf_joint', 'RR_hip_joint', 'RR_thigh_joint']",-1.576365556810519,-0.00292836027268617,0.8263434834816392,-1.5730715882041344,0.017088531645606864,0.8198871840099216,-1.5945886868085895,-0.006930897321605123,0.7746677362773546,-1.5852002780276386,0.011104965276398815,0.7674827253013694,0.8715587602222006,-0.12346756999096925,-0.4790204640429852,0.7375319023551592,-0.12944075192678134,-0.40222976142389283,0.9699360453571086,-0.11961645533080607,-0.5052601537475837,0.8342602335925007,-0.12563209747465226,-0.43217884451484484,4.408358097076416,-1.5946065187454224,-0.019803591072559357,4.108611106872559,1.4250229597091675,0.038129959255456924,5.2737298011779785,-1.8558247089385986,0.540812611579895,4.929978370666504,1.7759019136428833,0.5461402535438538
190.32875,190201,190,322500000,,"['FL_calf_joint', 'FL_hip_joint', 'FL_thigh_joint', 'FR_calf_joint', 'FR_hip_joint', 'FR_thigh_joint', 'RL_calf_joint', 'RL_hip_joint', 'RL_thigh_joint', 'RR_calf_joint', 'RR_hip_joint', 'RR_thigh_joint']",-1.576329909971394,-0.0030568715488792364,0.8263234958934467,-1.5731124686179672,0.01696030962318673,0.8199106669039278,-1.594551612916785,-0.00705747405369106,0.7746480221550396,-1.5852421886968653,0.010978487633003908,0.7675056432358662,0.8723222231699088,-0.12731030283129033,-0.4794491992484778,0.7367508195138275,-0.13328041035227026,-0.4017929727317665,0.9711601856070915,-0.12343425153864218,-0.5059075732640285,0.8329711701993047,-0.12944921993504424,-0.4314987690639291,4.403172016143799,-1.596416711807251,-0.01937272772192955,4.114063739776611,1.4232076406478882,0.037642285227775574,5.2737298011779785,-1.8587509393692017,0.540812611579895,4.929978370666504,1.7759019136428833,0.5461402535438538
190.32875,190202,190,323500000,,"['FL_calf_joint', 'FL_hip_joint', 'FL_thigh_joint', 'FR_calf_joint', 'FR_hip_joint', 'FR_thigh_joint', 'RL_calf_joint', 'RL_hip_joint', 'RL_thigh_joint', 'RR_calf_joint', 'RR_hip_joint', 'RR_thigh_joint']",-1.576293082328068,-0.003189223498725191,0.8263028518933924,-1.573154599507475,0.016828250124460098,0.8199348415459644,-1.5945134760664104,-0.007187879248500728,0.7746277465700082,-1.5852852213624438,0.010848178568663158,0.76752915197845,0.8732632673258122,-0.13113338509914277,-0.4799706897084055,0.7357741977858425,-0.13710125903177278,-0.40125570048148457,0.9718371589288761,-0.12724913587595754,-0.5062663993294568,0.8322638522683656,-0.1332675094305377,-0.4311267451352496,4.403172016143799,-1.596416711807251,-0.01937272772192955,4.114063739776611,1.4232076406478882,0.037642285227775574,5.268167972564697,-1.8587509393692017,0.5406321287155151,4.935795783996582,1.7735135555267334,0.5463092923164368
190.32875,190203,190,324500000,,"['FL_calf_joint', 'FL_hip_joint', 'FL_thigh_joint', 'FR_calf_joint', 'FR_hip_joint', 'FR_thigh_joint', 'RL_calf_joint', 'RL_hip_joint', 'RL_thigh_joint', 'RR_calf_joint', 'RR_hip_joint', 'RR_thigh_joint']",-1.5762548464944461,-0.0033253608174250715,0.8262814290397893,-1.5731982184344182,0.01669240819634865,0.8199598341548198,-1.594474083158536,-0.007322059261761105,0.7746068111216342,-1.5853295732356578,0.010714091803334824,0.7675533505635377,0.8743732589258573,-0.13489908623703625,-0.4805844974847197,0.7346152223486612,-0.1408648636207693,-0.40061943496301383,0.9728384585817456,-0.13100589434236687,-0.5067934590337628,0.8312155758185518,-0.13702663332468729,-0.43057832468266605,4.403172016143799,-1.596416711807251,-0.01937272772192955,4.114063739776611,1.4232076406478882,0.037642285227775574,5.268167972564697,-1.8587509393692017,0.5406321287155151,4.935795783996582,1.7735135555267334,0.5463092923164368
190.32875,190204,190,325500000,,"['FL_calf_joint', 'FL_hip_joint', 'FL_thigh_joint', 'FR_calf_joint', 'FR_hip_joint', 'FR_thigh_joint', 'RL_calf_joint', 'RL_hip_joint', 'RL_thigh_joint', 'RR_calf_joint', 'RR_hip_joint', 'RR_thigh_joint']",-1.5762149988516927,-0.003465398088247973,0.8262591155512071,-1.5732435094695982,0.016552668961656636,0.8199857454436215,-1.5944330837745095,-0.00746012833389198,0.7745850336162654,-1.5853755915802825,0.010576110962032814,0.7675784191739785,0.8759052566944432,-0.1388779183064402,-0.4814301638948195,0.7330554410203242,-0.14484159597735827,-0.3997637264851174,0.9743284691066447,-0.13497354765160413,-0.5075750464243974,0.8296874746793776,-0.14099883423829057,-0.42978043476921257,4.405709743499756,-1.5977574586868286,-0.01954665221273899,4.111780643463135,1.4220306873321533,0.03773669898509979,5.270835876464844,-1.8600728511810303,0.5407713055610657,4.9332990646362305,1.772243618965149,0.5461287498474121
190.32875,190205,190,326500000,,"['FL_calf_joint', 'FL_hip_joint', 'FL_thigh_joint', 'FR_calf_joint', 'FR_hip_joint', 'FR_thigh_joint', 'RL_calf_joint', 'RL_hip_joint', 'RL_thigh_joint', 'RR_calf_joint', 'RR_hip_joint', 'RR_thigh_joint']",-1.5761736717029797,-0.0036093840120541287,0.8262359838838202,-1.5732903467337134,0.016408983255951526,0.8200125067308388,-1.594390586319614,-0.007602135307897662,0.7745624703031062,-1.5854231749789403,0.010434187324186439,0.7676043052625543,0.8773150488373483,-0.14280128896090008,-0.4822084192907787,0.7316006156081647,-0.1487634610865534,-0.3989657469674007,0.9757198314199731,-0.138886790722807,-0.5083049967982404,0.8282457574589652,-0.14491674851079314,-0.4290277445879903,4.405709743499756,-1.5977574586868286,-0.01954665221273899,4.111780643463135,1.4220306873321533,0.03773669898509979,5.270835876464844,-1.8600728511810303,0.5407713055610657,4.9332990646362305,1.772243618965149,0.5461287498474121
190.32875,190206,190,327500000,,"['FL_calf_joint', 'FL_hip_joint', 'FL_thigh_joint', 'FR_calf_joint', 'FR_hip_joint', 'FR_thigh_joint', 'RL_calf_joint', 'RL_hip_joint', 'RL_thigh_joint', 'RR_calf_joint', 'RR_hip_joint', 'RR_thigh_joint']",-1.5761310108899358,-0.003757265527885245,0.8262121143281815,-1.573338588518849,0.016261403445477995,0.8200400402526649,-1.5943467370587392,-0.007748028467859491,0.7745391975465736,-1.5854721788404458,0.010288372599124074,0.7676309334174478,0.8786613724158548,-0.1466697854650102,-0.4829514805132359,0.7302023704776326,-0.152631060975437,-0.3981990789192431,0.9770594401229244,-0.1427461385372262,-0.5090076889487544,0.8268515124634754,-0.14878115699733932,-0.4283000798384127,4.405709743499756,-1.5977574586868286,-0.01954665221273899,4.111780643463135,1.4220306873321533,0.03773669898509979,5.270835876464844,-1.8600728511810303,0.5407713055610657,4.9332990646362305,1.772243618965149,0.5461287498474121
190.32875,190207,190,328500000,,"['FL_calf_joint', 'FL_hip_joint', 'FL_thigh_joint', 'FR_calf_joint', 'FR_hip_joint', 'FR_thigh_joint', 'RL_calf_joint', 'RL_hip_joint', 'RL_thigh_joint', 'RR_calf_joint', 'RR_hip_joint', 'RR_thigh_joint']",-1.5760872409978668,-0.003908875261481093,0.8261876313069587,-1.5733879881490913,0.016110095935250257,0.8200682099347558,-1.5943017774607604,-0.007897644844152119,0.7745153421748263,-1.5855223474096292,0.010138830173383795,0.7676581695558351,0.8796044215085963,-0.1502586867248289,-0.48347109980668534,0.7292434867085729,-0.1562203876486072,-0.39767474257726465,0.9779755231386342,-0.1463330219396986,-0.5094879177115418,0.8259015704877389,-0.15237219040418026,-0.4278053209316562,4.402371406555176,-1.596373200416565,-0.019111482426524162,4.115434646606445,1.4235634803771973,0.037279292941093445,5.267095565795898,-1.859514594078064,0.5408135056495667,4.937122821807861,1.7732771635055542,0.5459722876548767
190.33825,190208,190,329500000,,"['FL_calf_joint', 'FL_hip_joint', 'FL_thigh_joint', 'FR_calf_joint', 'FR_hip_joint', 'FR_thigh_joint', 'RL_calf_joint', 'RL_hip_joint', 'RL_thigh_joint', 'RR_calf_joint', 'RR_hip_joint', 'RR_thigh_joint']",-1.5760424291244521,-0.004063969571993731,0.8261625736719891,-1.5734384663347476,0.015955303273022636,0.8200969705404928,-1.594255774007574,-0.008050744991918712,0.7744909407772109,-1.5855736029019205,0.009985798457037731,0.7676859713471176,0.880598008750215,-0.1537198931597154,-0.48401738346807716,0.7282278838557124,-0.1596827260675426,-0.39712036500962977,0.9789570090757332,-0.14979366789671475,-0.5100011574841438,0.8248854295164614,-0.15583822708053421,-0.4272771442049488,4.402371406555176,-1.596373200416565,-0.019111482426524162,4.115434646606445,1.4235634803771973,0.037279292941093445,5.267095565795898,-1.859514594078064,0.5408135056495667,4.937122821807861,1.7732771635055542,0.5459722876548767
190.33825,190209,190,330500000,,"['FL_calf_joint', 'FL_hip_joint', 'FL_thigh_joint', 'FR_calf_joint', 'FR_hip_joint', 'FR_thigh_joint', 'RL_calf_joint', 'RL_hip_joint', 'RL_thigh_joint', 'RR_calf_joint', 'RR_hip_joint', 'RR_thigh_joint']",-1.5759965927639104,-0.004222340361002885,0.8261369495796638,-1.573490060547964,0.01579723310579162,0.8201263385275386,-1.5942086885215216,-0.008207123554378803,0.7744659720548199,-1.5856259731338689,0.009829481955041075,0.7677143491831266,0.8813573362803792,-0.1568554503078237,-0.4844361389273262,0.7274078890415733,-0.1628203633882612,-0.3966774615533339,0.9797574672771919,-0.15293303543593925,-0.5104212618352073,0.8240736191532076,-0.15898319930562355,-0.4268596240228354,4.400092124938965,-1.5947195291519165,-0.018936309963464737,4.117885589599609,1.4252878427505493,0.037101440131664276,5.264644145965576,-1.8579325675964355,0.540702760219574,4.939742565155029,1.774979591369629,0.5460900068283081
190.33825,190210,190,331500000,,"['FL_calf_joint', 'FL_hip_joint', 'FL_thigh_joint', 'FR_calf_joint', 'FR_hip_joint', 'FR_thigh_joint', 'RL_calf_joint', 'RL_hip_joint', 'RL_thigh_joint', 'RR_calf_joint', 'RR_hip_joint', 'RR_thigh_joint']",-1.5759496621780023,-0.0043837752303472755,0.8261107240042369,-1.5735427330836074,0.015636096362610985,0.8201562951975534,-1.5941605533700098,-0.008366569889523667,0.7744404560663956,-1.585679420657934,0.009670090500609518,0.7677432855029647,0.8822771176994564,-0.15990042766675727,-0.48494008147913353,0.7264975623762503,-0.16586826571835694,-0.39618268047359473,0.9806509501540115,-0.15598206767401457,-0.5108869411702456,0.823162279868138,-0.16203884012358985,-0.4263879125915505,4.400092124938965,-1.5947195291519165,-0.018936309963464737,4.117885589599609,1.4252878427505493,0.037101440131664276,5.264644145965576,-1.8579325675964355,0.540702760219574,4.939742565155029,1.774979591369629,0.5460900068283081
190.33825,190211,190,332500000,,"['FL_calf_joint', 'FL_hip_joint', 'FL_thigh_joint', 'FR_calf_joint', 'FR_hip_joint', 'FR_thigh_joint', 'RL_calf_joint', 'RL_hip_joint', 'RL_thigh_joint', 'RR_calf_joint', 'RR_hip_joint', 'RR_thigh_joint']",-1.575901581083604,-0.0045482304503403626,0.8260838664021941,-1.5735965821363194,0.015471936586511248,0.8201868940745713,-1.5941112775113009,-0.008529040471890958,0.7744143458045318,-1.5857340429721791,0.009507666787847313,0.7677728307742111,0.8832682914967662,-0.16290201367203574,-0.4854828527672262,0.7254969099208755,-0.16887317311494693,-0.3956387952501862,0.9816312123761564,-0.15898788656035853,-0.5113974555931214,0.8221587980998386,-0.1650521117536629,-0.4258685978402436,4.400092124938965,-1.5947195291519165,-0.018936309963464737,4.117885589599609,1.4252878427505493,0.037101440131664276,5.264644145965576,-1.8579325675964355,0.540702760219574,4.939742565155029,1.774979591369629,0.5460900068283081
190.33825,190212,190,333500000,,"['FL_calf_joint', 'FL_hip_joint', 'FL_thigh_joint', 'FR_calf_joint', 'FR_hip_joint', 'FR_thigh_joint', 'RL_calf_joint', 'RL_hip_joint', 'RL_thigh_joint', 'RR_calf_joint', 'RR_hip_joint', 'RR_thigh_joint']",-1.5758527991725138,-0.004714807852411518,0.8260566259132505,-1.5736511301808576,0.015305649639422825,0.8202178707996852,-1.5940613113104751,-0.008693642689908465,0.7743878777533624,-1.5857893466750976,0.009343103013492282,0.7678027255890445,0.8835768807728241,-0.16450168956315142,-0.4856469848574812,0.7252290205791702,-0.1704793129734809,-0.39550109425659413,0.9819214136346719,-0.1606031503954929,-0.5115449972439555,0.8219122128891345,-0.16667477653504506,-0.42574792047574755,4.396922588348389,-1.58583402633667,-0.018691837787628174,4.121161460876465,1.4337291717529297,0.03671242296695709,5.261321067810059,-1.8479628562927246,0.5407968163490295,4.943350315093994,1.7838761806488037,0.546123206615448
190.33825,190213,190,334500000,,"['FL_calf_joint', 'FL_hip_joint', 'FL_thigh_joint', 'FR_calf_joint', 'FR_hip_joint', 'FR_thigh_joint', 'RL_calf_joint', 'RL_hip_joint', 'RL_thigh_joint', 'RR_calf_joint', 'RR_hip_joint', 'RR_thigh_joint']",-1.5758033702431358,-0.004882981369424222,0.8260290344131027,-1.5737063146025494,0.015137760736937622,0.8202491882334426,-1.594010704940347,-0.008859859137962722,0.774361080729653,-1.5858452753997838,0.009176916495214016,0.7678329373965198,0.8840732300444314,-0.16608417092943462,-0.4859136309465443,0.7247594721188293,-0.17206822137484468,-0.39525358160929047,0.982409517289462,-0.1622027950409496,-0.5117948391566023,0.8214512566640998,-0.16828248863628828,-0.4255164872631914,4.396922588348389,-1.58583402633667,-0.018691837787628174,4.121161460876465,1.4337291717529297,0.03671242296695709,5.261321067810059,-1.8479628562927246,0.5407968163490295,4.943350315093994,1.7838761806488037,0.546123206615448
190.33825,190214,190,335500000,,"['FL_calf_joint', 'FL_hip_joint', 'FL_thigh_joint', 'FR_calf_joint', 'FR_hip_joint', 'FR_thigh_joint', 'RL_calf_joint', 'RL_hip_joint', 'RL_thigh_joint', 'RR_calf_joint', 'RR_hip_joint', 'RR_thigh_joint']",-1.5757534311938568,-0.005052798054777874,0.8260011610308586,-1.573762113290115,0.014968223587187524,0.8202808316728492,-1.5939594110352093,-0.009027730696977265,0.774333924122578,-1.5859018809335215,0.009009066494886753,0.7678634904707113,0.8842067988503374,-0.16781151078040432,-0.48598932984042403,0.7245043246866787,-0.17380197574379141,-0.3951261801527669,0.9828246089320851,-0.1639446139120074,-0.5120144706268158,0.8210630135876421,-0.1700344197911925,-0.4253261476894392,4.391629695892334,-1.5893197059631348,-0.018240144476294518,4.1266279220581055,1.4308315515518188,0.03627634420990944,5.25562047958374,-1.8526725769042969,0.5405812859535217,4.9492106437683105,1.7798405885696411,0.5463438630104065
190.33825,190215,190,336500000,,"['FL_calf_joint', 'FL_hip_joint', 'FL_thigh_joint', 'FR_calf_joint', 'FR_hip_joint', 'FR_thigh_joint', 'RL_calf_joint', 'RL_hip_joint', 'RL_thigh_joint', 'RR_calf_joint', 'RR_hip_joint', 'RR_thigh_joint']",-1.5757029235459235,-0.00522443772095027,0.8259729771024391,-1.5738183830539056,0.014796856223346921,0.8203127252171862,-1.5939076983873974,-0.009197442507381304,0.7743065509562612,-1.5859588887985794,0.008839367297005296,0.767894244782827,0.8845712118082842,-0.16963833663787808,-0.4861835125182219,0.724235337722789,-0.17563549189083008,-0.39498840504834104,0.9830227588703473,-0.165786712144843,-0.512113793318117,0.8208898449627834,-0.1718815023498773,-0.42524380624758057,4.391629695892334,-1.5893197059631348,-0.018240144476294518,4.1266279220581055,1.4308315515518188,0.03627634420990944,5.25562047958374,-1.8526725769042969,0.5405812859535217,4.9492106437683105,1.7798405885696411,0.5463438630104065
190.33825,190216,190,337500000,,"['FL_calf_joint', 'FL_hip_joint', 'FL_thigh_joint', 'FR_calf_joint', 'FR_hip_joint', 'FR_thigh_joint', 'RL_calf_joint', 'RL_hip_joint', 'RL_thigh_joint', 'RR_calf_joint', 'RR_hip_joint', 'RR_thigh_joint']",-1.5756516106399787,-0.00539786728050462,0.825944355508919,-1.5738754339631629,0.014623691193781596,0.8203450375463701,-1.5938552570015325,-0.009368964225498821,0.7742788027317697,-1.5860166157950637,0.008667848409388057,0.767925364101921,0.8850286502763387,-0.17135756854901646,-0.4864294666620759,0.7237490797321688,-0.1773668964249941,-0.39473592997584417,0.9834792958128428,-0.16753403998339872,-0.5123477652333464,0.8204555152603041,-0.17363817940306342,-0.42503019436371486,4.389565944671631,-1.581404685974121,-0.017910515889525414,4.1266279220581055,1.4308315515518188,0.03627634420990944,5.25562047958374,-1.8526725769042969,0.5405812859535217,4.9492106437683105,1.7798405885696411,0.5463438630104065
190.34425,190217,190,338500000,,"['FL_calf_joint', 'FL_hip_joint', 'FL_thigh_joint', 'FR_calf_joint', 'FR_hip_joint', 'FR_thigh_joint', 'RL_calf_joint', 'RL_hip_joint', 'RL_thigh_joint', 'RR_calf_joint', 'RR_hip_joint', 'RR_thigh_joint']",-1.5755998138234841,-0.0055722989355926345,0.8259154742419978,-1.5739329459303462,0.014449518459271005,0.8203775887835665,-1.5938023455965622,-0.009541510170334,0.7742508154227625,-1.586074775494044,0.008495295835672323,0.7679566947844378,0.8851512183067061,-0.1719800153066251,-0.4864868756618605,0.7237400461863557,-0.17799304091148152,-0.3947455430830418,0.9835089015346261,-0.16817739621301855,-0.5123555144185173,0.8204849212599817,-0.17428922214144968,-0.42505870628422043,4.389565944671631,-1.581404685974121,-0.017910515889525414,4.128845691680908,1.437982201576233,0.035973597317934036,5.253124237060547,-1.844402551651001,0.5404238700866699,4.951632499694824,1.7881381511688232,0.5462262034416199
190.34425,190218,190,339500000,,"['FL_calf_joint', 'FL_hip_joint', 'FL_thigh_joint', 'FR_calf_joint', 'FR_hip_joint', 'FR_thigh_joint', 'RL_calf_joint', 'RL_hip_joint', 'RL_thigh_joint', 'RR_calf_joint', 'RR_hip_joint', 'RR_thigh_joint']",-1.5755475587399483,-0.005747347951595039,0.8258863493663506,-1.5739908472530373,0.014274718886495563,0.8204103398775606,-1.59374901136563,-0.009714703819031278,0.7742226160314853,-1.5861333125936063,0.008322085012183678,0.7679882079560372,0.8854132039503528,-0.1725920856718583,-0.4866209664742518,0.7235555969572827,-0.17861427709744104,-0.39465970994135086,0.9837235762898127,-0.16881815827485747,-0.5124592832927405,0.8203221869728109,-0.17493940024193638,-0.4249879728025358,4.389565944671631,-1.581404685974121,-0.017910515889525414,4.128845691680908,1.437982201576233,0.035973597317934036,5.253124237060547,-1.844402551651001,0.5404238700866699,4.951632499694824,1.7881381511688232,0.5462262034416199
190.34425,190219,190,340500000,,"['FL_calf_joint', 'FL_hip_joint', 'FL_thigh_joint', 'FR_calf_joint', 'FR_hip_joint', 'FR_thigh_joint', 'RL_calf_joint', 'RL_hip_joint', 'RL_thigh_joint', 'RR_calf_joint', 'RR_hip_joint', 'RR_thigh_joint']",-1.5754948419565085,-0.005923007892367771,0.8258569790098838,-1.5740491701990744,0.014099299685499389,0.8204433087739194,-1.5936952215058895,-0.009888536431236439,0.7741941873935296,-1.586192262118237,0.008148224604914489,0.7680199221937221,0.8857373239903421,-0.17319781026010284,-0.48678906726191373,0.7232914882916162,-0.17922910219901958,-0.39453024125924585,0.9840215928312406,-0.16945185615175803,-0.512606356640535,0.8200724365623082,-0.17558294192510168,-0.4248719335864838,4.389565944671631,-1.581404685974121,-0.017910515889525414,4.128845691680908,1.437982201576233,0.035973597317934036,5.253124237060547,-1.844402551651001,0.5404238700866699,4.951632499694824,1.7881381511688232,0.5462262034416199
190.34425,190220,190,341500000,,"['FL_calf_joint', 'FL_hip_joint', 'FL_thigh_joint', 'FR_calf_joint', 'FR_hip_joint', 'FR_thigh_joint', 'RL_calf_joint', 'RL_hip_joint', 'RL_thigh_joint', 'RR_calf_joint', 'RR_hip_joint', 'RR_thigh_joint']",-1.5754420706411874,-0.006099410201239941,0.8258275852639168,-1.5741075073205528,0.013923129636214782,0.8204762750306847,-1.5936412570839789,-0.010063136243517512,0.7741656745835392,-1.5862513407343375,0.007973588170186119,0.76805169251028,0.8854313327800788,-0.17400713133051704,-0.48661243729362225,0.7236576625651521,-0.1800475290404609,-0.39474249075513995,0.9838138867579284,-0.17028703389992864,-0.5124911990368984,0.8203305121781348,-0.1764257251926245,-0.42501690609979603,4.3831024169921875,-1.5847663879394531,-0.017422400414943695,4.135445594787598,1.4354586601257324,0.035596225410699844,5.246344566345215,-1.8485645055770874,0.5402880907058716,4.958587169647217,1.784584879875183,0.5465112328529358
190.34425,190221,190,342500000,,"['FL_calf_joint', 'FL_hip_joint', 'FL_thigh_joint', 'FR_calf_joint', 'FR_hip_joint', 'FR_thigh_joint', 'RL_calf_joint', 'RL_hip_joint', 'RL_thigh_joint', 'RR_calf_joint', 'RR_hip_joint', 'RR_thigh_joint']",-1.5753889772380112,-0.006276601315298613,0.8257980237225953,-1.5741661271375178,0.013746161755927133,0.8205093844625901,-1.5935871140379403,-0.010238554087103502,0.7741370775452694,-1.5863105543984926,0.0077981236645214835,0.7680835213591806,0.8855159467770686,-0.17479381112369224,-0.4866479914055292,0.7236248583872409,-0.18084346679404975,-0.394738210184208,0.9838148422773478,-0.17110263439297527,-0.5124827062982572,0.8203753370272092,-0.17724993399201305,-0.4250524437110573,4.3831024169921875,-1.5847663879394531,-0.017422400414943695,4.135445594787598,1.4354586601257324,0.035596225410699844,5.246344566345215,-1.8485645055770874,0.5402880907058716,4.958587169647217,1.784584879875183,0.5465112328529358
190.34425,190222,190,343500000,,"['FL_calf_joint', 'FL_hip_joint', 'FL_thigh_joint', 'FR_calf_joint', 'FR_hip_joint', 'FR_thigh_joint', 'RL_calf_joint', 'RL_hip_joint', 'RL_thigh_joint', 'RR_calf_joint', 'RR_hip_joint', 'RR_thigh_joint']",-1.5753353511367538,-0.006454572710601347,0.8257681791128215,-1.574225239997792,0.013568404759592312,0.8205427518600477,-1.593532470740775,-0.010414780370852306,0.7741082293492401,-1.5863702280895389,0.007621839765828753,0.768115577181943,0.8857776291265385,-0.17557140175032743,-0.48678048456018813,0.7234111089701685,-0.1816303000305631,-0.3946350975514123,0.9840357470285281,-0.17190872068165491,-0.512588389815385,0.8201972843180817,-0.17806568759960995,-0.4249723774814085,4.3831024169921875,-1.5847663879394531,-0.017422400414943695,4.135445594787598,1.4354586601257324,0.035596225410699844,5.246344566345215,-1.8485645055770874,0.5402880907058716,4.958587169647217,1.784584879875183,0.5465112328529358
190.3445,190223,190,344500000,,"['FL_calf_joint', 'FL_hip_joint', 'FL_thigh_joint', 'FR_calf_joint', 'FR_hip_joint', 'FR_thigh_joint', 'RL_calf_joint', 'RL_hip_joint', 'RL_thigh_joint', 'RR_calf_joint', 'RR_hip_joint', 'RR_thigh_joint']",-1.575281240198811,-0.006633193543707172,0.8257380786138606,-1.5742847907635649,0.013389988514507678,0.8205763460245326,-1.5934773574381866,-0.010591686989013915,0.7740791466136265,-1.586430327181862,0.007444864379202443,0.7681478409915998,0.8859379821978065,-0.17592709682776875,-0.4868548732241041,0.7233085839342912,-0.18199210952098802,-0.3945950351987311,0.9841691265416368,-0.17229080390644919,-0.5126466075580879,0.8201194855169389,-0.17845681924209805,-0.424946309551361,4.3809709548950195,-1.576095700263977,-0.017131377011537552,4.137579441070557,1.4436568021774292,0.03523464500904083,5.24400520324707,-1.839005708694458,0.5404019355773926,4.961021423339844,1.7941303253173828,0.546441376209259
190.34725,190224,190,345500000,,"['FL_calf_joint', 'FL_hip_joint', 'FL_thigh_joint', 'FR_calf_joint', 'FR_hip_joint', 'FR_thigh_joint', 'RL_calf_joint', 'RL_hip_joint', 'RL_thigh_joint', 'RR_calf_joint', 'RR_hip_joint', 'RR_thigh_joint']",-1.575227245771471,-0.006811520583840824,0.8257080590124568,-1.5743441472318334,0.013211857535480931,0.8206098227241103,-1.5934223953453923,-0.010768336046363736,0.7740501594326012,-1.5864903176418572,0.0072681384294668305,0.7681800365798361,0.8853295671082057,-0.17548807958103008,-0.4864984225517585,0.7240060530478203,-0.18156711010142654,-0.39498485595930805,0.9834920226725918,-0.17189793471456163,-0.5122729136051474,0.8206478004626778,-0.17807426555134617,-0.4252286682905506,4.373998641967773,-1.5808274745941162,-0.016600603237748146,4.14478063583374,1.4416464567184448,0.03519783914089203,5.236528396606445,-1.842668890953064,0.5400187969207764,4.968623638153076,1.7907465696334839,0.546760082244873
190.355,190225,190,346500000,,"['FL_calf_joint', 'FL_hip_joint', 'FL_thigh_joint', 'FR_calf_joint', 'FR_hip_joint', 'FR_thigh_joint', 'RL_calf_joint', 'RL_hip_joint', 'RL_thigh_joint', 'RR_calf_joint', 'RR_hip_joint', 'RR_thigh_joint']",-1.5751735393355015,-0.006989486155419833,0.8256782139862944,-1.5744031338685942,0.01303407683978186,0.8206430878774098,-1.593367747316905,-0.010944660837902909,0.7740213522350814,-1.586549860632708,0.0070917267357408775,0.7682119899677993,0.8847990642066581,-0.17514282657419197,-0.48619313819457627,0.7246133901950944,-0.18123285709482503,-0.39533328967545284,0.9829385272993756,-0.171588350250385,-0.5119725911787745,0.8214039122921719,-0.17776972936249114,-0.4256361160414084,4.373998641967773,-1.5808274745941162,-0.016600603237748146,4.14478063583374,1.4416464567184448,0.03519783914089203,5.236528396606445,-1.842668890953064,0.5400187969207764,4.968623638153076,1.7907465696334839,0.546760082244873
190.355,190226,190,347500000,,"['FL_calf_joint', 'FL_hip_joint', 'FL_thigh_joint', 'FR_calf_joint', 'FR_hip_joint', 'FR_thigh_joint', 'RL_calf_joint', 'RL_hip_joint', 'RL_thigh_joint', 'RR_calf_joint', 'RR_hip_joint', 'RR_thigh_joint']",-1.5751196564780954,-0.007167106582333993,0.8256482849340463,-1.5744622174327758,0.012856630776168387,0.8206763916904185,-1.5933129282942247,-0.011120675820889936,0.7739924687899222,-1.586609432087318,0.006915614067866116,0.7682439434344985,0.8846012837389133,-0.17480391428467648,-0.4860700696000053,0.7248879370492479,-0.18090467596482654,-0.3954997093949374,0.9827278465742479,-0.17128509198591976,-0.5118502454255889,0.8217440714646307,-0.1774754670538195,-0.42582776240307085,4.373998641967773,-1.5808274745941162,-0.016600603237748146,4.14478063583374,1.4416464567184448,0.03519783914089203,5.236528396606445,-1.842668890953064,0.5400187969207764,4.968623638153076,1.7907465696334839,0.546760082244873
190.355,190227,190,348500000,,"['FL_calf_joint', 'FL_hip_joint', 'FL_thigh_joint', 'FR_calf_joint', 'FR_hip_joint', 'FR_thigh_joint', 'RL_calf_joint', 'RL_hip_joint', 'RL_thigh_joint', 'RR_calf_joint', 'RR_hip_joint', 'RR_thigh_joint']",-1.575065626641702,-0.007344186749320691,0.8256182898234465,-1.5745213608221476,0.012679713867237652,0.8207097145187188,-1.593257985060844,-0.01129618707579727,0.7739635351756853,-1.586669093654498,0.006739994606128619,0.7682759296460357,0.8842529338942946,-0.1739312312955435,-0.48585989501418947,0.7253294520747651,-0.18004388441091,-0.3957572703475925,0.9823541350007825,-0.1704532555297494,-0.5116386603926252,0.8221454294392172,-0.17665264414442702,-0.4260510762324458,4.371521472930908,-1.5720257759094238,-0.01630859263241291,4.147066116333008,1.4477922916412354,0.03456076234579086,5.233858108520508,-1.8355648517608643,0.5400046110153198,4.971408367156982,1.797655463218689,0.5468437075614929
190.355,190228,190,349500000,,"['FL_calf_joint', 'FL_hip_joint', 'FL_thigh_joint', 'FR_calf_joint', 'FR_hip_joint', 'FR_thigh_joint', 'RL_calf_joint', 'RL_hip_joint', 'RL_thigh_joint', 'RR_calf_joint', 'RR_hip_joint', 'RR_thigh_joint']",-1.5750118038562584,-0.007519933599238193,0.8255884258269512,-1.5745801906893138,0.012504119455224227,0.8207428466323394,-1.5932032821495277,-0.011470412644478678,0.7739347440632951,-1.5867284019592613,0.0065656511616580815,0.7683077125236046,0.8837973506120121,-0.17253614545215093,-0.48559180995065965,0.7258869211190953,-0.17865943026546025,-0.3960857796724005,0.9818796208097597,-0.16910684212336993,-0.5113754281803776,0.8227848102242737,-0.17531410912131962,-0.4264057070376467,4.371521472930908,-1.5720257759094238,-0.01630859263241291,4.147066116333008,1.4477922916412354,0.03456076234579086,5.233858108520508,-1.8355648517608643,0.5400046110153198,4.971408367156982,1.797655463218689,0.5468437075614929
190.355,190229,190,350500000,,"['FL_calf_joint', 'FL_hip_joint', 'FL_thigh_joint', 'FR_calf_joint', 'FR_hip_joint', 'FR_thigh_joint', 'RL_calf_joint', 'RL_hip_joint', 'RL_thigh_joint', 'RR_calf_joint', 'RR_hip_joint', 'RR_thigh_joint']",-1.5749581120031553,-0.007694299974173369,0.82555864972782,-1.5746387838749416,0.012329895002837432,0.8207758279282835,-1.5931487385322995,-0.011643305641599433,0.773906051830993,-1.5867874333893557,0.006392630636353758,0.7683393296233731,0.8834765157784402,-0.17116320176821812,-0.485397841565379,0.726308912770304,-0.17729716957076855,-0.39633991385047795,0.981541387907545,-0.16778149669884485,-0.5111833083328425,0.8232517509894257,-0.1739973888501333,-0.42667048170225114,4.371521472930908,-1.5720257759094238,-0.01630859263241291,4.147066116333008,1.4477922916412354,0.03456076234579086,5.233858108520508,-1.8355648517608643,0.5400046110153198,4.971408367156982,1.797655463218689,0.5468437075614929
190.355,190230,190,351500000,,"['FL_calf_joint', 'FL_hip_joint', 'FL_thigh_joint', 'FR_calf_joint', 'FR_hip_joint', 'FR_thigh_joint', 'RL_calf_joint', 'RL_hip_joint', 'RL_thigh_joint', 'RR_calf_joint', 'RR_hip_joint', 'RR_thigh_joint']",-1.5749051849852864,-0.007867294937313751,0.8255292977645334,-1.5746967350399053,0.012157032838496562,0.8208084277132919,-1.5930947873412027,-0.011814873350837196,0.7738776723653462,-1.586845775485335,0.006220928155489247,0.7683705575488151,0.8821363255613568,-0.1697777228466013,-0.48465546314315694,0.727534281608873,-0.17592177163796924,-0.39704186775542016,0.9803634048158653,-0.1664443417053439,-0.5105650642423605,0.8245375319958026,-0.17266493016761564,-0.4273691871939812,4.361947536468506,-1.5742318630218506,-0.015638338401913643,4.156786918640137,1.4459855556488037,0.03392931446433067,5.2235331535339355,-1.8386579751968384,0.5395364761352539,4.981619358062744,1.7949678897857666,0.5473669767379761
190.355,190231,190,352500000,,"['FL_calf_joint', 'FL_hip_joint', 'FL_thigh_joint', 'FR_calf_joint', 'FR_hip_joint', 'FR_thigh_joint', 'RL_calf_joint', 'RL_hip_joint', 'RL_thigh_joint', 'RR_calf_joint', 'RR_hip_joint', 'RR_thigh_joint']",-1.5748526325912304,-0.008038892927058505,0.8255001689631021,-1.574753994916795,0.011985555715057217,0.8208406292800428,-1.5930414436392617,-0.011985095171305638,0.7738496263372472,-1.5869034241120072,0.006050564022913818,0.7684014045489675,0.8814053954471535,-0.16839362167077757,-0.4842347833197962,0.7284797673470897,-0.1745487420571564,-0.3975807511906718,0.9795011278849233,-0.16511017054401425,-0.5100987061554877,0.8254945792929482,-0.1713368053311413,-0.4278870115357665,4.361947536468506,-1.5742318630218506,-0.015638338401913643,4.156786918640137,1.4459855556488037,0.03392931446433067,5.2235331535339355,-1.8386579751968384,0.5395364761352539,4.981619358062744,1.7949678897857666,0.5473669767379761
190.355,190232,190,353500000,,"['FL_calf_joint', 'FL_hip_joint', 'FL_thigh_joint', 'FR_calf_joint', 'FR_hip_joint', 'FR_thigh_joint', 'RL_calf_joint', 'RL_hip_joint', 'RL_thigh_joint', 'RR_calf_joint', 'RR_hip_joint', 'RR_thigh_joint']",-1.5748001958296682,-0.008209090531928531,0.8254711214438499,-1.5748109938689043,0.01181546874057382,0.8208726683108969,-1.5929882477905748,-0.012153964315198884,0.7738216749769045,-1.5869608284716819,0.005881543437704195,0.7684321042691105,0.8808165574952568,-0.16697686870741393,-0.48389243125885895,0.7292204377084551,-0.17314247207527228,-0.398007491563277,0.9788774351768335,-0.16374168755346996,-0.509756734560873,0.8262156815864464,-0.16997508690797258,-0.42828218649096866,4.360629081726074,-1.5740071535110474,-0.015593631193041801,4.1580705642700195,1.446185827255249,0.03389403969049454,5.222133159637451,-1.8383461236953735,0.5394209623336792,4.98300313949585,1.7952954769134521,0.547484278678894
190.355,190233,190,354500000,,"['FL_calf_joint', 'FL_hip_joint', 'FL_thigh_joint', 'FR_calf_joint', 'FR_hip_joint', 'FR_thigh_joint', 'RL_calf_joint', 'RL_hip_joint', 'RL_thigh_joint', 'RR_calf_joint', 'RR_hip_joint', 'RR_thigh_joint']",-1.5747478813014344,-0.00837785487723064,0.8254421589818728,-1.574867771361649,0.011646805208618716,0.82090456665233,-1.5929352169022621,-0.012321448159641868,0.7737938273602687,-1.5870179704067855,0.005713899338694262,0.7684626475856229,0.880383158409245,-0.16555300015494917,-0.4836349234547812,0.7297798540114377,-0.1717286980748558,-0.3983349204242571,0.9783857249365218,-0.16236587668254018,-0.5094829880849993,0.826802063019775,-0.16860646095898565,-0.42860715124890153,4.360629081726074,-1.5740071535110474,-0.015593631193041801,4.1580705642700195,1.446185827255249,0.03389403969049454,5.222133159637451,-1.8383461236953735,0.5394209623336792,4.98300313949585,1.7952954769134521,0.547484278678894
190.3645,190234,190,355500000,,"['FL_calf_joint', 'FL_hip_joint', 'FL_thigh_joint', 'FR_calf_joint', 'FR_hip_joint', 'FR_thigh_joint', 'RL_calf_joint', 'RL_hip_joint', 'RL_thigh_joint', 'RR_calf_joint', 'RR_hip_joint', 'RR_thigh_joint']",-1.574695691898238,-0.00854518453665154,0.8254132832326109,-1.574924336689841,0.011479564880893633,0.8209363288157139,-1.592882333485643,-0.012487548471928456,0.7737660745738264,-1.587074864744876,0.0055476297693672905,0.7684930416339908,0.8800072535942753,-0.16404763825460106,-0.4834086845837288,0.7302447301805235,-0.170240760062782,-0.39861386099355434,0.9779922698269916,-0.1609228210184307,-0.5092596257710872,0.8272946369190872,-0.16717193959175788,-0.42888658008625524,4.359788417816162,-1.5633825063705444,-0.015543130226433277,4.1580705642700195,1.446185827255249,0.03389403969049454,5.222133159637451,-1.8383461236953735,0.5394209623336792,4.98300313949585,1.7952954769134521,0.547484278678894
190.3645,190235,190,356500000,,"['FL_calf_joint', 'FL_hip_joint', 'FL_thigh_joint', 'FR_calf_joint', 'FR_hip_joint', 'FR_thigh_joint', 'RL_calf_joint', 'RL_hip_joint', 'RL_thigh_joint', 'RR_calf_joint', 'RR_hip_joint', 'RR_thigh_joint']",-1.574643987716175,-0.008710120203287097,0.8253846950783261,-1.5749803007606604,0.01131471209969881,0.8209677375220927,-1.5928299607954521,-0.01265130669481973,0.7737386083980748,-1.5871311190004072,0.005383695653506493,0.7685230781513779,0.8792468466773428,-0.16118407231007534,-0.482966824507075,0.7311641177534673,-0.16737938861139603,-0.39914330148500715,0.9771814630769613,-0.1581072847041742,-0.5088154191716858,0.8282445042075057,-0.16436091988774448,-0.42940559430535824,4.359788417816162,-1.5633825063705444,-0.015543130226433277,4.15891695022583,1.4562550783157349,0.03380763158202171,5.221261024475098,-1.8269826173782349,0.5396105647087097,4.98385763168335,1.8065265417099,0.5472354292869568
190.3645,190236,190,357500000,,"['FL_calf_joint', 'FL_hip_joint', 'FL_thigh_joint', 'FR_calf_joint', 'FR_hip_joint', 'FR_thigh_joint', 'RL_calf_joint', 'RL_hip_joint', 'RL_thigh_joint', 'RR_calf_joint', 'RR_hip_joint', 'RR_thigh_joint']",-1.5745929057756256,-0.008872222711958422,0.8253564704849312,-1.5750354920107692,0.01115268138485348,0.8209986983721018,-1.592778257180857,-0.01281229442527998,0.7737115126605456,-1.5871865651353492,0.0052225254492253015,0.7685526688894475,0.8785559829195548,-0.15836306638892333,-0.48256392902215456,0.7320054173813282,-0.16456828632511636,-0.39963030377895875,0.9764479251706732,-0.1553456621343445,-0.5084115649751181,0.8291131900626214,-0.16160496056346182,-0.429882829479511,4.359788417816162,-1.5633825063705444,-0.015543130226433277,4.15891695022583,1.4562550783157349,0.03380763158202171,5.221261024475098,-1.8269826173782349,0.5396105647087097,4.98385763168335,1.8065265417099,0.5472354292869568
190.3645,190237,190,358500000,,"['FL_calf_joint', 'FL_hip_joint', 'FL_thigh_joint', 'FR_calf_joint', 'FR_hip_joint', 'FR_thigh_joint', 'RL_calf_joint', 'RL_hip_joint', 'RL_thigh_joint', 'RR_calf_joint', 'RR_hip_joint', 'RR_thigh_joint']",-1.5745425695864372,-0.009031541513741637,0.8253286770548831,-1.5750897973796785,0.010993425023706038,0.821029150149652,-1.59272733911199,-0.012970558963474765,0.7736848477050859,-1.5872410920376563,0.005064073254555268,0.7685817567892572,0.8774400186593245,-0.15560518079717708,-0.48192729620482283,0.7332594849965912,-0.1618193598126986,-0.4003430322368761,0.975277580473582,-0.15265275303972423,-0.5077796041068219,0.8304107518159989,-0.1589145082024139,-0.4305831591927131,4.3470025062561035,-1.5667338371276855,-0.014657481573522091,4.171595573425293,1.4533263444900513,0.03306901082396507,5.207595348358154,-1.8318034410476685,0.5389180183410645,4.997474193572998,1.8024170398712158,0.5480180382728577
190.3645,190238,190,359500000,,"['FL_calf_joint', 'FL_hip_joint', 'FL_thigh_joint', 'FR_calf_joint', 'FR_hip_joint', 'FR_thigh_joint', 'RL_calf_joint', 'RL_hip_joint', 'RL_thigh_joint', 'RR_calf_joint', 'RR_hip_joint', 'RR_thigh_joint']",-1.5744937207418732,-0.009188120236333752,0.825301722169951,-1.5751424866334474,0.010836899507680187,0.8210586940776192,-1.5926779525497752,-0.013126146338639622,0.7736590020245835,-1.5872939625687472,0.0049082965288302915,0.7686099596011982,0.8756508411589623,-0.15287003561367263,-0.48092190263761786,0.7351746813437858,-0.1590938995229239,-0.40141563262472096,0.9734393868710579,-0.14997642278985807,-0.5068014722194725,0.8323674482112375,-0.1562389554711506,-0.43162356880447195,4.3470025062561035,-1.5667338371276855,-0.014657481573522091,4.171595573425293,1.4533263444900513,0.03306901082396507,5.207595348358154,-1.8318034410476685,0.5389180183410645,4.997474193572998,1.8024170398712158,0.5480180382728577
190.3645,190239,190,360500000,,"['FL_calf_joint', 'FL_hip_joint', 'FL_thigh_joint', 'FR_calf_joint', 'FR_hip_joint', 'FR_thigh_joint', 'RL_calf_joint', 'RL_hip_joint', 'RL_thigh_joint', 'RR_calf_joint', 'RR_hip_joint', 'RR_thigh_joint']",-1.574445584480539,-0.009341985614082837,0.8252751811033017,-1.575194326429624,0.010683078727431905,0.8210877494328397,-1.5926292875001913,-0.01327907917536475,0.7736335545023696,-1.5873459816981477,0.004755169355238564,0.7686376955505514,0.8744883716637588,-0.15018051390322354,-0.48025992108182886,0.7364670473009154,-0.15641304807908893,-0.402147909858111,0.9722520123705136,-0.14734614431417162,-0.5061611865840582,0.8336762408139586,-0.15361128285719786,-0.4323279780019218,4.3470025062561035,-1.5667338371276855,-0.014657481573522091,4.171595573425293,1.4533263444900513,0.03306901082396507,5.207595348358154,-1.8318034410476685,0.5389180183410645,4.997474193572998,1.8024170398712158,0.5480180382728577
190.3645,190240,190,361500000,,"['FL_calf_joint', 'FL_hip_joint', 'FL_thigh_joint', 'FR_calf_joint', 'FR_hip_joint', 'FR_thigh_joint', 'RL_calf_joint', 'RL_hip_joint', 'RL_thigh_joint', 'RR_calf_joint', 'RR_hip_joint', 'RR_thigh_joint']",-1.574398262726962,-0.009492922899743128,0.8252491104141209,-1.5752452117572786,0.010532177880621774,0.8211162583009228,-1.5925814675943695,-0.013429144292985917,0.7736085700853366,-1.5873970205199175,0.004604905995424957,0.7686648972199484,0.8725162444083077,-0.1468486605578043,-0.4791517899704777,0.7385673947031942,-0.15308971781327074,-0.4033237912209941,0.9702313685377064,-0.1440801836133577,-0.505085476000572,0.835831276775136,-0.15034387618708459,-0.43347369765799104,4.333037376403809,-1.560724139213562,-0.013481979258358479,4.185359954833984,1.4590963125228882,0.03215981647372246,5.192618370056152,-1.825609803199768,0.5383103489875793,5.012411594390869,1.8084145784378052,0.5487342476844788
190.3645,190241,190,362500000,,"['FL_calf_joint', 'FL_hip_joint', 'FL_thigh_joint', 'FR_calf_joint', 'FR_hip_joint', 'FR_thigh_joint', 'RL_calf_joint', 'RL_hip_joint', 'RL_thigh_joint', 'RR_calf_joint', 'RR_hip_joint', 'RR_thigh_joint']",-1.5743525248198629,-0.009639948928774622,0.8252239356648348,-1.5752943594454627,0.01038518011997347,0.8211437890870501,-1.5925352691543893,-0.013575368951147304,0.7735844562036469,-1.587446281248459,0.004458482783864071,0.7686911467755158,0.870357970371828,-0.1428833806965349,-0.4779392540162623,0.7408665486006512,-0.14913270311837654,-0.4046104988101968,0.9680375076290298,-0.14018674749429946,-0.5039172126689407,0.8381745792863381,-0.14644796693394288,-0.43471949177598795,4.333037376403809,-1.560724139213562,-0.013481979258358479,4.185359954833984,1.4590963125228882,0.03215981647372246,5.192618370056152,-1.825609803199768,0.5383103489875793,5.012411594390869,1.8084145784378052,0.5487342476844788
190.3645,190242,190,363500000,,"['FL_calf_joint', 'FL_hip_joint', 'FL_thigh_joint', 'FR_calf_joint', 'FR_hip_joint', 'FR_thigh_joint', 'RL_calf_joint', 'RL_hip_joint', 'RL_thigh_joint', 'RR_calf_joint', 'RR_hip_joint', 'RR_thigh_joint']",-1.5743075861068774,-0.009783028398291371,0.8251992266928214,-1.5753425341182044,0.010242121522889391,0.8211707597236284,-1.5924898906583937,-0.013717715153481969,0.7735607962319779,-1.5874945623575307,0.0043159348611183646,0.768716858744849,0.8688242926958228,-0.13897318725137617,-0.47706954235651683,0.7425521708072735,-0.1452299755451352,-0.40556138461917934,0.9664826243223499,-0.1363451778052706,-0.5030814830196575,0.839879129279055,-0.1426060652249789,-0.4356332049760178,4.333037376403809,-1.560724139213562,-0.013481979258358479,4.185359954833984,1.4590963125228882,0.03215981647372246,5.192618370056152,-1.825609803199768,0.5383103489875793,5.012411594390869,1.8084145784378052,0.5487342476844788
190.37375,190243,190,364500000,,"['FL_calf_joint', 'FL_hip_joint', 'FL_thigh_joint', 'FR_calf_joint', 'FR_hip_joint', 'FR_thigh_joint', 'RL_calf_joint', 'RL_hip_joint', 'RL_thigh_joint', 'RR_calf_joint', 'RR_hip_joint', 'RR_thigh_joint']",-1.5742633027588417,-0.009922225048696554,0.8251749042215808,-1.5753898763954246,0.010102938926154437,0.8211972476622318,-1.592445206358283,-0.013856245009228552,0.7735375243643059,-1.5875419919348364,0.004177200102976286,0.7687421002547428,0.8675848106399029,-0.13512280278965838,-0.47636148307240495,0.7439480708223009,-0.14138641239820393,-0.4063534054378424,0.9652199193879643,-0.13256155621340016,-0.5023979728614284,0.8412902270186872,-0.13882281851135456,-0.436394072473866,4.333037376403809,-1.560724139213562,-0.013481979258358479,4.185359954833984,1.4590963125228882,0.03215981647372246,5.192618370056152,-1.825609803199768,0.5383103489875793,5.012411594390869,1.8084145784378052,0.5487342476844788
190.37375,190244,190,365500000,,"['FL_calf_joint', 'FL_hip_joint', 'FL_thigh_joint', 'FR_calf_joint', 'FR_hip_joint', 'FR_thigh_joint', 'RL_calf_joint', 'RL_hip_joint', 'RL_thigh_joint', 'RR_calf_joint', 'RR_hip_joint', 'RR_thigh_joint']",-1.574219481039154,-0.01005782386421128,0.8251508607848175,-1.575436587986427,0.009967347880799338,0.8212233646309262,-1.5924010298466031,-0.013991239996047788,0.7735145424571694,-1.5875887659705281,0.004041996585124608,0.7687669745463497,0.8670514447445441,-0.13176816998461485,-0.47604265864674267,0.7446290113739531,-0.13803786520076938,-0.40675235973985235,0.9646707108546378,-0.129266869933836,-0.502087440877378,0.8419728523908492,-0.13553115287301262,-0.43677447137408476,4.337996006011963,-1.5636130571365356,-0.013863956555724144,4.180396556854248,1.456229567527771,0.03249300271272659,5.197925567626953,-1.8282970190048218,0.538549542427063,5.007082462310791,1.80562162399292,0.548469603061676
190.37375,190245,190,366500000,,"['FL_calf_joint', 'FL_hip_joint', 'FL_thigh_joint', 'FR_calf_joint', 'FR_hip_joint', 'FR_thigh_joint', 'RL_calf_joint', 'RL_hip_joint', 'RL_thigh_joint', 'RR_calf_joint', 'RR_hip_joint', 'RR_thigh_joint']",-1.574176118788777,-0.010190251721335919,0.8251270931788843,-1.5754826845684398,0.009834922013430614,0.8212491214556703,-1.5923573701521487,-0.014123122313502101,0.7734918531405253,-1.5876348879228512,0.0039099027306672696,0.768791485772848,0.8664959692818507,-0.1286148478242844,-0.47571269245483094,0.7453279499724101,-0.13489018358824822,-0.40715998155857297,0.964085685367751,-0.12617133095877975,-0.5017592747057558,0.8426862713477574,-0.13243794796191125,-0.43716964789861795,4.337996006011963,-1.5636130571365356,-0.013863956555724144,4.180396556854248,1.456229567527771,0.03249300271272659,5.197925567626953,-1.8282970190048218,0.538549542427063,5.007082462310791,1.80562162399292,0.548469603061676
190.37375,190246,190,367500000,,"['FL_calf_joint', 'FL_hip_joint', 'FL_thigh_joint', 'FR_calf_joint', 'FR_hip_joint', 'FR_thigh_joint', 'RL_calf_joint', 'RL_hip_joint', 'RL_thigh_joint', 'RR_calf_joint', 'RR_hip_joint', 'RR_thigh_joint']",-1.5741335470614959,-0.010319567791481354,0.8251037826111309,-1.5755278402237027,0.009705602380334355,0.8212743405174336,-1.5923145596391937,-0.014251951304603772,0.7734696289117995,-1.5876800268340432,0.003780860943496833,0.7688154626419523,0.8658214089566019,-0.1255161337038142,-0.47531773312465875,0.746144434693354,-0.13179678346958426,-0.4076313659762495,0.9633757731961616,-0.12313002109754476,-0.5013664494672053,0.8435234634944022,-0.12939808719533447,-0.43762861476648235,4.337996006011963,-1.5636130571365356,-0.013863956555724144,4.180396556854248,1.456229567527771,0.03249300271272659,5.197925567626953,-1.8282970190048218,0.538549542427063,5.007082462310791,1.80562162399292,0.548469603061676
