Time,header.seq,header.stamp.secs,header.stamp.nsecs,header.frame_id,orientation.x,orientation.y,orientation.z,orientation.w,orientation_covariance_0,orientation_covariance_1,orientation_covariance_2,orientation_covariance_3,orientation_covariance_4,orientation_covariance_5,orientation_covariance_6,orientation_covariance_7,orientation_covariance_8,angular_velocity.x,angular_velocity.y,angular_velocity.z,angular_velocity_covariance_0,angular_velocity_covariance_1,angular_velocity_covariance_2,angular_velocity_covariance_3,angular_velocity_covariance_4,angular_velocity_covariance_5,angular_velocity_covariance_6,angular_velocity_covariance_7,angular_velocity_covariance_8,linear_acceleration.x,linear_acceleration.y,linear_acceleration.z,linear_acceleration_covariance_0,linear_acceleration_covariance_1,linear_acceleration_covariance_2,linear_acceleration_covariance_3,linear_acceleration_covariance_4,linear_acceleration_covariance_5,linear_acceleration_covariance_6,linear_acceleration_covariance_7,linear_acceleration_covariance_8
190.31925,189033,190,285750000,imu_link,-0.00398901515772209,-0.0031323521983635297,-3.1580588777407335e-05,0.9999871374824996,0.0,0.0,0.0,0.0,0.0,0.0,0.0,0.0,0.0,-0.04152287424831662,-0.00048202711183704266,0.0006578483010698807,0.0,0.0,0.0,0.0,0.0,0.0,0.0,0.0,0.0,0.06198322470748455,-0.050518917248453594,9.797668646366281,0.0,0.0,0.0,0.0,0.0,0.0,0.0,0.0,0.0
190.31925,189034,190,286750000,imu_link,-0.004007159931944745,-0.0031323632023782326,-3.124772234727362e-05,0.9999870649131558,0.0,0.0,0.0,0.0,0.0,0.0,0.0,0.0,0.0,-0.0352461566091595,-0.0004815474213835649,0.0007193387203099713,0.0,0.0,0.0,0.0,0.0,0.0,0.0,0.0,0.0,0.06205931588088558,-0.053135454960215184,9.796601779284178,0.0,0.0,0.0,0.0,0.0,0.0,0.0,0.0,0.0
190.31925,189035,190,287750000,imu_link,-0.004022196450248754,-0.0031323737949123472,-3.087523981647399e-05,0.999987004523981,0.0,0.0,0.0,0.0,0.0,0.0,0.0,0.0,0.0,-0.027521654717427672,-0.00048059641955959845,0.000793659140142714,0.0,0.0,0.0,0.0,0.0,0.0,0.0,0.0,0.0,0.06204007778735028,-0.05456475904291823,9.796803729618063,0.0,0.0,0.0,0.0,0.0,0.0,0.0,0.0,0.0
190.31925,189036,190,288750000,imu_link,-0.004034048882625503,-0.003132383985116939,-3.0463018507750904e-05,0.9999869567610304,0.0,0.0,0.0,0.0,0.0,0.0,0.0,0.0,0.0,-0.022629060570469855,-0.00048028829055854456,0.0008389699192128022,0.0,0.0,0.0,0.0,0.0,0.0,0.0,0.0,0.0,0.06207960617675412,-0.05290779660460973,9.796144013074278,0.0,0.0,0.0,0.0,0.0,0.0,0.0,0.0,0.0
190.31925,189037,190,289750000,imu_link,-0.004042509285636645,-0.003132393470517839,-3.0009526901659544e-05,0.9999869225791154,0.0,0.0,0.0,0.0,0.0,0.0,0.0,0.0,0.0,-0.014173838969567443,-0.0004784166766042427,0.0009155454286251332,0.0,0.0,0.0,0.0,0.0,0.0,0.0,0.0,0.0,0.062057019304321434,-0.052287766511037476,9.795797732114313,0.0,0.0,0.0,0.0,0.0,0.0,0.0,0.0,0.0
190.3195,189038,190,290750000,imu_link,-0.004047629704216644,-0.0031324010471859205,-2.9517003196258795e-05,0.9999869018573213,0.0,0.0,0.0,0.0,0.0,0.0,0.0,0.0,0.0,-0.007825157835997151,-0.0004739660242864109,0.0009598817191662095,0.0,0.0,0.0,0.0,0.0,0.0,0.0,0.0,0.0,0.06198669629527386,-0.05638590088878627,9.7963793402419,0.0,0.0,0.0,0.0,0.0,0.0,0.0,0.0,0.0
190.3195,189042,190,294750000,imu_link,-0.004045929128221703,-0.0031322843868365523,-2.7459050164017782e-05,0.99998690916332,0.0,0.0,0.0,0.0,0.0,0.0,0.0,0.0,0.0,0.007651665747885317,-0.00038749153337777934,0.0009745480501469581,0.0,0.0,0.0,0.0,0.0,0.0,0.0,0.0,0.0,0.06172226804843399,-0.08794131470852576,9.800258855119905,0.0,0.0,0.0,0.0,0.0,0.0,0.0,0.0,0.0
190.3195,189043,190,295750000,imu_link,-0.004041411619675163,-0.0031322290240839152,-2.692748721540561e-05,0.9999869276187423,0.0,0.0,0.0,0.0,0.0,0.0,0.0,0.0,0.0,0.009762048757307176,-0.0003832154954960316,0.0009889975276398456,0.0,0.0,0.0,0.0,0.0,0.0,0.0,0.0,0.0,0.061379004366491394,-0.09060529013859595,9.80306252223821,0.0,0.0,0.0,0.0,0.0,0.0,0.0,0.0,0.0
190.3195,189044,190,296750000,imu_link,-0.004035591247080692,-0.003132185025836467,-2.6383980799235422e-05,0.9999869512769334,0.0,0.0,0.0,0.0,0.0,0.0,0.0,0.0,0.0,0.013105569877446441,-0.0003837874207183527,0.0010141204895829452,0.0,0.0,0.0,0.0,0.0,0.0,0.0,0.0,0.0,0.061421064464564024,-0.09173009898062946,9.804442731561785,0.0,0.0,0.0,0.0,0.0,0.0,0.0,0.0,0.0
190.31975,189045,190,297750000,imu_link,-0.004028472579170482,-0.00313214846546425,-2.5828497302442293e-05,0.9999869801090201,0.0,0.0,0.0,0.0,0.0,0.0,0.0,0.0,0.0,0.015084788158998141,-0.000383212911868378,0.0010285590192783698,0.0,0.0,0.0,0.0,0.0,0.0,0.0,0.0,0.0,0.06166303159563495,-0.09166106531702078,9.803732225267288,0.0,0.0,0.0,0.0,0.0,0.0,0.0,0.0,0.0
190.31975,189046,190,298750000,imu_link,-0.004020058914857408,-0.0031321079379478638,-2.5258746426950855e-05,0.9999870141097743,0.0,0.0,0.0,0.0,0.0,0.0,0.0,0.0,0.0,0.01768227851891531,-0.0003779750905126629,0.001049241456928211,0.0,0.0,0.0,0.0,0.0,0.0,0.0,0.0,0.0,0.061584183491991844,-0.09162022891175986,9.803531385969329,0.0,0.0,0.0,0.0,0.0,0.0,0.0,0.0,0.0
190.31975,189047,190,299750000,imu_link,-0.004010351311181242,-0.003132065552438439,-2.4674843501708755e-05,0.9999870532356349,0.0,0.0,0.0,0.0,0.0,0.0,0.0,0.0,0.0,0.020915580753611482,-0.0003737111614754971,0.0010743706797705793,0.0,0.0,0.0,0.0,0.0,0.0,0.0,0.0,0.0,0.061536695548057165,-0.0915815368710206,9.804156227232923,0.0,0.0,0.0,0.0,0.0,0.0,0.0,0.0,0.0
190.31975,189048,190,300750000,imu_link,-0.0039993626099122945,-0.0031320219000938675,-2.4077202818519402e-05,0.9999870973956714,0.0,0.0,0.0,0.0,0.0,0.0,0.0,0.0,0.0,0.023465206763468926,-0.0003714031981674937,0.0010937170088460497,0.0,0.0,0.0,0.0,0.0,0.0,0.0,0.0,0.0,0.06152621324432924,-0.09168622402778547,9.804504727913393,0.0,0.0,0.0,0.0,0.0,0.0,0.0,0.0,0.0
190.32,189049,190,301750000,imu_link,-0.003987056845598885,-0.00313197731458382,-2.3465693895128822e-05,0.9999871466899825,0.0,0.0,0.0,0.0,0.0,0.0,0.0,0.0,0.0,0.025354131664701136,-0.00036995215589668494,0.001107878833079777,0.0,0.0,0.0,0.0,0.0,0.0,0.0,0.0,0.0,0.06152275305390828,-0.09168450595069276,9.804651870093828,0.0,0.0,0.0,0.0,0.0,0.0,0.0,0.0,0.0
190.32,189050,190,302750000,imu_link,-0.003972816662633672,-0.0031319327535674606,-2.2834699225151892e-05,0.9999872035199096,0.0,0.0,0.0,0.0,0.0,0.0,0.0,0.0,0.0,0.030563749124586256,-0.00037054490596598246,0.0011439060017818937,0.0,0.0,0.0,0.0,0.0,0.0,0.0,0.0,0.0,0.06160557319247253,-0.087214104472626,9.802445599240563,0.0,0.0,0.0,0.0,0.0,0.0,0.0,0.0,0.0
190.32,189051,190,304000000,imu_link,-0.003947625398582753,-0.003131866179589762,-2.1851214699580734e-05,0.9999873035146347,0.0,0.0,0.0,0.0,0.0,0.0,0.0,0.0,0.0,0.035578994225807035,-0.00037079021942951754,0.0011768115828921922,0.0,0.0,0.0,0.0,0.0,0.0,0.0,0.0,0.0,0.06157148858849743,-0.08862462647815593,9.802795359493782,0.0,0.0,0.0,0.0,0.0,0.0,0.0,0.0,0.0
190.32,189052,190,305000000,imu_link,-0.0039333714962756765,-0.0031318329070062993,-2.1343936055497584e-05,0.9999873597979884,0.0,0.0,0.0,0.0,0.0,0.0,0.0,0.0,0.0,0.0394704912701886,-0.00037081043767089715,0.0012013911245737727,0.0,0.0,0.0,0.0,0.0,0.0,0.0,0.0,0.0,0.06154861647983985,-0.08960557690469295,9.80305530425114,0.0,0.0,0.0,0.0,0.0,0.0,0.0,0.0,0.0
190.32,189053,190,306000000,imu_link,-0.003912631161765041,-0.003131788568568149,-2.0651559088349648e-05,0.9999874413167733,0.0,0.0,0.0,0.0,0.0,0.0,0.0,0.0,0.0,0.043672496712358004,-0.00037100755044967685,0.0012272279235278356,0.0,0.0,0.0,0.0,0.0,0.0,0.0,0.0,0.0,0.06156860036568181,-0.08827604990998447,9.802569135092691,0.0,0.0,0.0,0.0,0.0,0.0,0.0,0.0,0.0
190.32,189054,190,307000000,imu_link,-0.003889397661659948,-0.00313174449786137,-1.9936297463626885e-05,0.9999875321046626,0.0,0.0,0.0,0.0,0.0,0.0,0.0,0.0,0.0,0.04889231546431429,-0.00037161870051240746,0.001259275689065943,0.0,0.0,0.0,0.0,0.0,0.0,0.0,0.0,0.0,0.06163247352898195,-0.08442874024774319,9.80092817081552,0.0,0.0,0.0,0.0,0.0,0.0,0.0,0.0,0.0
190.32,189055,190,308000000,imu_link,-0.0038635663921012353,-0.0031317006673450974,-1.9197717860702027e-05,0.9999876323920771,0.0,0.0,0.0,0.0,0.0,0.0,0.0,0.0,0.0,0.052764320137333856,-0.0003720006901556511,0.0012822188550329296,0.0,0.0,0.0,0.0,0.0,0.0,0.0,0.0,0.0,0.061620401186294985,-0.08464949235624147,9.801044289445084,0.0,0.0,0.0,0.0,0.0,0.0,0.0,0.0,0.0
190.32,189056,190,309000000,imu_link,-0.00383517365319554,-0.003131657028746063,-1.843657809157113e-05,0.9999877418385672,0.0,0.0,0.0,0.0,0.0,0.0,0.0,0.0,0.0,0.057865209541298444,-0.0003724436244857887,0.001311725108207299,0.0,0.0,0.0,0.0,0.0,0.0,0.0,0.0,0.0,0.06161011272519467,-0.08470880776881767,9.801174190507776,0.0,0.0,0.0,0.0,0.0,0.0,0.0,0.0,0.0
190.32,189057,190,310000000,imu_link,-0.003804296402051506,-0.0031316135161600605,-1.765394701439218e-05,0.9999878599333138,0.0,0.0,0.0,0.0,0.0,0.0,0.0,0.0,0.0,0.06278972298846276,-0.00037271108015530044,0.0013393495706582085,0.0,0.0,0.0,0.0,0.0,0.0,0.0,0.0,0.0,0.06158176604196473,-0.0858133907323305,9.801529890045908,0.0,0.0,0.0,0.0,0.0,0.0,0.0,0.0,0.0
190.32,189058,190,311000000,imu_link,-0.003770981716194426,-0.0031315700595703163,-1.6850672434369308e-05,0.9999879862687917,0.0,0.0,0.0,0.0,0.0,0.0,0.0,0.0,0.0,0.06915079967618273,-0.00037292750029219835,0.0013740183869121888,0.0,0.0,0.0,0.0,0.0,0.0,0.0,0.0,0.0,0.06158074818188318,-0.0854060112823896,9.801276412102725,0.0,0.0,0.0,0.0,0.0,0.0,0.0,0.0,0.0
190.32,189059,190,312000000,imu_link,-0.0037346232034729645,-0.0031315267499866864,-1.6021004148206428e-05,0.9999881228660017,0.0,0.0,0.0,0.0,0.0,0.0,0.0,0.0,0.0,0.0755157390580278,-0.0003732687013524716,0.0014101819343224759,0.0,0.0,0.0,0.0,0.0,0.0,0.0,0.0,0.0,0.06166272214897903,-0.07984070451229615,9.799051867829286,0.0,0.0,0.0,0.0,0.0,0.0,0.0,0.0,0.0
190.32,189060,190,313000000,imu_link,-0.0036950985911903887,-0.003131483525425318,-1.5164352183850983e-05,0.9999882698448888,0.0,0.0,0.0,0.0,0.0,0.0,0.0,0.0,0.0,0.08179988126115939,-0.00037346547226589454,0.001444423185071347,0.0,0.0,0.0,0.0,0.0,0.0,0.0,0.0,0.0,0.061643732198585134,-0.08004585695160979,9.799213426810349,0.0,0.0,0.0,0.0,0.0,0.0,0.0,0.0,0.0
190.32,189061,190,314000000,imu_link,-0.003652561043758798,-0.0031314431712162597,-1.4282859942536645e-05,0.9999884262617679,0.0,0.0,0.0,0.0,0.0,0.0,0.0,0.0,0.0,0.08616529555041143,-0.0003809761108623496,0.0014667203692897376,0.0,0.0,0.0,0.0,0.0,0.0,0.0,0.0,0.0,0.061606497434362174,-0.08091097720152352,9.799229883660512,0.0,0.0,0.0,0.0,0.0,0.0,0.0,0.0,0.0
190.32,189062,190,315000000,imu_link,-0.0036072764308656582,-0.003131403855155391,-1.3379777919227738e-05,0.9999885907787294,0.0,0.0,0.0,0.0,0.0,0.0,0.0,0.0,0.0,0.092986634294905,-0.00038107069242743517,0.0014994903139412517,0.0,0.0,0.0,0.0,0.0,0.0,0.0,0.0,0.0,0.0614673731701279,-0.08128266768703131,9.801236361372888,0.0,0.0,0.0,0.0,0.0,0.0,0.0,0.0,0.0
190.32,189063,190,316000000,imu_link,-0.00355929268616728,-0.003131364528398796,-1.2455751471500849e-05,0.9999887628551728,0.0,0.0,0.0,0.0,0.0,0.0,0.0,0.0,0.0,0.09835395051912514,-0.0003810055548289155,0.0015247151944141162,0.0,0.0,0.0,0.0,0.0,0.0,0.0,0.0,0.0,0.06147261801153334,-0.0809793974640005,9.801439375042468,0.0,0.0,0.0,0.0,0.0,0.0,0.0,0.0,0.0
190.32,189064,190,317000000,imu_link,-0.0035087513516266506,-0.003131325120263957,-1.1512416870105036e-05,0.99998894160606,0.0,0.0,0.0,0.0,0.0,0.0,0.0,0.0,0.0,0.1020555772144661,-0.00038088156083888907,0.0015410791328029354,0.0,0.0,0.0,0.0,0.0,0.0,0.0,0.0,0.0,0.061424952086882166,-0.08420723629705552,9.80227288874945,0.0,0.0,0.0,0.0,0.0,0.0,0.0,0.0,0.0
190.32,189065,190,318000000,imu_link,-0.0034558564193328868,-0.0031312855836231187,-1.055223333315317e-05,0.9999891259387041,0.0,0.0,0.0,0.0,0.0,0.0,0.0,0.0,0.0,0.10791625776029044,-0.0003805573449972548,0.0015653143250715144,0.0,0.0,0.0,0.0,0.0,0.0,0.0,0.0,0.0,0.06139789600956036,-0.08555398644907496,9.802756955125654,0.0,0.0,0.0,0.0,0.0,0.0,0.0,0.0,0.0
190.32,189066,190,319000000,imu_link,-0.003400671965298815,-0.003131244192146998,-9.576364455511024e-06,0.9999893152670615,0.0,0.0,0.0,0.0,0.0,0.0,0.0,0.0,0.0,0.11132652592171605,-0.00037365791156738825,0.001577963418893559,0.0,0.0,0.0,0.0,0.0,0.0,0.0,0.0,0.0,0.06141222412545043,-0.08536531270215875,9.80206207892075,0.0,0.0,0.0,0.0,0.0,0.0,0.0,0.0,0.0
190.32075,189067,190,320000000,imu_link,-0.0033434366174874765,-0.0031312008467484108,-8.588541549204396e-06,0.999989508414503,0.0,0.0,0.0,0.0,0.0,0.0,0.0,0.0,0.0,0.11634085377177823,-0.0003730793684917055,0.0015915275434716517,0.0,0.0,0.0,0.0,0.0,0.0,0.0,0.0,0.0,0.06124648359055519,-0.08481380114353446,9.804630032053675,0.0,0.0,0.0,0.0,0.0,0.0,0.0,0.0,0.0
190.32425,189068,190,321000000,imu_link,-0.003284219215434193,-0.003131157373346518,-7.589548147160025e-06,0.9999897047970279,0.0,0.0,0.0,0.0,0.0,0.0,0.0,0.0,0.0,0.12028574489505445,-0.00037281483006783615,0.0016018729117790152,0.0,0.0,0.0,0.0,0.0,0.0,0.0,0.0,0.0,0.06126234602008802,-0.08403785288021141,9.804797395947107,0.0,0.0,0.0,0.0,0.0,0.0,0.0,0.0,0.0
190.32425,189069,190,322000000,imu_link,-0.0032230468719637593,-0.0031311138532333234,-6.579304474232596e-06,0.9999899039748411,0.0,0.0,0.0,0.0,0.0,0.0,0.0,0.0,0.0,0.12417857126726807,-0.00037286849612786616,0.0016153676354542254,0.0,0.0,0.0,0.0,0.0,0.0,0.0,0.0,0.0,0.06126408479949803,-0.0826231083030755,9.804952186821403,0.0,0.0,0.0,0.0,0.0,0.0,0.0,0.0,0.0
190.32425,189070,190,323000000,imu_link,-0.0031599284001691875,-0.0031310706361573548,-5.5542670529781425e-06,0.9999901055602136,0.0,0.0,0.0,0.0,0.0,0.0,0.0,0.0,0.0,0.12807599144628826,-0.00037328172814264274,0.0016303974226382608,0.0,0.0,0.0,0.0,0.0,0.0,0.0,0.0,0.0,0.061231877982447114,-0.07820836130758252,9.805167085213789,0.0,0.0,0.0,0.0,0.0,0.0,0.0,0.0,0.0
190.32425,189071,190,324000000,imu_link,-0.0030948757083058987,-0.0031310273523757165,-4.51949822381321e-06,0.9999903091488652,0.0,0.0,0.0,0.0,0.0,0.0,0.0,0.0,0.0,0.13096623146188302,-0.0003730252423866041,0.001635559844197696,0.0,0.0,0.0,0.0,0.0,0.0,0.0,0.0,0.0,0.061207487575787846,-0.07601477935772914,9.805345835977464,0.0,0.0,0.0,0.0,0.0,0.0,0.0,0.0,0.0
190.327,189072,190,325000000,imu_link,-0.0030278921680757195,-0.003130983939451679,-3.4757186644366747e-06,0.9999905143532656,0.0,0.0,0.0,0.0,0.0,0.0,0.0,0.0,0.0,0.1348394543763582,-0.00037271974107222966,0.0016422783260809871,0.0,0.0,0.0,0.0,0.0,0.0,0.0,0.0,0.0,0.061206843024461825,-0.07483465758216025,9.80537732037277,0.0,0.0,0.0,0.0,0.0,0.0,0.0,0.0,0.0
190.327,189073,190,326000000,imu_link,-0.0029589029931526103,-0.003130940403921492,-2.422380539490039e-06,0.9999907210066483,0.0,0.0,0.0,0.0,0.0,0.0,0.0,0.0,0.0,0.13885809664008983,-0.00037245731767334333,0.0016497633477482953,0.0,0.0,0.0,0.0,0.0,0.0,0.0,0.0,0.0,0.061199984249094494,-0.07337997146408018,9.805298812390909,0.0,0.0,0.0,0.0,0.0,0.0,0.0,0.0,0.0
190.3275,189074,190,327000000,imu_link,-0.002887925134473529,-0.0031308967213277694,-1.3598851444959075e-06,0.9999909286449997,0.0,0.0,0.0,0.0,0.0,0.0,0.0,0.0,0.0,0.1428237624119955,-0.00037216532914060234,0.0016564614371882597,0.0,0.0,0.0,0.0,0.0,0.0,0.0,0.0,0.0,0.06119786354129551,-0.07249250040331404,9.80540856646196,0.0,0.0,0.0,0.0,0.0,0.0,0.0,0.0,0.0
190.3285,189075,190,328000000,imu_link,-0.0028149939895072648,-0.0031308528749841233,-2.888905636610893e-07,0.9999911367452368,0.0,0.0,0.0,0.0,0.0,0.0,0.0,0.0,0.0,0.147631783632152,-0.00037179399505056645,0.0016623487926158437,0.0,0.0,0.0,0.0,0.0,0.0,0.0,0.0,0.0,0.06117279508586606,-0.0716202553604546,9.805698174268743,0.0,0.0,0.0,0.0,0.0,0.0,0.0,0.0,0.0
190.3295,189076,190,329000000,imu_link,-0.0027402483198455565,-0.003130808965938497,7.876416507953704e-07,0.9999913444994133,0.0,0.0,0.0,0.0,0.0,0.0,0.0,0.0,0.0,0.1502985560063842,-0.0003717520549798658,0.001661922499971716,0.0,0.0,0.0,0.0,0.0,0.0,0.0,0.0,0.0,0.061093191202067326,-0.07059763673622022,9.806458159488923,0.0,0.0,0.0,0.0,0.0,0.0,0.0,0.0,0.0
190.33025,189077,190,330000000,imu_link,-0.0026637605883789188,-0.003130764378160045,1.8683398309465767e-06,0.9999915513095327,0.0,0.0,0.0,0.0,0.0,0.0,0.0,0.0,0.0,0.15377675801278579,-0.0003690746638032597,0.0016597834613723366,0.0,0.0,0.0,0.0,0.0,0.0,0.0,0.0,0.0,0.0611003112704544,-0.06964174540247359,9.806327765617265,0.0,0.0,0.0,0.0,0.0,0.0,0.0,0.0,0.0
190.33125,189078,190,331000000,imu_link,-0.002585672982188597,-0.0031307190683962497,2.9514867384271947e-06,0.999991756408338,0.0,0.0,0.0,0.0,0.0,0.0,0.0,0.0,0.0,0.1577072970091925,-0.00036892358351433516,0.0016544279924818424,0.0,0.0,0.0,0.0,0.0,0.0,0.0,0.0,0.0,0.06104141099390338,-0.06957643791286167,9.807432314791004,0.0,0.0,0.0,0.0,0.0,0.0,0.0,0.0,0.0
190.33225,189079,190,332000000,imu_link,-0.002506028430046481,-0.0031306737474031438,4.0367922663561305e-06,0.9999919593112236,0.0,0.0,0.0,0.0,0.0,0.0,0.0,0.0,0.0,0.1608036866514846,-0.00036888788229304123,0.0016497571158014264,0.0,0.0,0.0,0.0,0.0,0.0,0.0,0.0,0.0,0.06104746094912596,-0.06837136788531069,9.807538516937232,0.0,0.0,0.0,0.0,0.0,0.0,0.0,0.0,0.0
190.3345,189080,190,333000000,imu_link,-0.002424971956249046,-0.003130628402578408,5.122757309726136e-06,0.9999921592945487,0.0,0.0,0.0,0.0,0.0,0.0,0.0,0.0,0.0,0.16276207147169186,-0.00036882494966061183,0.0016440604641280627,0.0,0.0,0.0,0.0,0.0,0.0,0.0,0.0,0.0,0.06099900983425142,-0.07085545122904266,9.808525655194488,0.0,0.0,0.0,0.0,0.0,0.0,0.0,0.0,0.0
190.3345,189081,190,334000000,imu_link,-0.002343014012259581,-0.0031305828858060793,6.203861713863561e-06,0.9999923548195985,0.0,0.0,0.0,0.0,0.0,0.0,0.0,0.0,0.0,0.16448116768588905,-0.00036837455446606646,0.001628678256494517,0.0,0.0,0.0,0.0,0.0,0.0,0.0,0.0,0.0,0.06090249057210708,-0.07689655545198515,9.810388411420716,0.0,0.0,0.0,0.0,0.0,0.0,0.0,0.0,0.0
190.335,189082,190,335000000,imu_link,-0.0022602047514616733,-0.00313053646946141,7.279955737916947e-06,0.9999925455536643,0.0,0.0,0.0,0.0,0.0,0.0,0.0,0.0,0.0,0.1661747698700753,-0.0003680049560334137,0.0016136103403273183,0.0,0.0,0.0,0.0,0.0,0.0,0.0,0.0,0.0,0.06091044631584467,-0.07541565868600808,9.810436189202889,0.0,0.0,0.0,0.0,0.0,0.0,0.0,0.0,0.0
190.33625,189083,190,336000000,imu_link,-0.0021764679536855173,-0.003130487612027586,8.353491047538248e-06,0.9999927314559726,0.0,0.0,0.0,0.0,0.0,0.0,0.0,0.0,0.0,0.16806233881046517,-0.0003618354458889449,0.0016040698716684788,0.0,0.0,0.0,0.0,0.0,0.0,0.0,0.0,0.0,0.060965492377075874,-0.06840310024365596,9.809449988675613,0.0,0.0,0.0,0.0,0.0,0.0,0.0,0.0,0.0
190.338,189084,190,337000000,imu_link,-0.0020917720587147917,-0.003130438648305503,9.421425289100067e-06,0.9999929123522628,0.0,0.0,0.0,0.0,0.0,0.0,0.0,0.0,0.0,0.16997756840178588,-0.00036155752544897733,0.001587683843126817,0.0,0.0,0.0,0.0,0.0,0.0,0.0,0.0,0.0,0.06089862983485844,-0.06478701590244991,9.810211350293766,0.0,0.0,0.0,0.0,0.0,0.0,0.0,0.0,0.0
190.338,189085,190,338000000,imu_link,-0.002006262170304341,-0.003130388690187895,1.0481173656830369e-05,0.9999930877105588,0.0,0.0,0.0,0.0,0.0,0.0,0.0,0.0,0.0,0.17170118562276052,-0.00035868785854590836,0.00155957597005208,0.0,0.0,0.0,0.0,0.0,0.0,0.0,0.0,0.0,0.06085053111755513,-0.06783863754355024,9.811049627183698,0.0,0.0,0.0,0.0,0.0,0.0,0.0,0.0,0.0
190.341,189086,190,339000000,imu_link,-0.001920350151967022,-0.003130338058108477,1.1529084338641691e-05,0.9999932565302708,0.0,0.0,0.0,0.0,0.0,0.0,0.0,0.0,0.0,0.17244898384181445,-0.0003577976385061782,0.0015347330653214307,0.0,0.0,0.0,0.0,0.0,0.0,0.0,0.0,0.0,0.06073765079103034,-0.07174775631490923,9.812545602881848,0.0,0.0,0.0,0.0,0.0,0.0,0.0,0.0,0.0
190.341,189087,190,340000000,imu_link,-0.0018340652265595161,-0.0031302870584944747,1.2565285566864886e-05,0.999993418653238,0.0,0.0,0.0,0.0,0.0,0.0,0.0,0.0,0.0,0.17300550456207867,-0.00035719757128030324,0.0015162337740891663,0.0,0.0,0.0,0.0,0.0,0.0,0.0,0.0,0.0,0.0607463647250146,-0.07009578901605089,9.812563436778557,0.0,0.0,0.0,0.0,0.0,0.0,0.0,0.0,0.0
190.341,189088,190,341000000,imu_link,-0.0017473908512885654,-0.003130235733415346,1.3590808650289715e-05,0.9999935740117314,0.0,0.0,0.0,0.0,0.0,0.0,0.0,0.0,0.0,0.17402238220928523,-0.00035661551594891745,0.0014890306937319026,0.0,0.0,0.0,0.0,0.0,0.0,0.0,0.0,0.0,0.06076521359724793,-0.0659741034455355,9.81245637481519,0.0,0.0,0.0,0.0,0.0,0.0,0.0,0.0,0.0
190.34225,189089,190,342000000,imu_link,-0.0016602669195743488,-0.0031301844639988387,1.4605655158882383e-05,0.999993722603123,0.0,0.0,0.0,0.0,0.0,0.0,0.0,0.0,0.0,0.17469787663147854,-0.00035664079532619924,0.0014700944512751055,0.0,0.0,0.0,0.0,0.0,0.0,0.0,0.0,0.0,0.06079937016330569,-0.059241582731788034,9.81239088070461,0.0,0.0,0.0,0.0,0.0,0.0,0.0,0.0,0.0
190.344,189090,190,343000000,imu_link,-0.001550734003127963,-0.0031301205994514257,1.585772203783573e-05,0.9999938986401954,0.0,0.0,0.0,0.0,0.0,0.0,0.0,0.0,0.0,0.17559094917538115,-0.0003568909187899813,0.001444829277364203,0.0,0.0,0.0,0.0,0.0,0.0,0.0,0.0,0.0,0.06080852196748974,-0.05708108567602049,9.812389491043634,0.0,0.0,0.0,0.0,0.0,0.0,0.0,0.0,0.0
190.34425,189091,190,344000000,imu_link,-0.0014846817632109205,-0.003130082412990823,1.660016036219856e-05,0.9999939989962864,0.0,0.0,0.0,0.0,0.0,0.0,0.0,0.0,0.0,0.1766959977800511,-0.00035728051355796674,0.0014132650653449453,0.0,0.0,0.0,0.0,0.0,0.0,0.0,0.0,0.0,0.06081563369331318,-0.055851235583750436,9.812399038740445,0.0,0.0,0.0,0.0,0.0,0.0,0.0,0.0,0.0
190.34725,189092,190,345000000,imu_link,-0.001396501566290741,-0.0031300316027579643,1.7575355529297344e-05,0.999994126171073,0.0,0.0,0.0,0.0,0.0,0.0,0.0,0.0,0.0,0.17654825275400401,-0.0003573935470604608,0.001377645304019362,0.0,0.0,0.0,0.0,0.0,0.0,0.0,0.0,0.0,0.060710219051900695,-0.06367897110512832,9.814427183289398,0.0,0.0,0.0,0.0,0.0,0.0,0.0,0.0,0.0
190.34725,189093,190,346000000,imu_link,-0.0013084661421257598,-0.0031299852642245945,1.8534695561502166e-05,0.999994245365975,0.0,0.0,0.0,0.0,0.0,0.0,0.0,0.0,0.0,0.1763181393787754,-0.00036646134662673464,0.0013488038688492872,0.0,0.0,0.0,0.0,0.0,0.0,0.0,0.0,0.0,0.060842694733475415,-0.05659175551658323,9.813686832493097,0.0,0.0,0.0,0.0,0.0,0.0,0.0,0.0,0.0
190.34725,189094,190,347000000,imu_link,-0.0012205432719055592,-0.0031299394072294593,1.94776836580456e-05,0.9999943566711007,0.0,0.0,0.0,0.0,0.0,0.0,0.0,0.0,0.0,0.17609795905637704,-0.00036723582737116614,0.0013178585370767965,0.0,0.0,0.0,0.0,0.0,0.0,0.0,0.0,0.0,0.06078850315888395,-0.05418826875465521,9.814628494085763,0.0,0.0,0.0,0.0,0.0,0.0,0.0,0.0,0.0
190.3485,189095,190,348000000,imu_link,-0.0011327290779458402,-0.0031298939476781837,2.040449839459163e-05,0.9999944601208393,0.0,0.0,0.0,0.0,0.0,0.0,0.0,0.0,0.0,0.17588520246974174,-0.0003680391579905695,0.0012872768057121955,0.0,0.0,0.0,0.0,0.0,0.0,0.0,0.0,0.0,0.0608039372972608,-0.05236195089323164,9.814615663505291,0.0,0.0,0.0,0.0,0.0,0.0,0.0,0.0,0.0
190.3495,189096,190,349000000,imu_link,-0.001045344532420925,-0.0031298500376102495,2.131107918721757e-05,0.9999945554048726,0.0,0.0,0.0,0.0,0.0,0.0,0.0,0.0,0.0,0.17494816524809134,-0.0003707430181484481,0.00125660398655015,0.0,0.0,0.0,0.0,0.0,0.0,0.0,0.0,0.0,0.06067004310536684,-0.05972230351652247,9.816169102574388,0.0,0.0,0.0,0.0,0.0,0.0,0.0,0.0,0.0
190.3505,189097,190,350000000,imu_link,-0.0009585782343191698,-0.003129805861328428,2.2194390654897663e-05,0.9999946424608726,0.0,0.0,0.0,0.0,0.0,0.0,0.0,0.0,0.0,0.17371217101354802,-0.000370144163956552,0.0012150582318479052,0.0,0.0,0.0,0.0,0.0,0.0,0.0,0.0,0.0,0.060635167521003466,-0.05773152811212566,9.81663352387962,0.0,0.0,0.0,0.0,0.0,0.0,0.0,0.0,0.0
190.3505,189098,190,351000000,imu_link,-0.0008724213505973966,-0.003129758697991439,2.305537185309697e-05,0.9999947214660332,0.0,0.0,0.0,0.0,0.0,0.0,0.0,0.0,0.0,0.17217945273300933,-0.0003586886630112277,0.0011658486746780642,0.0,0.0,0.0,0.0,0.0,0.0,0.0,0.0,0.0,0.06071784202260647,-0.05397260130922871,9.815551900221333,0.0,0.0,0.0,0.0,0.0,0.0,0.0,0.0,0.0
190.3505,189099,190,352000000,imu_link,-0.0007868942334273448,-0.003129708945136884,2.3893344198596894e-05,0.9999947925606875,0.0,0.0,0.0,0.0,0.0,0.0,0.0,0.0,0.0,0.17091193648869557,-0.00035963592324247067,0.0011231774129461323,0.0,0.0,0.0,0.0,0.0,0.0,0.0,0.0,0.0,0.06061696928520524,-0.046319416133023913,9.816681883141658,0.0,0.0,0.0,0.0,0.0,0.0,0.0,0.0,0.0
190.35325,189100,190,353000000,imu_link,-0.0007019974493976329,-0.003129659739496812,2.470778812507368e-05,0.9999948558962797,0.0,0.0,0.0,0.0,0.0,0.0,0.0,0.0,0.0,0.16965403114100738,-0.00036055435662264186,0.0010815278162753983,0.0,0.0,0.0,0.0,0.0,0.0,0.0,0.0,0.0,0.06063641550304908,-0.044333410766994874,9.816648060604681,0.0,0.0,0.0,0.0,0.0,0.0,0.0,0.0,0.0
190.35475,189101,190,354000000,imu_link,-0.0006177494675566363,-0.003129611127343165,2.5499038367576553e-05,0.9999949116218473,0.0,0.0,0.0,0.0,0.0,0.0,0.0,0.0,0.0,0.1683440396095778,-0.0003617338397572617,0.0010399062509764971,0.0,0.0,0.0,0.0,0.0,0.0,0.0,0.0,0.0,0.06065280244203406,-0.04227958904262573,9.816718804680937,0.0,0.0,0.0,0.0,0.0,0.0,0.0,0.0,0.0
190.35525,189102,190,355000000,imu_link,-0.0005341490294996557,-0.0031295632297500147,2.62671637327619e-05,0.9999949599017196,0.0,0.0,0.0,0.0,0.0,0.0,0.0,0.0,0.0,0.1673773511113364,-0.0003627023806847384,0.0010090598327478829,0.0,0.0,0.0,0.0,0.0,0.0,0.0,0.0,0.0,0.060664290582222946,-0.04046112672662666,9.816667707578182,0.0,0.0,0.0,0.0,0.0,0.0,0.0,0.0,0.0
190.35625,189103,190,356000000,imu_link,-0.00045135380236457803,-0.0031295156700780116,2.7009161842248464e-05,0.9999950008284648,0.0,0.0,0.0,0.0,0.0,0.0,0.0,0.0,0.0,0.16497875140666116,-0.0003633048596686809,0.0009482221547767668,0.0,0.0,0.0,0.0,0.0,0.0,0.0,0.0,0.0,0.06060477344289175,-0.04531672031676065,9.817809518371359,0.0,0.0,0.0,0.0,0.0,0.0,0.0,0.0,0.0
190.35775,189104,190,357000000,imu_link,-0.0003698659323977819,-0.003129468564554689,2.7720879201087736e-05,0.9999950344162957,0.0,0.0,0.0,0.0,0.0,0.0,0.0,0.0,0.0,0.1623093684986761,-0.0003642810582429005,0.000897617298973444,0.0,0.0,0.0,0.0,0.0,0.0,0.0,0.0,0.0,0.0605357366283025,-0.05150128302131812,9.819343594255988,0.0,0.0,0.0,0.0,0.0,0.0,0.0,0.0,0.0
190.35775,189105,190,358000000,imu_link,-0.00028969647410347847,-0.0031294220303844326,2.840294987051197e-05,0.9999950609812938,0.0,0.0,0.0,0.0,0.0,0.0,0.0,0.0,0.0,0.16033657817761926,-0.00036508472913871745,0.0008602387072005525,0.0,0.0,0.0,0.0,0.0,0.0,0.0,0.0,0.0,0.0605480094526915,-0.04964825194096021,9.819264883861171,0.0,0.0,0.0,0.0,0.0,0.0,0.0,0.0,0.0
190.3595,189106,190,359000000,imu_link,-0.00021082733930172164,-0.003129376159348725,2.9055073389113304e-05,0.9999950808441456,0.0,0.0,0.0,0.0,0.0,0.0,0.0,0.0,0.0,0.15773387822278215,-0.0003663632930951399,0.0008090886490126204,0.0,0.0,0.0,0.0,0.0,0.0,0.0,0.0,0.0,0.06056126739583429,-0.042472634935905314,9.819141606422535,0.0,0.0,0.0,0.0,0.0,0.0,0.0,0.0,0.0
190.35975,189107,190,360000000,imu_link,-0.00013325496178349873,-0.003129331171491634,2.9676976005446573e-05,0.9999950943123728,0.0,0.0,0.0,0.0,0.0,0.0,0.0,0.0,0.0,0.1551488970625672,-0.00036800564998911464,0.0007577533501665392,0.0,0.0,0.0,0.0,0.0,0.0,0.0,0.0,0.0,0.06057990478880852,-0.03501736179900526,9.819009757550106,0.0,0.0,0.0,0.0,0.0,0.0,0.0,0.0,0.0
190.361,189108,190,361000000,imu_link,-5.6961102594361174e-05,-0.0031292871430703534,3.0269280912366415e-05,0.9999951016885931,0.0,0.0,0.0,0.0,0.0,0.0,0.0,0.0,0.0,0.1519731229148128,-0.00037024455053391136,0.0006949412440537458,0.0,0.0,0.0,0.0,0.0,0.0,0.0,0.0,0.0,0.06059542842982968,-0.03298437098845612,9.818902600117744,0.0,0.0,0.0,0.0,0.0,0.0,0.0,0.0,0.0
190.36225,189109,190,362000000,imu_link,1.7649134161533184e-05,-0.003129244119650357,3.082779147948054e-05,0.9999951032727086,0.0,0.0,0.0,0.0,0.0,0.0,0.0,0.0,0.0,0.14811860089735585,-0.0003721263453296206,0.0006349096376278995,0.0,0.0,0.0,0.0,0.0,0.0,0.0,0.0,0.0,0.06053981155058135,-0.03339208318347405,9.821230298046814,0.0,0.0,0.0,0.0,0.0,0.0,0.0,0.0,0.0
190.364,189110,190,363000000,imu_link,9.034224021701698e-05,-0.0031292022054245487,3.135047413611017e-05,0.999995099462485,0.0,0.0,0.0,0.0,0.0,0.0,0.0,0.0,0.0,0.14526206065462416,-0.0003736675338788275,0.0005909320624409922,0.0,0.0,0.0,0.0,0.0,0.0,0.0,0.0,0.0,0.060554799617566414,-0.031252272500926714,9.821113389230725,0.0,0.0,0.0,0.0,0.0,0.0,0.0,0.0,0.0
190.3645,189111,190,364000000,imu_link,0.00016114718622074083,-0.0031291614594913903,3.1838114292018275e-05,0.999995090671189,0.0,0.0,0.0,0.0,0.0,0.0,0.0,0.0,0.0,0.14057230822445035,-0.0003763999443525759,0.0005191705238140743,0.0,0.0,0.0,0.0,0.0,0.0,0.0,0.0,0.0,0.06057045115250538,-0.02926021070783922,9.820979472832175,0.0,0.0,0.0,0.0,0.0,0.0,0.0,0.0,0.0
190.36525,189112,190,365000000,imu_link,0.00023011399574906282,-0.0031291219151040792,3.229154835550366e-05,0.9999950772883061,0.0,0.0,0.0,0.0,0.0,0.0,0.0,0.0,0.0,0.13780264635311087,-0.00037811219763945667,0.00047694133698012706,0.0,0.0,0.0,0.0,0.0,0.0,0.0,0.0,0.0,0.06058556748664247,-0.027399471991797646,9.82084483628953,0.0,0.0,0.0,0.0,0.0,0.0,0.0,0.0,0.0
190.36625,189113,190,366000000,imu_link,0.0002974900538937954,-0.003129083569557282,3.271393765574848e-05,0.9999950596205367,0.0,0.0,0.0,0.0,0.0,0.0,0.0,0.0,0.0,0.13473449450235306,-0.0003804270569363566,0.00042660253731752017,0.0,0.0,0.0,0.0,0.0,0.0,0.0,0.0,0.0,0.06065020524156054,-0.023924298326414482,9.819610198545405,0.0,0.0,0.0,0.0,0.0,0.0,0.0,0.0,0.0
190.3675,189114,190,367000000,imu_link,0.0003633591798621276,-0.0031290464139234714,3.310629859724257e-05,0.9999950379589987,0.0,0.0,0.0,0.0,0.0,0.0,0.0,0.0,0.0,0.1309746390323636,-0.00038335628630782484,0.00036451429347986874,0.0,0.0,0.0,0.0,0.0,0.0,0.0,0.0,0.0,0.060663410168615914,-0.022353131523853997,9.819479274375079,0.0,0.0,0.0,0.0,0.0,0.0,0.0,0.0,0.0
190.36825,189115,190,368000000,imu_link,0.00042774781144222664,-0.0031290104675243792,3.3469016442271373e-05,0.9999950125901275,0.0,0.0,0.0,0.0,0.0,0.0,0.0,0.0,0.0,0.12802450140363214,-0.0003857525819785496,0.00031558341361182646,0.0,0.0,0.0,0.0,0.0,0.0,0.0,0.0,0.0,0.06067748303381922,-0.020759233622953684,9.819350397938363,0.0,0.0,0.0,0.0,0.0,0.0,0.0,0.0,0.0
190.36925,189116,190,369000000,imu_link,0.0004906807148100607,-0.003128975758624529,3.380251076135215e-05,0.9999949837876829,0.0,0.0,0.0,0.0,0.0,0.0,0.0,0.0,0.0,0.12512394586609357,-0.000388203637492601,0.0002673325993546813,0.0,0.0,0.0,0.0,0.0,0.0,0.0,0.0,0.0,0.06069001851372741,-0.019214961740297205,9.819239050292563,0.0,0.0,0.0,0.0,0.0,0.0,0.0,0.0,0.0
190.37,189117,190,370000000,imu_link,0.0005515949614034681,-0.0031289469310937777,3.410008082100958e-05,0.9999949521229021,0.0,0.0,0.0,0.0,0.0,0.0,0.0,0.0,0.0,0.12032169137434927,-0.000399475944895165,0.00020413170376937505,0.0,0.0,0.0,0.0,0.0,0.0,0.0,0.0,0.0,0.060613772696416705,-0.031748587600811104,9.821438858825582,0.0,0.0,0.0,0.0,0.0,0.0,0.0,0.0,0.0
190.37175,189118,190,371000000,imu_link,0.0006100644640149811,-0.0031289191716335715,3.435972673724872e-05,0.9999949182398762,0.0,0.0,0.0,0.0,0.0,0.0,0.0,0.0,0.0,0.11666805211864625,-0.0004009407230535951,0.00015953375510913937,0.0,0.0,0.0,0.0,0.0,0.0,0.0,0.0,0.0,0.060549880555089204,-0.030905406759245697,9.822644660927319,0.0,0.0,0.0,0.0,0.0,0.0,0.0,0.0,0.0
190.37225,189119,190,372000000,imu_link,0.0006661438724842428,-0.003128892933142002,3.458286024927111e-05,0.9999948825295958,0.0,0.0,0.0,0.0,0.0,0.0,0.0,0.0,0.0,0.11186088766104943,-0.0004029212475205826,0.0001012100196482108,0.0,0.0,0.0,0.0,0.0,0.0,0.0,0.0,0.0,0.060569814602662614,-0.029226174712375493,9.822505683772214,0.0,0.0,0.0,0.0,0.0,0.0,0.0,0.0,0.0
190.37325,189120,190,373000000,imu_link,0.0007201549472299123,-0.0031288697197623524,3.477350121263422e-05,0.9999948451576801,0.0,0.0,0.0,0.0,0.0,0.0,0.0,0.0,0.0,0.10787173539140085,-0.00040983910532026846,5.1454363835624144e-05,0.0,0.0,0.0,0.0,0.0,0.0,0.0,0.0,0.0,0.060672200085270134,-0.01644616318951922,9.820349424202934,0.0,0.0,0.0,0.0,0.0,0.0,0.0,0.0,0.0
190.37425,189121,190,374000000,imu_link,0.0007722207276336282,-0.003128847787503582,3.493176693977084e-05,0.9999948063697341,0.0,0.0,0.0,0.0,0.0,0.0,0.0,0.0,0.0,0.10399139730979794,-0.0004123835167377627,-4.945684842732183e-07,0.0,0.0,0.0,0.0,0.0,0.0,0.0,0.0,0.0,0.06065622944238251,-0.01411245739895935,9.820645486222414,0.0,0.0,0.0,0.0,0.0,0.0,0.0,0.0,0.0
190.37525,189122,190,375000000,imu_link,0.000822014079135865,-0.0031288270400328657,3.505431500885847e-05,0.9999947667390077,0.0,0.0,0.0,0.0,0.0,0.0,0.0,0.0,0.0,0.09931500399178973,-0.00041460633284158896,-5.8226400908325975e-05,0.0,0.0,0.0,0.0,0.0,0.0,0.0,0.0,0.0,0.06064170942223166,-0.01438778056250141,9.82189114646722,0.0,0.0,0.0,0.0,0.0,0.0,0.0,0.0,0.0
190.37625,189123,190,376000000,imu_link,0.0008693515068238458,-0.00312880746516709,3.513963712559995e-05,0.9999947267646013,0.0,0.0,0.0,0.0,0.0,0.0,0.0,0.0,0.0,0.09320862866408534,-0.0004174110751228734,-0.00013109995995306617,0.0,0.0,0.0,0.0,0.0,0.0,0.0,0.0,0.0,0.06064719998289701,-0.013112935355425528,9.822159069272372,0.0,0.0,0.0,0.0,0.0,0.0,0.0,0.0,0.0
190.3775,189124,190,377000000,imu_link,0.0009142692583459511,-0.0031287891185524707,3.51885840329595e-05,0.999994686761954,0.0,0.0,0.0,0.0,0.0,0.0,0.0,0.0,0.0,0.0884046824808124,-0.00041976926181343764,-0.00018787618690818266,0.0,0.0,0.0,0.0,0.0,0.0,0.0,0.0,0.0,0.06066422638001479,-0.01144858767098704,9.821969563394688,0.0,0.0,0.0,0.0,0.0,0.0,0.0,0.0,0.0
190.37875,189125,190,378000000,imu_link,0.0009567523682528569,-0.0031287719466512706,3.520163008725965e-05,0.9999946470716016,0.0,0.0,0.0,0.0,0.0,0.0,0.0,0.0,0.0,0.08350384807886006,-0.0004219080849680384,-0.00024369538265647431,0.0,0.0,0.0,0.0,0.0,0.0,0.0,0.0,0.0,0.06072313199218971,-0.008926567722864813,9.821883422872416,0.0,0.0,0.0,0.0,0.0,0.0,0.0,0.0,0.0
190.37925,189126,190,379000000,imu_link,0.0009968056329453137,-0.0031287559294542328,3.51793997472057e-05,0.9999946079991,0.0,0.0,0.0,0.0,0.0,0.0,0.0,0.0,0.0,0.07867604206718494,-0.0004241295572651396,-0.00029823955455778923,0.0,0.0,0.0,0.0,0.0,0.0,0.0,0.0,0.0,0.060735846434617914,-0.007477932499299924,9.821712011051751,0.0,0.0,0.0,0.0,0.0,0.0,0.0,0.0,0.0
190.38,189127,190,380000000,imu_link,0.0010341575785424387,-0.0031287410222896332,3.511973850863966e-05,0.9999945701174192,0.0,0.0,0.0,0.0,0.0,0.0,0.0,0.0,0.0,0.07293691235493499,-0.0004261703900984611,-0.0003578229815926215,0.0,0.0,0.0,0.0,0.0,0.0,0.0,0.0,0.0,0.060707015864530374,-0.013177484786664372,9.823256647147055,0.0,0.0,0.0,0.0,0.0,0.0,0.0,0.0,0.0
190.38125,189128,190,381000000,imu_link,0.0010686658407268713,-0.0031287272337693103,3.502159071715805e-05,0.9999945338814138,0.0,0.0,0.0,0.0,0.0,0.0,0.0,0.0,0.0,0.06728450087915779,-0.000428301301843243,-0.00041610062149454585,0.0,0.0,0.0,0.0,0.0,0.0,0.0,0.0,0.0,0.060721564700080576,-0.011723087429144265,9.823054613029958,0.0,0.0,0.0,0.0,0.0,0.0,0.0,0.0,0.0
190.38225,189129,190,382000000,imu_link,0.0011003776650743819,-0.003128713863453609,3.4886286344542605e-05,0.9999944995356234,0.0,0.0,0.0,0.0,0.0,0.0,0.0,0.0,0.0,0.06310118603079386,-0.0004299391273360839,-0.0004589290691593443,0.0,0.0,0.0,0.0,0.0,0.0,0.0,0.0,0.0,0.060735722685061125,-0.010481098914567406,9.822884721767263,0.0,0.0,0.0,0.0,0.0,0.0,0.0,0.0,0.0
190.38375,189130,190,383000000,imu_link,0.0011293958957683938,-0.0031286959322733626,3.471925965194955e-05,0.9999944672453179,0.0,0.0,0.0,0.0,0.0,0.0,0.0,0.0,0.0,0.05644013873318109,-0.00041971838699707633,-0.0005166317920575659,0.0,0.0,0.0,0.0,0.0,0.0,0.0,0.0,0.0,0.06084630150698499,-0.004810528682800887,9.821090018518824,0.0,0.0,0.0,0.0,0.0,0.0,0.0,0.0,0.0
190.38425,189131,190,384000000,imu_link,0.0011557868749735225,-0.0031286789763353543,3.451774492928782e-05,0.9999944371510713,0.0,0.0,0.0,0.0,0.0,0.0,0.0,0.0,0.0,0.052516003018072924,-0.00042136134389348816,-0.0005563749331977891,0.0,0.0,0.0,0.0,0.0,0.0,0.0,0.0,0.0,0.0608205884572408,-0.001627502697798447,9.821876081781252,0.0,0.0,0.0,0.0,0.0,0.0,0.0,0.0,0.0
190.38525,189132,190,385000000,imu_link,0.0011795171454450095,-0.003128663280450502,3.428128301195208e-05,0.9999944094994606,0.0,0.0,0.0,0.0,0.0,0.0,0.0,0.0,0.0,0.04578593627283828,-0.00042425192680137035,-0.0006229407966702277,0.0,0.0,0.0,0.0,0.0,0.0,0.0,0.0,0.0,0.06084589059170475,-0.0008506455098589091,9.821990628991227,0.0,0.0,0.0,0.0,0.0,0.0,0.0,0.0,0.0
190.386,189133,190,386000000,imu_link,0.0012005060350976555,-0.0031286488833112917,3.400953189925201e-05,0.9999943845766217,0.0,0.0,0.0,0.0,0.0,0.0,0.0,0.0,0.0,0.04033828680703139,-0.0004267086841549309,-0.0006756421376975729,0.0,0.0,0.0,0.0,0.0,0.0,0.0,0.0,0.0,0.0608661129464454,0.00015418061996013213,9.821974317022834,0.0,0.0,0.0,0.0,0.0,0.0,0.0,0.0,0.0
190.3875,189134,190,387000000,imu_link,0.001218794193333697,-0.003128635831981381,3.3703286340885145e-05,0.9999943625054261,0.0,0.0,0.0,0.0,0.0,0.0,0.0,0.0,0.0,0.03497192789233056,-0.00042923130984339885,-0.0007271376161438638,0.0,0.0,0.0,0.0,0.0,0.0,0.0,0.0,0.0,0.06087984919168704,0.0012072883367884452,9.821804243421603,0.0,0.0,0.0,0.0,0.0,0.0,0.0,0.0,0.0
190.3885,189135,190,388000000,imu_link,0.0012343617371758913,-0.003128624148852424,3.336285594976244e-05,0.9999943434584803,0.0,0.0,0.0,0.0,0.0,0.0,0.0,0.0,0.0,0.03083682433120885,-0.0004311332405110597,-0.0007655978522835367,0.0,0.0,0.0,0.0,0.0,0.0,0.0,0.0,0.0,0.060880914206952325,0.0010454500839353308,9.821903389780402,0.0,0.0,0.0,0.0,0.0,0.0,0.0,0.0,0.0
190.38925,189136,190,389000000,imu_link,0.0012471480340690607,-0.003128613864927339,3.29882668910386e-05,0.9999943276383321,0.0,0.0,0.0,0.0,0.0,0.0,0.0,0.0,0.0,0.023913151903449316,-0.0004344618074547688,-0.0008287324536823972,0.0,0.0,0.0,0.0,0.0,0.0,0.0,0.0,0.0,0.06088749044597251,0.0014920286981348757,9.821830638938376,0.0,0.0,0.0,0.0,0.0,0.0,0.0,0.0,0.0
190.39025,189137,190,390000000,imu_link,0.0012571749439315534,-0.0031286049018930586,3.2580488929633735e-05,0.999994315124361,0.0,0.0,0.0,0.0,0.0,0.0,0.0,0.0,0.0,0.018357840558837095,-0.0004367636470501799,-0.0008762708823618068,0.0,0.0,0.0,0.0,0.0,0.0,0.0,0.0,0.0,0.06091585063260415,0.0023163878084497998,9.821708557096695,0.0,0.0,0.0,0.0,0.0,0.0,0.0,0.0,0.0
190.39125,189138,190,391000000,imu_link,0.00126434588975231,-0.00312859711896236,3.213958736111722e-05,0.9999943061220825,0.0,0.0,0.0,0.0,0.0,0.0,0.0,0.0,0.0,0.014035041167613357,-0.00043880002802144014,-0.000913849318795834,0.0,0.0,0.0,0.0,0.0,0.0,0.0,0.0,0.0,0.06092755137885086,0.0031225387009168083,9.821943197250775,0.0,0.0,0.0,0.0,0.0,0.0,0.0,0.0,0.0
190.39225,189139,190,392000000,imu_link,0.0012686549484611468,-0.0031285906033235674,3.1666071723387136e-05,0.9999943007001182,0.0,0.0,0.0,0.0,0.0,0.0,0.0,0.0,0.0,0.007078311012224558,-0.0004224637155468815,-0.0009758243717506749,0.0,0.0,0.0,0.0,0.0,0.0,0.0,0.0,0.0,0.060711671464271415,0.005795210923771731,9.820406665032433,0.0,0.0,0.0,0.0,0.0,0.0,0.0,0.0,0.0
190.39325,189140,190,393000000,imu_link,0.001270554732607474,-0.0031285828944816107,3.116221657210168e-05,0.9999942983280755,0.0,0.0,0.0,0.0,0.0,0.0,0.0,0.0,0.0,0.00262885577998928,-0.0004443674571268691,-0.001020376942134729,0.0,0.0,0.0,0.0,0.0,0.0,0.0,0.0,0.0,0.06160916784231452,0.01745145308277858,9.822049268598656,0.0,0.0,0.0,0.0,0.0,0.0,0.0,0.0,0.0
190.3945,189141,190,394000000,imu_link,0.001270531417070745,-0.0031285926702913926,3.0633712804919625e-05,0.9999942983434442,0.0,0.0,0.0,0.0,0.0,0.0,0.0,0.0,0.0,-0.0010920498974042972,-0.000449370655297184,-0.0010507252126876554,0.0,0.0,0.0,0.0,0.0,0.0,0.0,0.0,0.0,0.061117723465887994,0.02784535425297191,9.817785035084821,0.0,0.0,0.0,0.0,0.0,0.0,0.0,0.0,0.0
190.3955,189142,190,395000000,imu_link,0.0012688433769668566,-0.00312860675883605,3.009433473430761e-05,0.9999943004590398,0.0,0.0,0.0,0.0,0.0,0.0,0.0,0.0,0.0,-0.004265413615410342,-0.00045477313760890485,-0.0010725797603918339,0.0,0.0,0.0,0.0,0.0,0.0,0.0,0.0,0.0,0.060948408209451306,0.03272520711514149,9.815826794956944,0.0,0.0,0.0,0.0,0.0,0.0,0.0,0.0,0.0
190.396,189143,190,396000000,imu_link,0.0012655416387943742,-0.003128606427237081,2.954344362060123e-05,0.999994304660466,0.0,0.0,0.0,0.0,0.0,0.0,0.0,0.0,0.0,-0.0076901430922929215,-0.0004590163145175222,-0.001099157053945471,0.0,0.0,0.0,0.0,0.0,0.0,0.0,0.0,0.0,0.06128164449560823,0.03299624465465546,9.815845289611888,0.0,0.0,0.0,0.0,0.0,0.0,0.0,0.0,0.0
190.3975,189144,190,397000000,imu_link,0.0012605179207732056,-0.0031286016333203705,2.8976142360592588e-05,0.9999943110372052,0.0,0.0,0.0,0.0,0.0,0.0,0.0,0.0,0.0,-0.010312065395779155,-0.0004578400617274722,-0.0011198449073220574,0.0,0.0,0.0,0.0,0.0,0.0,0.0,0.0,0.0,0.06139667883341769,0.033426509833219514,9.81638978055668,0.0,0.0,0.0,0.0,0.0,0.0,0.0,0.0,0.0
190.398,189145,190,398000000,imu_link,0.0012537685886496856,-0.0031286048487101387,2.838846331158327e-05,0.999994319528927,0.0,0.0,0.0,0.0,0.0,0.0,0.0,0.0,0.0,-0.013780762042618792,-0.0004611563166911586,-0.0011449496703862501,0.0,0.0,0.0,0.0,0.0,0.0,0.0,0.0,0.0,0.061229995111196533,0.03377974130058289,9.816294367722632,0.0,0.0,0.0,0.0,0.0,0.0,0.0,0.0,0.0
190.39925,189146,190,399000000,imu_link,0.0012452113151175637,-0.0031286092723491962,2.7783075039491725e-05,0.999994330224378,0.0,0.0,0.0,0.0,0.0,0.0,0.0,0.0,0.0,-0.018342622591658274,-0.000463054906953435,-0.0011740162984984195,0.0,0.0,0.0,0.0,0.0,0.0,0.0,0.0,0.0,0.061261311952443595,0.03376829119597854,9.816120538254618,0.0,0.0,0.0,0.0,0.0,0.0,0.0,0.0,0.0
190.40025,189147,190,400000000,imu_link,0.0012348474747834507,-0.003128614832129835,2.716065657923973e-05,0.9999943430756222,0.0,0.0,0.0,0.0,0.0,0.0,0.0,0.0,0.0,-0.021934155927431188,-0.00046525692466536787,-0.0011964864131921774,0.0,0.0,0.0,0.0,0.0,0.0,0.0,0.0,0.0,0.06132129176265925,0.03407131138321776,9.816154864205606,0.0,0.0,0.0,0.0,0.0,0.0,0.0,0.0,0.0
190.40125,189148,190,401000000,imu_link,0.0012225767156589364,-0.0031286131163888553,2.6519297293616264e-05,0.9999943581755194,0.0,0.0,0.0,0.0,0.0,0.0,0.0,0.0,0.0,-0.025919392334052802,-0.0004405182126477302,-0.0012252686849405722,0.0,0.0,0.0,0.0,0.0,0.0,0.0,0.0,0.0,0.06142993140698837,0.03264105346430568,9.813830298483351,0.0,0.0,0.0,0.0,0.0,0.0,0.0,0.0,0.0
190.40225,189149,190,402000000,imu_link,0.0012082900663440007,-0.003128598794881697,2.5857135990859165e-05,0.9999943756022355,0.0,0.0,0.0,0.0,0.0,0.0,0.0,0.0,0.0,-0.029923512732390602,-0.000415737042649898,-0.0012541387534564462,0.0,0.0,0.0,0.0,0.0,0.0,0.0,0.0,0.0,0.06138879662962604,0.032750933714797564,9.813860190854674,0.0,0.0,0.0,0.0,0.0,0.0,0.0,0.0,0.0
190.40325,189150,190,403000000,imu_link,0.0011919435092892447,-0.003128574296552994,2.517430918959324e-05,0.9999943953141915,0.0,0.0,0.0,0.0,0.0,0.0,0.0,0.0,0.0,-0.0330827711127477,-0.0004036094305864471,-0.0012754008741897237,0.0,0.0,0.0,0.0,0.0,0.0,0.0,0.0,0.0,0.06133131854064405,0.03233334884874303,9.815190632505523,0.0,0.0,0.0,0.0,0.0,0.0,0.0,0.0,0.0
190.4045,189151,190,404000000,imu_link,0.0011732767814118508,-0.00312854999287158,2.4470472502312854e-05,0.999994417483284,0.0,0.0,0.0,0.0,0.0,0.0,0.0,0.0,0.0,-0.03891128779537282,-0.00040624017087350766,-0.0013098436114248862,0.0,0.0,0.0,0.0,0.0,0.0,0.0,0.0,0.0,0.06128068102889306,0.031601554299530134,9.817988959587824,0.0,0.0,0.0,0.0,0.0,0.0,0.0,0.0,0.0
190.4045,189152,190,405000000,imu_link,0.001152296284058572,-0.003128527165266683,2.374642538839175e-05,0.9999944419681328,0.0,0.0,0.0,0.0,0.0,0.0,0.0,0.0,0.0,-0.04350394172576844,-0.0004088288043018048,-0.0013358873924132577,0.0,0.0,0.0,0.0,0.0,0.0,0.0,0.0,0.0,0.061324386993306224,0.031951642271008954,9.817873217981072,0.0,0.0,0.0,0.0,0.0,0.0,0.0,0.0,0.0
190.40625,189153,190,406000000,imu_link,0.0011289857268089601,-0.0031285065812668954,2.3002750944021438e-05,0.9999944686390385,0.0,0.0,0.0,0.0,0.0,0.0,0.0,0.0,0.0,-0.047037891785357167,-0.00041261954985182843,-0.0013545549949704654,0.0,0.0,0.0,0.0,0.0,0.0,0.0,0.0,0.0,0.06134659653569027,0.030936558336442092,9.817724101235138,0.0,0.0,0.0,0.0,0.0,0.0,0.0,0.0,0.0
190.40725,189154,190,407000000,imu_link,0.0011032936090002003,-0.0031284880388725367,2.2239618919169162e-05,0.9999944973904619,0.0,0.0,0.0,0.0,0.0,0.0,0.0,0.0,0.0,-0.0529626765976309,-0.0004167491806545902,-0.0013850093240954328,0.0,0.0,0.0,0.0,0.0,0.0,0.0,0.0,0.0,0.061358206984695574,0.030589638654676104,9.817964060191352,0.0,0.0,0.0,0.0,0.0,0.0,0.0,0.0,0.0
190.40825,189155,190,408000000,imu_link,0.001075240845676169,-0.0031284713348890257,2.14574787060558e-05,0.9999945280169322,0.0,0.0,0.0,0.0,0.0,0.0,0.0,0.0,0.0,-0.056500981361401546,-0.00041936853155678946,-0.0014027358762714963,0.0,0.0,0.0,0.0,0.0,0.0,0.0,0.0,0.0,0.06137961583062112,0.03101637110922858,9.817840626612451,0.0,0.0,0.0,0.0,0.0,0.0,0.0,0.0,0.0
190.40975,189156,190,409000000,imu_link,0.001044808701322017,-0.003128456597373074,2.0656604916618316e-05,0.9999945603389054,0.0,0.0,0.0,0.0,0.0,0.0,0.0,0.0,0.0,-0.06125393110993183,-0.00042315549376039773,-0.0014256670867008245,0.0,0.0,0.0,0.0,0.0,0.0,0.0,0.0,0.0,0.061401597777303404,0.031758468954271576,9.81775968724931,0.0,0.0,0.0,0.0,0.0,0.0,0.0,0.0,0.0
190.41025,189157,190,410000000,imu_link,0.0010120256915311947,-0.003128443837910594,1.983759130929994e-05,0.9999945941101996,0.0,0.0,0.0,0.0,0.0,0.0,0.0,0.0,0.0,-0.06477517158038801,-0.00042602870912304935,-0.0014422238190732854,0.0,0.0,0.0,0.0,0.0,0.0,0.0,0.0,0.0,0.061409576159832106,0.0316626119725145,9.817634068833325,0.0,0.0,0.0,0.0,0.0,0.0,0.0,0.0,0.0
190.411,189158,190,411000000,imu_link,0.0009768313276549707,-0.003128429298990117,1.899900594948843e-05,0.9999946291704354,0.0,0.0,0.0,0.0,0.0,0.0,0.0,0.0,0.0,-0.07079494445147425,-0.0004223015811464456,-0.0014726421724867121,0.0,0.0,0.0,0.0,0.0,0.0,0.0,0.0,0.0,0.061434987773535135,0.030470037729224558,9.817029082876164,0.0,0.0,0.0,0.0,0.0,0.0,0.0,0.0,0.0
190.41225,189159,190,412000000,imu_link,0.0009391046227251645,-0.003128416112079547,1.814155614023569e-05,0.9999946653687816,0.0,0.0,0.0,0.0,0.0,0.0,0.0,0.0,0.0,-0.07711919376009406,-0.0004271399631992672,-0.0015000214153715178,0.0,0.0,0.0,0.0,0.0,0.0,0.0,0.0,0.0,0.06139071860269389,0.029151664694694174,9.81808558583787,0.0,0.0,0.0,0.0,0.0,0.0,0.0,0.0,0.0
190.41425,189160,190,413000000,imu_link,0.0008988706230569621,-0.003128404963485174,1.7265988298174555e-05,0.9999947023939044,0.0,0.0,0.0,0.0,0.0,0.0,0.0,0.0,0.0,-0.08086158511346316,-0.00043012066646058933,-0.0015156689177724374,0.0,0.0,0.0,0.0,0.0,0.0,0.0,0.0,0.0,0.061407869504795515,0.029021800918727025,9.817937358721178,0.0,0.0,0.0,0.0,0.0,0.0,0.0,0.0,0.0
190.41425,189161,190,414000000,imu_link,0.000856172445092075,-0.003128395644993273,1.6373308995802826e-05,0.9999947399068395,0.0,0.0,0.0,0.0,0.0,0.0,0.0,0.0,0.0,-0.0869802242132176,-0.00043446394153360006,-0.0015388012734653,0.0,0.0,0.0,0.0,0.0,0.0,0.0,0.0,0.0,0.061421526178121445,0.028820600909264693,9.81760247276904,0.0,0.0,0.0,0.0,0.0,0.0,0.0,0.0,0.0
190.4155,189162,190,415000000,imu_link,0.00081106013257216,-0.0031283882589160216,1.5465076030271765e-05,0.9999947775509602,0.0,0.0,0.0,0.0,0.0,0.0,0.0,0.0,0.0,-0.09177751298322773,-0.0004384049154786104,-0.0015549452918595455,0.0,0.0,0.0,0.0,0.0,0.0,0.0,0.0,0.0,0.06145109287960016,0.028557628896858554,9.817233803233204,0.0,0.0,0.0,0.0,0.0,0.0,0.0,0.0,0.0
190.4165,189163,190,416000000,imu_link,0.0007635276098688615,-0.003128382870220509,1.4541480080067561e-05,0.9999948150039337,0.0,0.0,0.0,0.0,0.0,0.0,0.0,0.0,0.0,-0.09672441899600631,-0.00044228630686087505,-0.0015717275567831692,0.0,0.0,0.0,0.0,0.0,0.0,0.0,0.0,0.0,0.06145111864357085,0.02796742306445761,9.817390441851286,0.0,0.0,0.0,0.0,0.0,0.0,0.0,0.0,0.0
190.4165,189164,190,417000000,imu_link,0.0007134445291040923,-0.003128379444026696,1.3601506951441005e-05,0.9999948520137278,0.0,0.0,0.0,0.0,0.0,0.0,0.0,0.0,0.0,-0.10182031240338009,-0.0004461453060853244,-0.0015889333850662528,0.0,0.0,0.0,0.0,0.0,0.0,0.0,0.0,0.0,0.06145005338554259,0.027468854483999952,9.817536865064682,0.0,0.0,0.0,0.0,0.0,0.0,0.0,0.0,0.0
190.41925,189165,190,418000000,imu_link,0.0006608307979992597,-0.0031283779936389445,1.2645711247159984e-05,0.9999948881838703,0.0,0.0,0.0,0.0,0.0,0.0,0.0,0.0,0.0,-0.10684706180706403,-0.00045003625557418054,-0.0016050729998556502,0.0,0.0,0.0,0.0,0.0,0.0,0.0,0.0,0.0,0.061458622291759045,0.027120274613886802,9.817385987251892,0.0,0.0,0.0,0.0,0.0,0.0,0.0,0.0,0.0
190.41925,189166,190,419000000,imu_link,0.0006059620927016233,-0.003128378578695299,1.1677083074820247e-05,0.9999949229476399,0.0,0.0,0.0,0.0,0.0,0.0,0.0,0.0,0.0,-0.1099958698656136,-0.0004531192982440142,-0.0016125776426341454,0.0,0.0,0.0,0.0,0.0,0.0,0.0,0.0,0.0,0.06157556237046635,0.03296300735590523,9.815479461023287,0.0,0.0,0.0,0.0,0.0,0.0,0.0,0.0,0.0
190.4205,189167,190,420000000,imu_link,0.0005490126311592154,-0.0031283812148364173,1.0697666261095663e-05,0.999994955838111,0.0,0.0,0.0,0.0,0.0,0.0,0.0,0.0,0.0,-0.11517286718216875,-0.00045823602353255594,-0.001624020888158459,0.0,0.0,0.0,0.0,0.0,0.0,0.0,0.0,0.0,0.06157886098348659,0.03231051140486252,9.81536382459199,0.0,0.0,0.0,0.0,0.0,0.0,0.0,0.0,0.0
190.421,189168,190,421000000,imu_link,0.0004900121213359288,-0.0031283858914815054,9.707852788631744e-06,0.9999949864852286,0.0,0.0,0.0,0.0,0.0,0.0,0.0,0.0,0.0,-0.11823582337334043,-0.00046129876101297764,-0.001630420391773771,0.0,0.0,0.0,0.0,0.0,0.0,0.0,0.0,0.0,0.061585247910605594,0.03163241649639538,9.815245386447994,0.0,0.0,0.0,0.0,0.0,0.0,0.0,0.0,0.0
190.421,189169,190,422000000,imu_link,0.00042895603205192294,-0.003128392456523807,8.708668008108691e-06,0.9999950145283323,0.0,0.0,0.0,0.0,0.0,0.0,0.0,0.0,0.0,-0.12234943259635539,-0.0004650373038650179,-0.0016367141458450642,0.0,0.0,0.0,0.0,0.0,0.0,0.0,0.0,0.0,0.06163133646772003,0.02783084063749945,9.815093542464348,0.0,0.0,0.0,0.0,0.0,0.0,0.0,0.0,0.0
190.42475,189170,190,423000000,imu_link,0.00036585611673135816,-0.003128400776933234,7.700739468393488e-06,0.999995039586987,0.0,0.0,0.0,0.0,0.0,0.0,0.0,0.0,0.0,-0.12541459168034733,-0.00046771303425006337,-0.001640766249965813,0.0,0.0,0.0,0.0,0.0,0.0,0.0,0.0,0.0,0.0616472187491179,0.025947458686469874,9.814968627695059,0.0,0.0,0.0,0.0,0.0,0.0,0.0,0.0,0.0
190.42475,189171,190,424000000,imu_link,0.0003007579800763875,-0.0031284108304040345,6.6847741296825845e-06,0.9999950612606182,0.0,0.0,0.0,0.0,0.0,0.0,0.0,0.0,0.0,-0.1304520917982335,-0.000472141713029773,-0.0016467203582350273,0.0,0.0,0.0,0.0,0.0,0.0,0.0,0.0,0.0,0.06165287623127868,0.025116802182074256,9.81485289617544,0.0,0.0,0.0,0.0,0.0,0.0,0.0,0.0,0.0
190.42475,189172,190,425000000,imu_link,0.00023389741330107972,-0.003128422567713819,5.6647407008581934e-06,0.9999950791039667,0.0,0.0,0.0,0.0,0.0,0.0,0.0,0.0,0.0,-0.13471132596811797,-0.00047639828441554835,-0.001642055627858656,0.0,0.0,0.0,0.0,0.0,0.0,0.0,0.0,0.0,0.061735678319495495,0.02568751930051129,9.813336488570352,0.0,0.0,0.0,0.0,0.0,0.0,0.0,0.0,0.0
190.426,189173,190,426000000,imu_link,0.00016535232429321577,-0.003128435948729026,4.641779906275119e-06,0.9999950927507483,0.0,0.0,0.0,0.0,0.0,0.0,0.0,0.0,0.0,-0.13723026088940227,-0.00047891604677126554,-0.0016390328567013575,0.0,0.0,0.0,0.0,0.0,0.0,0.0,0.0,0.0,0.061736930063573524,0.024635731738944483,9.81324099906258,0.0,0.0,0.0,0.0,0.0,0.0,0.0,0.0,0.0
190.42725,189174,190,427000000,imu_link,9.510757195526219e-05,-0.0031284509293808003,3.615792316476228e-06,0.9999951018561333,0.0,0.0,0.0,0.0,0.0,0.0,0.0,0.0,0.0,-0.1415214049192993,-0.00048295495431685407,-0.0016344972836030507,0.0,0.0,0.0,0.0,0.0,0.0,0.0,0.0,0.0,0.06174366549646699,0.02339217711125216,9.813258604397326,0.0,0.0,0.0,0.0,0.0,0.0,0.0,0.0,0.0
190.428,189175,190,428000000,imu_link,2.3121529361851836e-05,-0.0031284674610564237,2.5864955428610406e-06,0.9999951060630496,0.0,0.0,0.0,0.0,0.0,0.0,0.0,0.0,0.0,-0.1449834690223092,-0.0004861134202395006,-0.0016308168213057203,0.0,0.0,0.0,0.0,0.0,0.0,0.0,0.0,0.0,0.06174914386196253,0.02232890008074083,9.813225242778886,0.0,0.0,0.0,0.0,0.0,0.0,0.0,0.0,0.0
190.42925,189176,190,429000000,imu_link,-5.052168865853905e-05,-0.0031284854550432534,1.5550909578507434e-06,0.9999951049999687,0.0,0.0,0.0,0.0,0.0,0.0,0.0,0.0,0.0,-0.14738346610296155,-0.0004882702392256397,-0.0016260825243092387,0.0,0.0,0.0,0.0,0.0,0.0,0.0,0.0,0.0,0.06171869840512688,0.021716586573004786,9.812682884210465,0.0,0.0,0.0,0.0,0.0,0.0,0.0,0.0,0.0
190.43025,189177,190,430000000,imu_link,-0.00012555145311164917,-0.0031285048482098507,5.248906370406121e-07,0.9999950983349727,0.0,0.0,0.0,0.0,0.0,0.0,0.0,0.0,0.0,-0.150784265521997,-0.0004918525341797289,-0.001612746697920004,0.0,0.0,0.0,0.0,0.0,0.0,0.0,0.0,0.0,0.0618216474353797,0.021376405558850984,9.811523658058988,0.0,0.0,0.0,0.0,0.0,0.0,0.0,0.0,0.0
190.43125,189178,190,431000000,imu_link,-0.00020192666256086872,-0.003128525615812182,-5.037366113358027e-07,0.9999950857643453,0.0,0.0,0.0,0.0,0.0,0.0,0.0,0.0,0.0,-0.15346188948897269,-0.0004946887925684275,-0.0016019293493059106,0.0,0.0,0.0,0.0,0.0,0.0,0.0,0.0,0.0,0.06182259551820875,0.020139402344513866,9.811439855839037,0.0,0.0,0.0,0.0,0.0,0.0,0.0,0.0,0.0
190.433,189179,190,432000000,imu_link,-0.00027963116594454214,-0.003128547546392914,-1.5306004115892068e-06,0.9999950669849917,0.0,0.0,0.0,0.0,0.0,0.0,0.0,0.0,0.0,-0.1554470141810508,-0.0004967994874072414,-0.0015936497482062066,0.0,0.0,0.0,0.0,0.0,0.0,0.0,0.0,0.0,0.06182555729106119,0.01886758104394232,9.81138396219531,0.0,0.0,0.0,0.0,0.0,0.0,0.0,0.0,0.0
190.43325,189180,190,433000000,imu_link,-0.0003586898807432947,-0.003128570165533912,-2.5558848245645063e-06,0.9999950416795857,0.0,0.0,0.0,0.0,0.0,0.0,0.0,0.0,0.0,-0.15816561758535916,-0.0004978668051434127,-0.0015830144613653665,0.0,0.0,0.0,0.0,0.0,0.0,0.0,0.0,0.0,0.06183285905665473,0.017423258193800063,9.811179001733187,0.0,0.0,0.0,0.0,0.0,0.0,0.0,0.0,0.0
190.4345,189181,190,434000000,imu_link,-0.00043910310930605833,-0.0031285940392718585,-3.5793021317911753e-06,0.9999950095250404,0.0,0.0,0.0,0.0,0.0,0.0,0.0,0.0,0.0,-0.16087317911190083,-0.0005004942500454936,-0.001572198507532228,0.0,0.0,0.0,0.0,0.0,0.0,0.0,0.0,0.0,0.06182242183779572,0.01617231438631536,9.811293809650648,0.0,0.0,0.0,0.0,0.0,0.0,0.0,0.0,0.0
190.4355,189182,190,435000000,imu_link,-0.0005206438289498174,-0.003128614714259186,-4.597230593948842e-06,0.9999949703267704,0.0,0.0,0.0,0.0,0.0,0.0,0.0,0.0,0.0,-0.16350494170507154,-0.0004947182031741377,-0.0015486605431542933,0.0,0.0,0.0,0.0,0.0,0.0,0.0,0.0,0.0,0.06181399678653107,0.016482465512070436,9.810794366689535,0.0,0.0,0.0,0.0,0.0,0.0,0.0,0.0,0.0
190.4365,189183,190,436000000,imu_link,-0.0006031496368429974,-0.0031286363234073857,-5.608034821597203e-06,0.9999949238940274,0.0,0.0,0.0,0.0,0.0,0.0,0.0,0.0,0.0,-0.165424664471472,-0.0004968009179521221,-0.001529252568846535,0.0,0.0,0.0,0.0,0.0,0.0,0.0,0.0,0.0,0.061929704222837396,0.01514881538413862,9.809615316800587,0.0,0.0,0.0,0.0,0.0,0.0,0.0,0.0,0.0
190.43725,189184,190,437000000,imu_link,-0.0006866077362939342,-0.0031286589340469937,-6.611624471098137e-06,0.9999948699965302,0.0,0.0,0.0,0.0,0.0,0.0,0.0,0.0,0.0,-0.16684839377599125,-0.0004983693328634818,-0.0015146595930597177,0.0,0.0,0.0,0.0,0.0,0.0,0.0,0.0,0.0,0.06192523310947966,0.013662419352806512,9.809575127043757,0.0,0.0,0.0,0.0,0.0,0.0,0.0,0.0,0.0
190.4385,189185,190,438000000,imu_link,-0.0007709743599417662,-0.0031286825357855134,-7.607546427207544e-06,0.9999948084296497,0.0,0.0,0.0,0.0,0.0,0.0,0.0,0.0,0.0,-0.16863855486485485,-0.0005003969098497118,-0.0014944286355921144,0.0,0.0,0.0,0.0,0.0,0.0,0.0,0.0,0.0,0.06193603186535754,0.01259703429299332,9.809310953955054,0.0,0.0,0.0,0.0,0.0,0.0,0.0,0.0,0.0
190.439,189186,190,439000000,imu_link,-0.0008561703582895615,-0.0031287070442269117,-8.59512825183541e-06,0.9999947390314976,0.0,0.0,0.0,0.0,0.0,0.0,0.0,0.0,0.0,-0.17065571995092518,-0.0005027484358241953,-0.0014681810454551614,0.0,0.0,0.0,0.0,0.0,0.0,0.0,0.0,0.0,0.061953254857096254,0.011682884435346343,9.808887060592033,0.0,0.0,0.0,0.0,0.0,0.0,0.0,0.0,0.0
190.44025,189187,190,440000000,imu_link,-0.0009421106756993842,-0.003128732439722322,-9.573620768399234e-06,0.9999946616703216,0.0,0.0,0.0,0.0,0.0,0.0,0.0,0.0,0.0,-0.17211282216076895,-0.0005046265697893453,-0.0014458933014864543,0.0,0.0,0.0,0.0,0.0,0.0,0.0,0.0,0.0,0.06196824548577071,0.010315614293835693,9.808532787098455,0.0,0.0,0.0,0.0,0.0,0.0,0.0,0.0,0.0
190.4415,189188,190,441000000,imu_link,-0.0010287759024928467,-0.0031287587197485157,-1.0542723707601386e-05,0.9999945761742246,0.0,0.0,0.0,0.0,0.0,0.0,0.0,0.0,0.0,-0.17319491312771923,-0.0005060358536836105,-0.0014291659458972328,0.0,0.0,0.0,0.0,0.0,0.0,0.0,0.0,0.0,0.06196893235846904,0.00874613400245626,9.808509152244916,0.0,0.0,0.0,0.0,0.0,0.0,0.0,0.0,0.0
190.44225,189189,190,442000000,imu_link,-0.0011161588885023979,-0.003128785875147033,-1.1502359055767707e-05,0.9999944823627673,0.0,0.0,0.0,0.0,0.0,0.0,0.0,0.0,0.0,-0.17462436283079102,-0.0005079037151695413,-0.0014067670981755033,0.0,0.0,0.0,0.0,0.0,0.0,0.0,0.0,0.0,0.06197042297266363,0.007184321186842101,9.808491890967767,0.0,0.0,0.0,0.0,0.0,0.0,0.0,0.0,0.0
190.44325,189190,190,443000000,imu_link,-0.0012040469133916313,-0.003128813818452689,-1.2448822969180769e-05,0.9999943803042828,0.0,0.0,0.0,0.0,0.0,0.0,0.0,0.0,0.0,-0.17550315733715602,-0.0005096322545393008,-0.001376970877040578,0.0,0.0,0.0,0.0,0.0,0.0,0.0,0.0,0.0,0.06194831071737691,0.0067912732845807865,9.807405525025523,0.0,0.0,0.0,0.0,0.0,0.0,0.0,0.0,0.0
190.444,189191,190,444000000,imu_link,-0.0012921353451524772,-0.0031288427966061198,-1.3379161985547687e-05,0.9999942702585861,0.0,0.0,0.0,0.0,0.0,0.0,0.0,0.0,0.0,-0.1759053342855809,-0.0005118447782540801,-0.0013445064388481727,0.0,0.0,0.0,0.0,0.0,0.0,0.0,0.0,0.0,0.06202007893116514,0.005375167693921667,9.806357216056359,0.0,0.0,0.0,0.0,0.0,0.0,0.0,0.0,0.0
190.44525,189192,190,445000000,imu_link,-0.0013803926739509862,-0.0031288737170804973,-1.4293243267101531e-05,0.9999941522134175,0.0,0.0,0.0,0.0,0.0,0.0,0.0,0.0,0.0,-0.17627234251797075,-0.0005170039626822501,-0.0013033733075298625,0.0,0.0,0.0,0.0,0.0,0.0,0.0,0.0,0.0,0.06200414951249602,0.0037982751556857423,9.806370599731718,0.0,0.0,0.0,0.0,0.0,0.0,0.0,0.0,0.0
190.447,189193,190,446000000,imu_link,-0.0014687425402681814,-0.003128905924464981,-1.5190613906397602e-05,0.9999940262383128,0.0,0.0,0.0,0.0,0.0,0.0,0.0,0.0,0.0,-0.17645155959680264,-0.0005190048228471733,-0.0012704328337226599,0.0,0.0,0.0,0.0,0.0,0.0,0.0,0.0,0.0,0.06201614997398705,0.0021665083480164153,9.805880917659225,0.0,0.0,0.0,0.0,0.0,0.0,0.0,0.0,0.0
190.44725,189194,190,447000000,imu_link,-0.0015571801221714904,-0.003128939045063868,-1.6071453835916658e-05,0.9999938923174619,0.0,0.0,0.0,0.0,0.0,0.0,0.0,0.0,0.0,-0.1766122909977825,-0.0005209927655625785,-0.0012382111802783328,0.0,0.0,0.0,0.0,0.0,0.0,0.0,0.0,0.0,0.06201643724940216,0.0004538268057920451,9.805852744350876,0.0,0.0,0.0,0.0,0.0,0.0,0.0,0.0,0.0
190.4485,189195,190,448000000,imu_link,-0.00164565923043085,-0.003128973061635641,-1.6935616889299618e-05,0.999993750503703,0.0,0.0,0.0,0.0,0.0,0.0,0.0,0.0,0.0,-0.17665811476983231,-0.0005228524134281172,-0.001205032673775565,0.0,0.0,0.0,0.0,0.0,0.0,0.0,0.0,0.0,0.062004214183885215,-0.0013607190017159744,9.805580469182285,0.0,0.0,0.0,0.0,0.0,0.0,0.0,0.0,0.0
190.44925,189196,190,449000000,imu_link,-0.0017341640522454997,-0.00312900790726153,-1.778285274686454e-05,0.9999936008136884,0.0,0.0,0.0,0.0,0.0,0.0,0.0,0.0,0.0,-0.17670867732139664,-0.0005246451709289393,-0.0011720996037818078,0.0,0.0,0.0,0.0,0.0,0.0,0.0,0.0,0.0,0.06200122420885001,-0.00311081879064962,9.805608828450591,0.0,0.0,0.0,0.0,0.0,0.0,0.0,0.0,0.0
190.45075,189197,190,450000000,imu_link,-0.0018226333178694967,-0.0031290472430182685,-1.8612506003102185e-05,0.9999934433408622,0.0,0.0,0.0,0.0,0.0,0.0,0.0,0.0,0.0,-0.1763356164772815,-0.0005409611445361048,-0.0011356376748660327,0.0,0.0,0.0,0.0,0.0,0.0,0.0,0.0,0.0,0.061929361668303214,-0.0037824484638103936,9.806561366490007,0.0,0.0,0.0,0.0,0.0,0.0,0.0,0.0,0.0
190.45075,189198,190,451000000,imu_link,-0.001910558200178344,-0.0031290911887061593,-1.941854208194746e-05,0.9999932790667231,0.0,0.0,0.0,0.0,0.0,0.0,0.0,0.0,0.0,-0.17536424707364576,-0.000542346219096222,-0.001101983431306232,0.0,0.0,0.0,0.0,0.0,0.0,0.0,0.0,0.0,0.06221490125973826,-0.0035941053631560263,9.803051884896238,0.0,0.0,0.0,0.0,0.0,0.0,0.0,0.0,0.0
