Time,header.seq,header.stamp.secs,header.stamp.nsecs,header.frame_id,orientation.x,orientation.y,orientation.z,orientation.w,orientation_covariance_0,orientation_covariance_1,orientation_covariance_2,orientation_covariance_3,orientation_covariance_4,orientation_covariance_5,orientation_covariance_6,orientation_covariance_7,orientation_covariance_8,angular_velocity.x,angular_velocity.y,angular_velocity.z,angular_velocity_covariance_0,angular_velocity_covariance_1,angular_velocity_covariance_2,angular_velocity_covariance_3,angular_velocity_covariance_4,angular_velocity_covariance_5,angular_velocity_covariance_6,angular_velocity_covariance_7,angular_velocity_covariance_8,linear_acceleration.x,linear_acceleration.y,linear_acceleration.z,linear_acceleration_covariance_0,linear_acceleration_covariance_1,linear_acceleration_covariance_2,linear_acceleration_covariance_3,linear_acceleration_covariance_4,linear_acceleration_covariance_5,linear_acceleration_covariance_6,linear_acceleration_covariance_7,linear_acceleration_covariance_8
1646351293.1970642,7641,1646351293,195525718,,0.0,0.0,0.0,0.0,0.0,0.0,0.0,0.0,0.0,0.0,0.0,0.0,0.0,0.023285245522856712,0.004378091543912888,-0.41923967003822327,0.0,0.0,0.0,0.0,0.0,0.0,0.0,0.0,0.0,-0.18666666746139526,0.45230770111083984,10.158974647521973,0.0,0.0,0.0,0.0,0.0,0.0,0.0,0.0,0.0
1646351293.198139,7642,1646351293,197799249,,0.0,0.0,0.0,0.0,0.0,0.0,0.0,0.0,0.0,0.0,0.0,0.0,0.0,0.03819894418120384,0.003312827320769429,-0.40645650029182434,0.0,0.0,0.0,0.0,0.0,0.0,0.0,0.0,0.0,0.06282051652669907,-0.18487180769443512,9.668973922729492,0.0,0.0,0.0,0.0,0.0,0.0,0.0,0.0,0.0
1646351293.2004042,7643,1646351293,200052348,,0.0,0.0,0.0,0.0,0.0,0.0,0.0,0.0,0.0,0.0,0.0,0.0,0.0,-0.005476894788444042,0.009704413823783398,-0.3713027834892273,0.0,0.0,0.0,0.0,0.0,0.0,0.0,0.0,0.0,0.3715384900569916,-0.26384615898132324,9.613333702087402,0.0,0.0,0.0,0.0,0.0,0.0,0.0,0.0,0.0
1646351293.2025552,7644,1646351293,202285074,,0.0,0.0,0.0,0.0,0.0,0.0,0.0,0.0,0.0,0.0,0.0,0.0,0.0,-0.012933745980262756,-0.016927195712924004,-0.36384591460227966,0.0,0.0,0.0,0.0,0.0,0.0,0.0,0.0,0.0,0.24589744210243225,0.3733333349227905,10.029743194580078,0.0,0.0,0.0,0.0,0.0,0.0,0.0,0.0,0.0
1646351293.2049913,7645,1646351293,204563842,,0.0,0.0,0.0,0.0,0.0,0.0,0.0,0.0,0.0,0.0,0.0,0.0,0.0,-0.018260065466165543,-0.01799245923757553,-0.3670417070388794,0.0,0.0,0.0,0.0,0.0,0.0,0.0,0.0,0.0,-0.45769232511520386,0.2853846251964569,10.072820663452148,0.0,0.0,0.0,0.0,0.0,0.0,0.0,0.0,0.0
1646351293.2071505,7646,1646351293,206832276,,0.0,0.0,0.0,0.0,0.0,0.0,0.0,0.0,0.0,0.0,0.0,0.0,0.0,-0.057674847543239594,-0.030775634571909904,-0.38621649146080017,0.0,0.0,0.0,0.0,0.0,0.0,0.0,0.0,0.0,-0.5941025614738464,0.40743592381477356,10.749486923217773,0.0,0.0,0.0,0.0,0.0,0.0,0.0,0.0,0.0
1646351293.2094917,7647,1646351293,209084654,,0.0,0.0,0.0,0.0,0.0,0.0,0.0,0.0,0.0,0.0,0.0,0.0,0.0,-0.0480874665081501,-0.03184089809656143,-0.3627806603908539,0.0,0.0,0.0,0.0,0.0,0.0,0.0,0.0,0.0,-0.5294871926307678,0.5420513153076172,10.234358787536621,0.0,0.0,0.0,0.0,0.0,0.0,0.0,0.0,0.0
1646351293.211642,7648,1646351293,211305802,,0.0,0.0,0.0,0.0,0.0,0.0,0.0,0.0,0.0,0.0,0.0,0.0,0.0,-0.04489167407155037,-0.05421144887804985,-0.3468016982078552,0.0,0.0,0.0,0.0,0.0,0.0,0.0,0.0,0.0,0.044871795922517776,0.19384616613388062,9.965128898620605,0.0,0.0,0.0,0.0,0.0,0.0,0.0,0.0,0.0
1646351293.2139382,7649,1646351293,213511533,,0.0,0.0,0.0,0.0,0.0,0.0,0.0,0.0,0.0,0.0,0.0,0.0,0.0,-0.017194801941514015,-0.04462406784296036,-0.34041014313697815,0.0,0.0,0.0,0.0,0.0,0.0,0.0,0.0,0.0,0.18128205835819244,-0.10051282495260239,9.554102897644043,0.0,0.0,0.0,0.0,0.0,0.0,0.0,0.0,0.0
1646351293.216146,7650,1646351293,215807114,,0.0,0.0,0.0,0.0,0.0,0.0,0.0,0.0,0.0,0.0,0.0,0.0,0.0,-0.0480874665081501,-0.041428275406360626,-0.35532382130622864,0.0,0.0,0.0,0.0,0.0,0.0,0.0,0.0,0.0,0.18666666746139526,0.012564103119075298,9.385384559631348,0.0,0.0,0.0,0.0,0.0,0.0,0.0,0.0,0.0
1646351293.2185605,7651,1646351293,218032418,,0.0,0.0,0.0,0.0,0.0,0.0,0.0,0.0,0.0,0.0,0.0,0.0,0.0,-0.016129538416862488,-0.06273356825113297,-0.35851961374282837,0.0,0.0,0.0,0.0,0.0,0.0,0.0,0.0,0.0,0.15076923370361328,0.38948720693588257,9.415897369384766,0.0,0.0,0.0,0.0,0.0,0.0,0.0,0.0,0.0
1646351293.2207828,7652,1646351293,220256833,,0.0,0.0,0.0,0.0,0.0,0.0,0.0,0.0,0.0,0.0,0.0,0.0,0.0,-0.017194801941514015,-0.06912515312433243,-0.32656171917915344,0.0,0.0,0.0,0.0,0.0,0.0,0.0,0.0,0.0,-0.4594871997833252,0.2674359083175659,9.656410217285156,0.0,0.0,0.0,0.0,0.0,0.0,0.0,0.0,0.0
1646351293.2229588,7653,1646351293,222465694,,0.0,0.0,0.0,0.0,0.0,0.0,0.0,0.0,0.0,0.0,0.0,0.0,0.0,-0.01932533085346222,-0.06805989146232605,-0.34041014313697815,0.0,0.0,0.0,0.0,0.0,0.0,0.0,0.0,0.0,-0.5205128192901611,0.39307692646980286,10.569999694824219,0.0,0.0,0.0,0.0,0.0,0.0,0.0,0.0,0.0
1646351293.2249527,7654,1646351293,224729634,,0.0,0.0,0.0,0.0,0.0,0.0,0.0,0.0,0.0,0.0,0.0,0.0,0.0,0.0009146920638158917,-0.05527671426534653,-0.3063216805458069,0.0,0.0,0.0,0.0,0.0,0.0,0.0,0.0,0.0,0.43974360823631287,-0.37512820959091187,9.00487232208252,0.0,0.0,0.0,0.0,0.0,0.0,0.0,0.0,0.0
1646351293.2271981,7655,1646351293,226929731,,0.0,0.0,0.0,0.0,0.0,0.0,0.0,0.0,0.0,0.0,0.0,0.0,0.0,-0.01186848059296608,-0.06699462234973907,-0.3009953498840332,0.0,0.0,0.0,0.0,0.0,0.0,0.0,0.0,0.0,-0.1058974415063858,0.43794873356819153,9.672564506530762,0.0,0.0,0.0,0.0,0.0,0.0,0.0,0.0,0.0
1646351293.229343,7656,1646351293,229101130,,0.0,0.0,0.0,0.0,0.0,0.0,0.0,0.0,0.0,0.0,0.0,0.0,0.0,0.008371543139219284,-0.0520809181034565,-0.3063216805458069,0.0,0.0,0.0,0.0,0.0,0.0,0.0,0.0,0.0,-0.19564102590084076,0.5384615659713745,9.74256420135498,0.0,0.0,0.0,0.0,0.0,0.0,0.0,0.0,0.0
1646351293.2315004,7657,1646351293,231259555,,0.0,0.0,0.0,0.0,0.0,0.0,0.0,0.0,0.0,0.0,0.0,0.0,0.0,0.025415774434804916,-0.05527671426534653,-0.27969005703926086,0.0,0.0,0.0,0.0,0.0,0.0,0.0,0.0,0.0,-0.9512820839881897,0.44692307710647583,10.20025634765625,0.0,0.0,0.0,0.0,0.0,0.0,0.0,0.0,0.0
1646351293.233679,7658,1646351293,233397371,,0.0,0.0,0.0,0.0,0.0,0.0,0.0,0.0,0.0,0.0,0.0,0.0,0.0,-0.002281100954860449,-0.048885125666856766,-0.27649426460266113,0.0,0.0,0.0,0.0,0.0,0.0,0.0,0.0,0.0,-0.25487178564071655,0.3571794927120209,10.388717651367188,0.0,0.0,0.0,0.0,0.0,0.0,0.0,0.0,0.0
1646351293.2359295,7659,1646351293,235584809,,0.0,0.0,0.0,0.0,0.0,0.0,0.0,0.0,0.0,0.0,0.0,0.0,0.0,0.010502072051167488,-0.02118825353682041,-0.2775595188140869,0.0,0.0,0.0,0.0,0.0,0.0,0.0,0.0,0.0,0.38948720693588257,-0.10051282495260239,9.426666259765625,0.0,0.0,0.0,0.0,0.0,0.0,0.0,0.0,0.0
1646351293.2380743,7660,1646351293,237732634,,0.0,0.0,0.0,0.0,0.0,0.0,0.0,0.0,0.0,0.0,0.0,0.0,0.0,0.008371543139219284,-0.03290615975856781,-0.2466668337583542,0.0,0.0,0.0,0.0,0.0,0.0,0.0,0.0,0.0,0.05743589997291565,-0.014358974993228912,9.525384902954102,0.0,0.0,0.0,0.0,0.0,0.0,0.0,0.0,0.0
1646351293.2402756,7661,1646351293,239941873,,0.0,0.0,0.0,0.0,0.0,0.0,0.0,0.0,0.0,0.0,0.0,0.0,0.0,-0.003346365410834551,-0.0424935407936573,-0.2519931495189667,0.0,0.0,0.0,0.0,0.0,0.0,0.0,0.0,0.0,0.023333333432674408,-0.14538460969924927,9.315383911132812,0.0,0.0,0.0,0.0,0.0,0.0,0.0,0.0,0.0
1646351293.2424092,7662,1646351293,242133214,,0.0,0.0,0.0,0.0,0.0,0.0,0.0,0.0,0.0,0.0,0.0,0.0,0.0,-0.02678218111395836,-0.0009482299210503697,-0.23388366401195526,0.0,0.0,0.0,0.0,0.0,0.0,0.0,0.0,0.0,-0.2764102518558502,0.46666666865348816,10.126666069030762,0.0,0.0,0.0,0.0,0.0,0.0,0.0,0.0,0.0
1646351293.2444932,7663,1646351293,244269194,,0.0,0.0,0.0,0.0,0.0,0.0,0.0,0.0,0.0,0.0,0.0,0.0,0.0,-0.02571691758930683,-0.02225351706147194,-0.2274920791387558,0.0,0.0,0.0,0.0,0.0,0.0,0.0,0.0,0.0,-0.014358974993228912,0.13641025125980377,9.914872169494629,0.0,0.0,0.0,0.0,0.0,0.0,0.0,0.0,0.0
1646351293.2467544,7664,1646351293,246463228,,0.0,0.0,0.0,0.0,0.0,0.0,0.0,0.0,0.0,0.0,0.0,0.0,0.0,-0.021455859765410423,-0.041428275406360626,-0.22536155581474304,0.0,0.0,0.0,0.0,0.0,0.0,0.0,0.0,0.0,-0.18487180769443512,0.34641027450561523,9.941795349121094,0.0,0.0,0.0,0.0,0.0,0.0,0.0,0.0,0.0
1646351293.2490413,7665,1646351293,248747324,,0.0,0.0,0.0,0.0,0.0,0.0,0.0,0.0,0.0,0.0,0.0,0.0,0.0,-0.005476894788444042,-0.006274553015828133,-0.22642681002616882,0.0,0.0,0.0,0.0,0.0,0.0,0.0,0.0,0.0,0.12923076748847961,0.007179487496614456,9.74794864654541,0.0,0.0,0.0,0.0,0.0,0.0,0.0,0.0,0.0
1646351293.2512646,7666,1646351293,250951844,,0.0,0.0,0.0,0.0,0.0,0.0,0.0,0.0,0.0,0.0,0.0,0.0,0.0,-0.04489167407155037,-0.023318784311413765,-0.1902078241109848,0.0,0.0,0.0,0.0,0.0,0.0,0.0,0.0,0.0,-0.09153846651315689,-0.24230769276618958,9.73717975616455,0.0,0.0,0.0,0.0,0.0,0.0,0.0,0.0,0.0
1646351293.253446,7667,1646351293,253172855,,0.0,0.0,0.0,0.0,0.0,0.0,0.0,0.0,0.0,0.0,0.0,0.0,0.0,-0.016129538416862488,-0.003078758716583252,-0.19553415477275848,0.0,0.0,0.0,0.0,0.0,0.0,0.0,0.0,0.0,-0.12025640904903412,0.20461538434028625,10.011795043945312,0.0,0.0,0.0,0.0,0.0,0.0,0.0,0.0,0.0
1646351293.2556918,7668,1646351293,255381099,,0.0,0.0,0.0,0.0,0.0,0.0,0.0,0.0,0.0,0.0,0.0,0.0,0.0,-0.02678218111395836,-0.009470346383750439,-0.17422886192798615,0.0,0.0,0.0,0.0,0.0,0.0,0.0,0.0,0.0,-0.31589746475219727,0.01794871874153614,9.570256233215332,0.0,0.0,0.0,0.0,0.0,0.0,0.0,0.0,0.0
1646351293.2579103,7669,1646351293,257551144,,0.0,0.0,0.0,0.0,0.0,0.0,0.0,0.0,0.0,0.0,0.0,0.0,0.0,-0.013999010436236858,0.001182297826744616,-0.15824991464614868,0.0,0.0,0.0,0.0,0.0,0.0,0.0,0.0,0.0,-0.007179487496614456,0.2853846251964569,9.871794700622559,0.0,0.0,0.0,0.0,0.0,0.0,0.0,0.0,0.0
1646351293.25998,7670,1646351293,259784324,,0.0,0.0,0.0,0.0,0.0,0.0,0.0,0.0,0.0,0.0,0.0,0.0,0.0,-0.021455859765410423,-0.013731402345001698,-0.16464149951934814,0.0,0.0,0.0,0.0,0.0,0.0,0.0,0.0,0.0,-0.2297435998916626,-0.19384616613388062,9.543333053588867,0.0,0.0,0.0,0.0,0.0,0.0,0.0,0.0,0.0
1646351293.2622685,7671,1646351293,261953668,,0.0,0.0,0.0,0.0,0.0,0.0,0.0,0.0,0.0,0.0,0.0,0.0,0.0,0.0030452206265181303,-0.0009482299210503697,-0.11670459806919098,0.0,0.0,0.0,0.0,0.0,0.0,0.0,0.0,0.0,0.2387179583311081,0.06820512562990189,9.710256576538086,0.0,0.0,0.0,0.0,0.0,0.0,0.0,0.0,0.0
1646351293.2643468,7672,1646351293,264108424,,0.0,0.0,0.0,0.0,0.0,0.0,0.0,0.0,0.0,0.0,0.0,0.0,0.0,-0.013999010436236858,-0.03397142514586449,-0.11457406729459763,0.0,0.0,0.0,0.0,0.0,0.0,0.0,0.0,0.0,0.2997435927391052,-0.005384615622460842,9.862820625305176,0.0,0.0,0.0,0.0,0.0,0.0,0.0,0.0,0.0
1646351293.2665274,7673,1646351293,266259073,,0.0,0.0,0.0,0.0,0.0,0.0,0.0,0.0,0.0,0.0,0.0,0.0,0.0,0.005175749771296978,-0.012666137889027596,-0.1113782748579979,0.0,0.0,0.0,0.0,0.0,0.0,0.0,0.0,0.0,0.03769230842590332,0.27820512652397156,9.803589820861816,0.0,0.0,0.0,0.0,0.0,0.0,0.0,0.0,0.0
1646351293.2692754,7674,1646351293,268450116,,0.0,0.0,0.0,0.0,0.0,0.0,0.0,0.0,0.0,0.0,0.0,0.0,0.0,-0.00441163033246994,-0.009470346383750439,-0.08900772035121918,0.0,0.0,0.0,0.0,0.0,0.0,0.0,0.0,0.0,0.23692308366298676,0.03948718309402466,9.65461540222168,0.0,0.0,0.0,0.0,0.0,0.0,0.0,0.0,0.0
1646351293.270826,7675,1646351293,270599662,,0.0,0.0,0.0,0.0,0.0,0.0,0.0,0.0,0.0,0.0,0.0,0.0,0.0,0.013697865419089794,-0.008405081927776337,-0.06344137340784073,0.0,0.0,0.0,0.0,0.0,0.0,0.0,0.0,0.0,0.014358974993228912,0.030512820929288864,9.618718147277832,0.0,0.0,0.0,0.0,0.0,0.0,0.0,0.0,0.0
1646351293.2730484,7676,1646351293,272797975,,0.0,0.0,0.0,0.0,0.0,0.0,0.0,0.0,0.0,0.0,0.0,0.0,0.0,0.02008945122361183,-0.011600873433053493,-0.060245580971241,0.0,0.0,0.0,0.0,0.0,0.0,0.0,0.0,0.0,0.1561538577079773,0.3823077082633972,9.85564136505127,0.0,0.0,0.0,0.0,0.0,0.0,0.0,0.0,0.0
1646351293.2753415,7677,1646351293,274975416,,0.0,0.0,0.0,0.0,0.0,0.0,0.0,0.0,0.0,0.0,0.0,0.0,0.0,0.01156733650714159,-0.029710371047258377,-0.04852767288684845,0.0,0.0,0.0,0.0,0.0,0.0,0.0,0.0,0.0,0.21358974277973175,0.07897436618804932,9.469743728637695,0.0,0.0,0.0,0.0,0.0,0.0,0.0,0.0,0.0
1646351293.2774873,7678,1646351293,277191882,,0.0,0.0,0.0,0.0,0.0,0.0,0.0,0.0,0.0,0.0,0.0,0.0,0.0,0.026481037959456444,-0.01799245923757553,-0.043201349675655365,0.0,0.0,0.0,0.0,0.0,0.0,0.0,0.0,0.0,0.08974359184503555,0.35538461804389954,9.886154174804688,0.0,0.0,0.0,0.0,0.0,0.0,0.0,0.0,0.0
1646351293.2796454,7679,1646351293,279352564,,0.0,0.0,0.0,0.0,0.0,0.0,0.0,0.0,0.0,0.0,0.0,0.0,0.0,0.017958922311663628,-0.03716721758246422,-0.02296132780611515,0.0,0.0,0.0,0.0,0.0,0.0,0.0,0.0,0.0,0.21717949211597443,-0.044871795922517776,9.299230575561523,0.0,0.0,0.0,0.0,0.0,0.0,0.0,0.0,0.0
1646351293.2819164,7680,1646351293,281556783,,0.0,0.0,0.0,0.0,0.0,0.0,0.0,0.0,0.0,0.0,0.0,0.0,0.0,0.014763129875063896,-0.02225351706147194,-0.005917098838835955,0.0,0.0,0.0,0.0,0.0,0.0,0.0,0.0,0.0,0.05564102530479431,0.38410258293151855,9.651025772094727,0.0,0.0,0.0,0.0,0.0,0.0,0.0,0.0,0.0
1646351293.2839828,7681,1646351293,283707578,,0.0,0.0,0.0,0.0,0.0,0.0,0.0,0.0,0.0,0.0,0.0,0.0,0.0,0.010502072051167488,-0.02225351706147194,0.0026050168089568615,0.0,0.0,0.0,0.0,0.0,0.0,0.0,0.0,0.0,-0.03948718309402466,-0.1058974415063858,9.380000114440918,0.0,0.0,0.0,0.0,0.0,0.0,0.0,0.0,0.0
1646351293.2861805,7682,1646351293,285869432,,0.0,0.0,0.0,0.0,0.0,0.0,0.0,0.0,0.0,0.0,0.0,0.0,0.0,0.009436807595193386,-0.0286451056599617,0.012192396447062492,0.0,0.0,0.0,0.0,0.0,0.0,0.0,0.0,0.0,0.1382051259279251,-0.1651282161474228,9.254359245300293,0.0,0.0,0.0,0.0,0.0,0.0,0.0,0.0,0.0
1646351293.288269,7683,1646351293,288032805,,0.0,0.0,0.0,0.0,0.0,0.0,0.0,0.0,0.0,0.0,0.0,0.0,0.0,0.006241013761609793,-0.020122988149523735,0.04841138795018196,0.0,0.0,0.0,0.0,0.0,0.0,0.0,0.0,0.0,0.1058974415063858,0.18666666746139526,9.672564506530762,0.0,0.0,0.0,0.0,0.0,0.0,0.0,0.0,0.0
1646351293.2904675,7684,1646351293,290194320,,0.0,0.0,0.0,0.0,0.0,0.0,0.0,0.0,0.0,0.0,0.0,0.0,0.0,0.037133678793907166,-0.04462406784296036,0.0420197993516922,0.0,0.0,0.0,0.0,0.0,0.0,0.0,0.0,0.0,0.05384615436196327,0.1148717999458313,9.342308044433594,0.0,0.0,0.0,0.0,0.0,0.0,0.0,0.0,0.0
1646351293.2926326,7685,1646351293,292412473,,0.0,0.0,0.0,0.0,0.0,0.0,0.0,0.0,0.0,0.0,0.0,0.0,0.0,0.01156733650714159,-0.023318784311413765,0.043085064738988876,0.0,0.0,0.0,0.0,0.0,0.0,0.0,0.0,0.0,0.17769230902194977,0.21717949211597443,9.794615745544434,0.0,0.0,0.0,0.0,0.0,0.0,0.0,0.0,0.0
1646351293.2948186,7686,1646351293,294620404,,0.0,0.0,0.0,0.0,0.0,0.0,0.0,0.0,0.0,0.0,0.0,0.0,0.0,0.02115471661090851,-0.02225351706147194,0.0654556155204773,0.0,0.0,0.0,0.0,0.0,0.0,0.0,0.0,0.0,0.0,0.05564102530479431,9.231025695800781,0.0,0.0,0.0,0.0,0.0,0.0,0.0,0.0,0.0
1646351293.2970414,7687,1646351293,296789589,,0.0,0.0,0.0,0.0,0.0,0.0,0.0,0.0,0.0,0.0,0.0,0.0,0.0,0.023285245522856712,-0.02118825353682041,0.06652087718248367,0.0,0.0,0.0,0.0,0.0,0.0,0.0,0.0,0.0,-0.003589743748307228,0.3410256505012512,9.735384941101074,0.0,0.0,0.0,0.0,0.0,0.0,0.0,0.0,0.0
1646351293.2992108,7688,1646351293,298968709,,0.0,0.0,0.0,0.0,0.0,0.0,0.0,0.0,0.0,0.0,0.0,0.0,0.0,0.017958922311663628,-0.010535608977079391,0.07823879271745682,0.0,0.0,0.0,0.0,0.0,0.0,0.0,0.0,0.0,0.046666666865348816,0.2997435927391052,9.615128517150879,0.0,0.0,0.0,0.0,0.0,0.0,0.0,0.0,0.0
1646351293.3013904,7689,1646351293,301131852,,0.0,0.0,0.0,0.0,0.0,0.0,0.0,0.0,0.0,0.0,0.0,0.0,0.0,-0.003346365410834551,-0.03929774835705757,0.09847880154848099,0.0,0.0,0.0,0.0,0.0,0.0,0.0,0.0,0.0,-0.028717949986457825,-0.07000000029802322,9.252564430236816,0.0,0.0,0.0,0.0,0.0,0.0,0.0,0.0,0.0
1646351293.3035023,7690,1646351293,303288310,,0.0,0.0,0.0,0.0,0.0,0.0,0.0,0.0,0.0,0.0,0.0,0.0,0.0,0.014763129875063896,-0.015861930325627327,0.03882400318980217,0.0,0.0,0.0,0.0,0.0,0.0,0.0,0.0,0.0,-0.06641025841236115,0.3141025900840759,9.65461540222168,0.0,0.0,0.0,0.0,0.0,0.0,0.0,0.0,0.0
1646351293.3059137,7691,1646351293,305459392,,0.0,0.0,0.0,0.0,0.0,0.0,0.0,0.0,0.0,0.0,0.0,0.0,0.0,0.0009146920638158917,-0.0020134944934397936,0.08995670825242996,0.0,0.0,0.0,0.0,0.0,0.0,0.0,0.0,0.0,-0.2064102590084076,0.03948718309402466,9.182563781738281,0.0,0.0,0.0,0.0,0.0,0.0,0.0,0.0,0.0
1646351293.3077953,7692,1646351293,307592851,,0.0,0.0,0.0,0.0,0.0,0.0,0.0,0.0,0.0,0.0,0.0,0.0,0.0,0.004110485315322876,-0.02544931322336197,0.08569564670324326,0.0,0.0,0.0,0.0,0.0,0.0,0.0,0.0,0.0,0.0825641080737114,0.4774359166622162,9.647436141967773,0.0,0.0,0.0,0.0,0.0,0.0,0.0,0.0,0.0
1646351293.3106334,7693,1646351293,309816176,,0.0,0.0,0.0,0.0,0.0,0.0,0.0,0.0,0.0,0.0,0.0,0.0,0.0,0.023285245522856712,-0.0009482299210503697,0.09634827822446823,0.0,0.0,0.0,0.0,0.0,0.0,0.0,0.0,0.0,0.044871795922517776,0.11128205060958862,9.45358943939209,0.0,0.0,0.0,0.0,0.0,0.0,0.0,0.0,0.0
1646351293.3122163,7694,1646351293,311973328,,0.0,0.0,0.0,0.0,0.0,0.0,0.0,0.0,0.0,0.0,0.0,0.0,0.0,-0.005476894788444042,-0.009470346383750439,0.10060933232307434,0.0,0.0,0.0,0.0,0.0,0.0,0.0,0.0,0.0,0.003589743748307228,0.27820512652397156,9.478717803955078,0.0,0.0,0.0,0.0,0.0,0.0,0.0,0.0,0.0
1646351293.3144617,7695,1646351293,314126315,,0.0,0.0,0.0,0.0,0.0,0.0,0.0,0.0,0.0,0.0,0.0,0.0,0.0,-0.003346365410834551,0.00011703448399202898,0.10593565553426743,0.0,0.0,0.0,0.0,0.0,0.0,0.0,0.0,0.0,0.06102564185857773,0.25128206610679626,9.469743728637695,0.0,0.0,0.0,0.0,0.0,0.0,0.0,0.0,0.0
1646351293.3167908,7696,1646351293,316291762,,0.0,0.0,0.0,0.0,0.0,0.0,0.0,0.0,0.0,0.0,0.0,0.0,0.0,0.02008945122361183,0.007573884446173906,0.0835651159286499,0.0,0.0,0.0,0.0,0.0,0.0,0.0,0.0,0.0,0.03769230842590332,0.42538464069366455,9.419486999511719,0.0,0.0,0.0,0.0,0.0,0.0,0.0,0.0,0.0
1646351293.318805,7697,1646351293,318484814,,0.0,0.0,0.0,0.0,0.0,0.0,0.0,0.0,0.0,0.0,0.0,0.0,0.0,-0.007607422769069672,0.010769677348434925,0.08036932349205017,0.0,0.0,0.0,0.0,0.0,0.0,0.0,0.0,0.0,0.12923076748847961,0.16333334147930145,9.415897369384766,0.0,0.0,0.0,0.0,0.0,0.0,0.0,0.0,0.0
1646351293.3210003,7698,1646351293,320728778,,0.0,0.0,0.0,0.0,0.0,0.0,0.0,0.0,0.0,0.0,0.0,0.0,0.0,0.005175749771296978,0.008639149367809296,0.10167459398508072,0.0,0.0,0.0,0.0,0.0,0.0,0.0,0.0,0.0,-0.007179487496614456,0.4415384829044342,9.636667251586914,0.0,0.0,0.0,0.0,0.0,0.0,0.0,0.0,0.0
1646351293.323256,7699,1646351293,322883297,,0.0,0.0,0.0,0.0,0.0,0.0,0.0,0.0,0.0,0.0,0.0,0.0,0.0,0.012632600963115692,-0.0020134944934397936,0.051607176661491394,0.0,0.0,0.0,0.0,0.0,0.0,0.0,0.0,0.0,-0.03410256281495094,0.2889743745326996,9.89512825012207,0.0,0.0,0.0,0.0,0.0,0.0,0.0,0.0,0.0
1646351293.3253877,7700,1646351293,325051868,,0.0,0.0,0.0,0.0,0.0,0.0,0.0,0.0,0.0,0.0,0.0,0.0,0.0,-0.009737951681017876,0.00224756239913404,0.09847880154848099,0.0,0.0,0.0,0.0,0.0,0.0,0.0,0.0,0.0,-0.42000001668930054,0.005384615622460842,9.414102554321289,0.0,0.0,0.0,0.0,0.0,0.0,0.0,0.0,0.0
1646351293.327429,7701,1646351293,327191552,,0.0,0.0,0.0,0.0,0.0,0.0,0.0,0.0,0.0,0.0,0.0,0.0,0.0,0.001979956403374672,0.016095999628305435,0.059064026921987534,0.0,0.0,0.0,0.0,0.0,0.0,0.0,0.0,0.0,-0.24589744210243225,0.3535897731781006,9.947179794311523,0.0,0.0,0.0,0.0,0.0,0.0,0.0,0.0,0.0
1646351293.3297977,7702,1646351293,329413635,,0.0,0.0,0.0,0.0,0.0,0.0,0.0,0.0,0.0,0.0,0.0,0.0,0.0,-0.00441163033246994,0.023552851751446724,0.08143459260463715,0.0,0.0,0.0,0.0,0.0,0.0,0.0,0.0,0.0,-0.17230769991874695,0.05025641247630119,9.633076667785645,0.0,0.0,0.0,0.0,0.0,0.0,0.0,0.0,0.0
1646351293.3321066,7703,1646351293,331670675,,0.0,0.0,0.0,0.0,0.0,0.0,0.0,0.0,0.0,0.0,0.0,0.0,0.0,-0.00654215831309557,0.009704413823783398,0.03456294909119606,0.0,0.0,0.0,0.0,0.0,0.0,0.0,0.0,0.0,-0.07538461685180664,0.47025641798973083,10.155384063720703,0.0,0.0,0.0,0.0,0.0,0.0,0.0,0.0,0.0
1646351293.334484,7704,1646351293,333974220,,0.0,0.0,0.0,0.0,0.0,0.0,0.0,0.0,0.0,0.0,0.0,0.0,0.0,-0.008672687225043774,0.006508619990199804,0.051607176661491394,0.0,0.0,0.0,0.0,0.0,0.0,0.0,0.0,0.0,-0.3123077154159546,0.3482051491737366,10.044102668762207,0.0,0.0,0.0,0.0,0.0,0.0,0.0,0.0,0.0
1646351293.3366416,7705,1646351293,336249278,,0.0,0.0,0.0,0.0,0.0,0.0,0.0,0.0,0.0,0.0,0.0,0.0,0.0,-0.01186848059296608,0.02887917309999466,0.06652087718248367,0.0,0.0,0.0,0.0,0.0,0.0,0.0,0.0,0.0,-0.15974359214305878,0.07179487496614456,9.765897750854492,0.0,0.0,0.0,0.0,0.0,0.0,0.0,0.0,0.0
1646351293.338883,7706,1646351293,338452949,,0.0,0.0,0.0,0.0,0.0,0.0,0.0,0.0,0.0,0.0,0.0,0.0,0.0,-0.03317376971244812,0.019291793927550316,0.0558682344853878,0.0,0.0,0.0,0.0,0.0,0.0,0.0,0.0,0.0,-0.23333333432674408,0.23333333432674408,9.936410903930664,0.0,0.0,0.0,0.0,0.0,0.0,0.0,0.0,0.0
1646351293.341162,7707,1646351293,340651492,,0.0,0.0,0.0,0.0,0.0,0.0,0.0,0.0,0.0,0.0,0.0,0.0,0.0,-0.010803216136991978,0.020357057452201843,0.04628085717558861,0.0,0.0,0.0,0.0,0.0,0.0,0.0,0.0,0.0,0.06461538374423981,0.20461538434028625,9.717435836791992,0.0,0.0,0.0,0.0,0.0,0.0,0.0,0.0,0.0
1646351293.343256,7708,1646351293,342902561,,0.0,0.0,0.0,0.0,0.0,0.0,0.0,0.0,0.0,0.0,0.0,0.0,0.0,-0.028912710025906563,0.013965470716357231,0.029236625880002975,0.0,0.0,0.0,0.0,0.0,0.0,0.0,0.0,0.0,0.07897436618804932,0.5725641250610352,10.205641746520996,0.0,0.0,0.0,0.0,0.0,0.0,0.0,0.0,0.0
1646351293.3456578,7709,1646351293,345218356,,0.0,0.0,0.0,0.0,0.0,0.0,0.0,0.0,0.0,0.0,0.0,0.0,0.0,-0.01932533085346222,0.003312827320769429,0.04415033012628555,0.0,0.0,0.0,0.0,0.0,0.0,0.0,0.0,0.0,0.11307692527770996,0.13641025125980377,9.730000495910645,0.0,0.0,0.0,0.0,0.0,0.0,0.0,0.0,0.0
1646351293.3477576,7710,1646351293,347405897,,0.0,0.0,0.0,0.0,0.0,0.0,0.0,0.0,0.0,0.0,0.0,0.0,0.0,-0.01186848059296608,0.006508619990199804,0.03136715292930603,0.0,0.0,0.0,0.0,0.0,0.0,0.0,0.0,0.0,-0.05025641247630119,0.42897436022758484,10.352821350097656,0.0,0.0,0.0,0.0,0.0,0.0,0.0,0.0,0.0
1646351293.3500748,7711,1646351293,349653723,,0.0,0.0,0.0,0.0,0.0,0.0,0.0,0.0,0.0,0.0,0.0,0.0,0.0,-0.016129538416862488,-0.008405081927776337,0.03775873780250549,0.0,0.0,0.0,0.0,0.0,0.0,0.0,0.0,0.0,-0.1651282161474228,0.026923077180981636,9.914872169494629,0.0,0.0,0.0,0.0,0.0,0.0,0.0,0.0,0.0
1646351293.3537788,7712,1646351293,351893678,,0.0,0.0,0.0,0.0,0.0,0.0,0.0,0.0,0.0,0.0,0.0,0.0,0.0,-0.00654215831309557,-0.0009482299210503697,0.03775873780250549,0.0,0.0,0.0,0.0,0.0,0.0,0.0,0.0,0.0,0.010769231244921684,0.0735897421836853,9.825127601623535,0.0,0.0,0.0,0.0,0.0,0.0,0.0,0.0,0.0
1646351293.3544166,7713,1646351293,354095077,,0.0,0.0,0.0,0.0,0.0,0.0,0.0,0.0,0.0,0.0,0.0,0.0,0.0,-0.003346365410834551,-0.006274553015828133,-0.0005907765007577837,0.0,0.0,0.0,0.0,0.0,0.0,0.0,0.0,0.0,-0.14897435903549194,0.21358974277973175,10.266667366027832,0.0,0.0,0.0,0.0,0.0,0.0,0.0,0.0,0.0
1646351293.356642,7714,1646351293,356310694,,0.0,0.0,0.0,0.0,0.0,0.0,0.0,0.0,0.0,0.0,0.0,0.0,0.0,-0.01506427489221096,-0.003078758716583252,0.0281713604927063,0.0,0.0,0.0,0.0,0.0,0.0,0.0,0.0,0.0,0.09153846651315689,0.1382051259279251,9.816153526306152,0.0,0.0,0.0,0.0,0.0,0.0,0.0,0.0,0.0
1646351293.358883,7715,1646351293,358521333,,0.0,0.0,0.0,0.0,0.0,0.0,0.0,0.0,0.0,0.0,0.0,0.0,0.0,0.01689365692436695,-0.030775634571909904,0.01112713199108839,0.0,0.0,0.0,0.0,0.0,0.0,0.0,0.0,0.0,0.012564103119075298,0.4792307913303375,10.306154251098633,0.0,0.0,0.0,0.0,0.0,0.0,0.0,0.0,0.0
1646351293.3612683,7716,1646351293,360835996,,0.0,0.0,0.0,0.0,0.0,0.0,0.0,0.0,0.0,0.0,0.0,0.0,0.0,0.02008945122361183,-0.010535608977079391,0.017518719658255577,0.0,0.0,0.0,0.0,0.0,0.0,0.0,0.0,0.0,0.10230769217014313,-0.06282051652669907,9.828718185424805,0.0,0.0,0.0,0.0,0.0,0.0,0.0,0.0,0.0
1646351293.3635292,7717,1646351293,363070557,,0.0,0.0,0.0,0.0,0.0,0.0,0.0,0.0,0.0,0.0,0.0,0.0,0.0,-0.0012158364988863468,-0.03610195219516754,0.00686607463285327,0.0,0.0,0.0,0.0,0.0,0.0,0.0,0.0,0.0,0.026923077180981636,0.3176923394203186,9.873589515686035,0.0,0.0,0.0,0.0,0.0,0.0,0.0,0.0,0.0
1646351293.365704,7718,1646351293,365278085,,0.0,0.0,0.0,0.0,0.0,0.0,0.0,0.0,0.0,0.0,0.0,0.0,0.0,0.01156733650714159,-0.03290615975856781,-0.017635004594922066,0.0,0.0,0.0,0.0,0.0,0.0,0.0,0.0,0.0,0.14538460969924927,0.08076923340559006,9.931025505065918,0.0,0.0,0.0,0.0,0.0,0.0,0.0,0.0,0.0
1646351293.367892,7719,1646351293,367479336,,0.0,0.0,0.0,0.0,0.0,0.0,0.0,0.0,0.0,0.0,0.0,0.0,0.0,-0.00441163033246994,-0.03503669053316116,-0.005917098838835955,0.0,0.0,0.0,0.0,0.0,0.0,0.0,0.0,0.0,0.00897435937076807,0.3823077082633972,9.932821273803711,0.0,0.0,0.0,0.0,0.0,0.0,0.0,0.0,0.0
1646351293.3700368,7720,1646351293,369703410,,0.0,0.0,0.0,0.0,0.0,0.0,0.0,0.0,0.0,0.0,0.0,0.0,0.0,-0.00015057262498885393,-0.026514576748013496,0.0026050168089568615,0.0,0.0,0.0,0.0,0.0,0.0,0.0,0.0,0.0,0.03769230842590332,0.044871795922517776,10.001025199890137,0.0,0.0,0.0,0.0,0.0,0.0,0.0,0.0,0.0
1646351293.3722878,7721,1646351293,371913575,,0.0,0.0,0.0,0.0,0.0,0.0,0.0,0.0,0.0,0.0,0.0,0.0,0.0,-0.013999010436236858,-0.016927195712924004,0.0047355457209050655,0.0,0.0,0.0,0.0,0.0,0.0,0.0,0.0,0.0,-0.3482051491737366,-0.1058974415063858,9.740769386291504,0.0,0.0,0.0,0.0,0.0,0.0,0.0,0.0,0.0
1646351293.374569,7722,1646351293,374121182,,0.0,0.0,0.0,0.0,0.0,0.0,0.0,0.0,0.0,0.0,0.0,0.0,0.0,0.008371543139219284,-0.019057724624872208,-0.018700269982218742,0.0,0.0,0.0,0.0,0.0,0.0,0.0,0.0,0.0,-0.24589744210243225,0.33743590116500854,10.5,0.0,0.0,0.0,0.0,0.0,0.0,0.0,0.0,0.0
1646351293.3768756,7723,1646351293,376469757,,0.0,0.0,0.0,0.0,0.0,0.0,0.0,0.0,0.0,0.0,0.0,0.0,0.0,-0.016129538416862488,-0.005209287628531456,-0.0027213047724217176,0.0,0.0,0.0,0.0,0.0,0.0,0.0,0.0,0.0,-0.18666666746139526,-0.10051282495260239,9.441025733947754,0.0,0.0,0.0,0.0,0.0,0.0,0.0,0.0,0.0
1646351293.3791695,7724,1646351293,378674667,,0.0,0.0,0.0,0.0,0.0,0.0,0.0,0.0,0.0,0.0,0.0,0.0,0.0,-0.008672687225043774,-0.01799245923757553,0.014322925359010696,0.0,0.0,0.0,0.0,0.0,0.0,0.0,0.0,0.0,-0.11666666716337204,0.2117948830127716,9.893333435058594,0.0,0.0,0.0,0.0,0.0,0.0,0.0,0.0,0.0
1646351293.381426,7725,1646351293,380950605,,0.0,0.0,0.0,0.0,0.0,0.0,0.0,0.0,0.0,0.0,0.0,0.0,0.0,-0.01932533085346222,0.001182297826744616,0.010061867535114288,0.0,0.0,0.0,0.0,0.0,0.0,0.0,0.0,0.0,0.22615385055541992,-0.02153846248984337,9.598974227905273,0.0,0.0,0.0,0.0,0.0,0.0,0.0,0.0,0.0
1646351293.3837569,7726,1646351293,383225005,,0.0,0.0,0.0,0.0,0.0,0.0,0.0,0.0,0.0,0.0,0.0,0.0,0.0,0.0009146920638158917,-0.02118825353682041,0.018583983182907104,0.0,0.0,0.0,0.0,0.0,0.0,0.0,0.0,0.0,0.22435897588729858,0.20102564990520477,9.731794357299805,0.0,0.0,0.0,0.0,0.0,0.0,0.0,0.0,0.0
1646351293.38577,7727,1646351293,385463667,,0.0,0.0,0.0,0.0,0.0,0.0,0.0,0.0,0.0,0.0,0.0,0.0,0.0,-0.04169588163495064,0.007573884446173906,-0.0101781552657485,0.0,0.0,0.0,0.0,0.0,0.0,0.0,0.0,0.0,0.0735897421836853,-0.06282051652669907,9.760512351989746,0.0,0.0,0.0,0.0,0.0,0.0,0.0,0.0,0.0
1646351293.3881538,7728,1646351293,387735862,,0.0,0.0,0.0,0.0,0.0,0.0,0.0,0.0,0.0,0.0,0.0,0.0,0.0,-0.00654215831309557,0.001182297826744616,0.010061867535114288,0.0,0.0,0.0,0.0,0.0,0.0,0.0,0.0,0.0,0.2889743745326996,-0.07179487496614456,9.423076629638672,0.0,0.0,0.0,0.0,0.0,0.0,0.0,0.0,0.0
1646351293.3904288,7729,1646351293,389940981,,0.0,0.0,0.0,0.0,0.0,0.0,0.0,0.0,0.0,0.0,0.0,0.0,0.0,-0.008672687225043774,0.012900206260383129,-0.018700269982218742,0.0,0.0,0.0,0.0,0.0,0.0,0.0,0.0,0.0,-0.02153846248984337,0.2530769407749176,10.044102668762207,0.0,0.0,0.0,0.0,0.0,0.0,0.0,0.0,0.0
1646351293.3926733,7730,1646351293,392182070,,0.0,0.0,0.0,0.0,0.0,0.0,0.0,0.0,0.0,0.0,0.0,0.0,0.0,-0.01506427489221096,-0.005209287628531456,0.01112713199108839,0.0,0.0,0.0,0.0,0.0,0.0,0.0,0.0,0.0,0.20820513367652893,-0.2889743745326996,9.380000114440918,0.0,0.0,0.0,0.0,0.0,0.0,0.0,0.0,0.0
1646351293.3956969,7731,1646351293,394395251,,0.0,0.0,0.0,0.0,0.0,0.0,0.0,0.0,0.0,0.0,0.0,0.0,0.0,-0.02997797727584839,-0.004144023172557354,-0.011243419721722603,0.0,0.0,0.0,0.0,0.0,0.0,0.0,0.0,0.0,-0.13461539149284363,0.28179487586021423,10.083589553833008,0.0,0.0,0.0,0.0,0.0,0.0,0.0,0.0,0.0
1646351293.3972008,7732,1646351293,396703749,,0.0,0.0,0.0,0.0,0.0,0.0,0.0,0.0,0.0,0.0,0.0,0.0,0.0,-0.005476894788444042,0.011834941804409027,0.012192396447062492,0.0,0.0,0.0,0.0,0.0,0.0,0.0,0.0,0.0,-0.14179487526416779,-0.05205128341913223,9.564871788024902,0.0,0.0,0.0,0.0,0.0,0.0,0.0,0.0,0.0
1646351293.3992796,7733,1646351293,398914755,,0.0,0.0,0.0,0.0,0.0,0.0,0.0,0.0,0.0,0.0,0.0,0.0,0.0,-0.016129538416862488,-0.0020134944934397936,0.03136715292930603,0.0,0.0,0.0,0.0,0.0,0.0,0.0,0.0,0.0,-0.11666666716337204,-0.03589743748307228,9.668973922729492,0.0,0.0,0.0,0.0,0.0,0.0,0.0,0.0,0.0
1646351293.4015093,7734,1646351293,401164470,,0.0,0.0,0.0,0.0,0.0,0.0,0.0,0.0,0.0,0.0,0.0,0.0,0.0,0.0009146920638158917,0.020357057452201843,0.000474488188046962,0.0,0.0,0.0,0.0,0.0,0.0,0.0,0.0,0.0,-0.010769231244921684,0.05923077091574669,9.965128898620605,0.0,0.0,0.0,0.0,0.0,0.0,0.0,0.0,0.0
1646351293.4037814,7735,1646351293,403403751,,0.0,0.0,0.0,0.0,0.0,0.0,0.0,0.0,0.0,0.0,0.0,0.0,0.0,-0.01932533085346222,-0.012666137889027596,0.01964924857020378,0.0,0.0,0.0,0.0,0.0,0.0,0.0,0.0,0.0,0.1328205168247223,-0.15794873237609863,9.39794921875,0.0,0.0,0.0,0.0,0.0,0.0,0.0,0.0,0.0
1646351293.40589,7736,1646351293,405636843,,0.0,0.0,0.0,0.0,0.0,0.0,0.0,0.0,0.0,0.0,0.0,0.0,0.0,0.001979956403374672,0.012900206260383129,0.0058008101768791676,0.0,0.0,0.0,0.0,0.0,0.0,0.0,0.0,0.0,0.05025641247630119,0.07897436618804932,9.462564468383789,0.0,0.0,0.0,0.0,0.0,0.0,0.0,0.0,0.0
1646351293.4084113,7737,1646351293,407948880,,0.0,0.0,0.0,0.0,0.0,0.0,0.0,0.0,0.0,0.0,0.0,0.0,0.0,0.0030452206265181303,0.009704413823783398,0.021779777482151985,0.0,0.0,0.0,0.0,0.0,0.0,0.0,0.0,0.0,0.2441025674343109,-0.3141025900840759,9.157435417175293,0.0,0.0,0.0,0.0,0.0,0.0,0.0,0.0,0.0
1646351293.4104905,7738,1646351293,410160991,,0.0,0.0,0.0,0.0,0.0,0.0,0.0,0.0,0.0,0.0,0.0,0.0,0.0,0.015828393399715424,-0.013731402345001698,0.03136715292930603,0.0,0.0,0.0,0.0,0.0,0.0,0.0,0.0,0.0,0.007179487496614456,0.19384616613388062,10.05666732788086,0.0,0.0,0.0,0.0,0.0,0.0,0.0,0.0,0.0
1646351293.4126768,7739,1646351293,412407804,,0.0,0.0,0.0,0.0,0.0,0.0,0.0,0.0,0.0,0.0,0.0,0.0,0.0,0.004110485315322876,0.00544335599988699,0.06652087718248367,0.0,0.0,0.0,0.0,0.0,0.0,0.0,0.0,0.0,-0.18307693302631378,-0.12025640904903412,9.704872131347656,0.0,0.0,0.0,0.0,0.0,0.0,0.0,0.0,0.0
1646351293.4148304,7740,1646351293,414603230,,0.0,0.0,0.0,0.0,0.0,0.0,0.0,0.0,0.0,0.0,0.0,0.0,0.0,0.006241013761609793,0.01822652854025364,0.03775873780250549,0.0,0.0,0.0,0.0,0.0,0.0,0.0,0.0,0.0,-0.1651282161474228,0.24948717653751373,10.11230754852295,0.0,0.0,0.0,0.0,0.0,0.0,0.0,0.0,0.0
1646351293.4171758,7741,1646351293,416787223,,0.0,0.0,0.0,0.0,0.0,0.0,0.0,0.0,0.0,0.0,0.0,0.0,0.0,0.029676830396056175,0.015030735172331333,0.05693349987268448,0.0,0.0,0.0,0.0,0.0,0.0,0.0,0.0,0.0,-0.2674359083175659,0.1794871836900711,9.875385284423828,0.0,0.0,0.0,0.0,0.0,0.0,0.0,0.0,0.0
1646351293.419178,7742,1646351293,418947623,,0.0,0.0,0.0,0.0,0.0,0.0,0.0,0.0,0.0,0.0,0.0,0.0,0.0,0.001979956403374672,0.017161265015602112,0.07717353105545044,0.0,0.0,0.0,0.0,0.0,0.0,0.0,0.0,0.0,-0.1328205168247223,-0.05564102530479431,9.464359283447266,0.0,0.0,0.0,0.0,0.0,0.0,0.0,0.0,0.0
1646351293.4213395,7743,1646351293,421120077,,0.0,0.0,0.0,0.0,0.0,0.0,0.0,0.0,0.0,0.0,0.0,0.0,0.0,0.03180735930800438,0.001182297826744616,0.05373770371079445,0.0,0.0,0.0,0.0,0.0,0.0,0.0,0.0,0.0,-0.2476923167705536,0.22794872522354126,9.952564239501953,0.0,0.0,0.0,0.0,0.0,0.0,0.0,0.0,0.0
1646351293.42357,7744,1646351293,423310919,,0.0,0.0,0.0,0.0,0.0,0.0,0.0,0.0,0.0,0.0,0.0,0.0,0.0,0.03500314801931381,0.013965470716357231,0.07504300028085709,0.0,0.0,0.0,0.0,0.0,0.0,0.0,0.0,0.0,-0.4828205108642578,-0.13102564215660095,9.51282024383545,0.0,0.0,0.0,0.0,0.0,0.0,0.0,0.0,0.0
1646351293.4258566,7745,1646351293,425460787,,0.0,0.0,0.0,0.0,0.0,0.0,0.0,0.0,0.0,0.0,0.0,0.0,0.0,0.04139474034309387,0.027813909575343132,0.04947664961218834,0.0,0.0,0.0,0.0,0.0,0.0,0.0,0.0,0.0,-0.07538461685180664,0.18307693302631378,9.568461418151855,0.0,0.0,0.0,0.0,0.0,0.0,0.0,0.0,0.0
1646351293.427911,7746,1646351293,427618749,,0.0,0.0,0.0,0.0,0.0,0.0,0.0,0.0,0.0,0.0,0.0,0.0,0.0,0.050982117652893066,0.010769677348434925,0.08463038504123688,0.0,0.0,0.0,0.0,0.0,0.0,0.0,0.0,0.0,0.014358974993228912,-0.28358975052833557,9.107179641723633,0.0,0.0,0.0,0.0,0.0,0.0,0.0,0.0,0.0
1646351293.4300363,7747,1646351293,429803467,,0.0,0.0,0.0,0.0,0.0,0.0,0.0,0.0,0.0,0.0,0.0,0.0,0.0,0.044590532779693604,-0.0009482299210503697,0.10167459398508072,0.0,0.0,0.0,0.0,0.0,0.0,0.0,0.0,0.0,0.20820513367652893,0.12025640904903412,9.615128517150879,0.0,0.0,0.0,0.0,0.0,0.0,0.0,0.0,0.0
1646351293.432265,7748,1646351293,432012829,,0.0,0.0,0.0,0.0,0.0,0.0,0.0,0.0,0.0,0.0,0.0,0.0,0.0,0.022219980135560036,0.03207496553659439,0.1027398630976677,0.0,0.0,0.0,0.0,0.0,0.0,0.0,0.0,0.0,0.17769230902194977,-0.1238461583852768,9.406923294067383,0.0,0.0,0.0,0.0,0.0,0.0,0.0,0.0,0.0
1646351293.4344552,7749,1646351293,434181088,,0.0,0.0,0.0,0.0,0.0,0.0,0.0,0.0,0.0,0.0,0.0,0.0,0.0,0.052047379314899445,0.015030735172331333,0.1346977949142456,0.0,0.0,0.0,0.0,0.0,0.0,0.0,0.0,0.0,-0.17230769991874695,0.2889743745326996,9.979487419128418,0.0,0.0,0.0,0.0,0.0,0.0,0.0,0.0,0.0
1646351293.4374394,7750,1646351293,436352187,,0.0,0.0,0.0,0.0,0.0,0.0,0.0,0.0,0.0,0.0,0.0,0.0,0.0,0.009436807595193386,0.025683380663394928,0.09954407066106796,0.0,0.0,0.0,0.0,0.0,0.0,0.0,0.0,0.0,0.07000000029802322,-0.001794871874153614,9.977692604064941,0.0,0.0,0.0,0.0,0.0,0.0,0.0,0.0,0.0
1646351293.4390318,7751,1646351293,438543919,,0.0,0.0,0.0,0.0,0.0,0.0,0.0,0.0,0.0,0.0,0.0,0.0,0.0,0.017958922311663628,0.00224756239913404,0.12191461771726608,0.0,0.0,0.0,0.0,0.0,0.0,0.0,0.0,0.0,0.2387179583311081,-0.18666666746139526,9.647436141967773,0.0,0.0,0.0,0.0,0.0,0.0,0.0,0.0,0.0
1646351293.441257,7752,1646351293,440777965,,0.0,0.0,0.0,0.0,0.0,0.0,0.0,0.0,0.0,0.0,0.0,0.0,0.0,-0.009737951681017876,0.011834941804409027,0.12404514849185944,0.0,0.0,0.0,0.0,0.0,0.0,0.0,0.0,0.0,-0.03769230842590332,0.1561538577079773,10.135641098022461,0.0,0.0,0.0,0.0,0.0,0.0,0.0,0.0,0.0
1646351293.44354,7753,1646351293,443037500,,0.0,0.0,0.0,0.0,0.0,0.0,0.0,0.0,0.0,0.0,0.0,0.0,0.0,-0.012933745980262756,0.015030735172331333,0.12404514849185944,0.0,0.0,0.0,0.0,0.0,0.0,0.0,0.0,0.0,-0.1705128252506256,-0.36615386605262756,9.503846168518066,0.0,0.0,0.0,0.0,0.0,0.0,0.0,0.0,0.0
1646351293.446195,7754,1646351293,445336483,,0.0,0.0,0.0,0.0,0.0,0.0,0.0,0.0,0.0,0.0,0.0,0.0,0.0,-0.00654215831309557,-0.007339817471802235,0.13256727159023285,0.0,0.0,0.0,0.0,0.0,0.0,0.0,0.0,0.0,-0.2441025674343109,0.3087179660797119,10.566410064697266,0.0,0.0,0.0,0.0,0.0,0.0,0.0,0.0,0.0
1646351293.447805,7755,1646351293,447546658,,0.0,0.0,0.0,0.0,0.0,0.0,0.0,0.0,0.0,0.0,0.0,0.0,0.0,-0.028912710025906563,0.007573884446173906,0.12404514849185944,0.0,0.0,0.0,0.0,0.0,0.0,0.0,0.0,0.0,-0.16692309081554413,-0.1328205168247223,9.846667289733887,0.0,0.0,0.0,0.0,0.0,0.0,0.0,0.0,0.0
1646351293.4499497,7756,1646351293,449756250,,0.0,0.0,0.0,0.0,0.0,0.0,0.0,0.0,0.0,0.0,0.0,0.0,0.0,-0.01186848059296608,-0.02544931322336197,0.1581336259841919,0.0,0.0,0.0,0.0,0.0,0.0,0.0,0.0,0.0,-0.11128205060958862,-0.21358974277973175,9.862820625305176,0.0,0.0,0.0,0.0,0.0,0.0,0.0,0.0,0.0
1646351293.4525151,7757,1646351293,451979387,,0.0,0.0,0.0,0.0,0.0,0.0,0.0,0.0,0.0,0.0,0.0,0.0,0.0,-0.045956939458847046,-0.003078758716583252,0.13789358735084534,0.0,0.0,0.0,0.0,0.0,0.0,0.0,0.0,0.0,0.10948718339204788,0.005384615622460842,9.681538581848145,0.0,0.0,0.0,0.0,0.0,0.0,0.0,0.0,0.0
1646351293.4546142,7758,1646351293,454247110,,0.0,0.0,0.0,0.0,0.0,0.0,0.0,0.0,0.0,0.0,0.0,0.0,0.0,-0.008672687225043774,-0.009470346383750439,0.15067677199840546,0.0,0.0,0.0,0.0,0.0,0.0,0.0,0.0,0.0,0.07179487496614456,-0.048461541533470154,9.536153793334961,0.0,0.0,0.0,0.0,0.0,0.0,0.0,0.0,0.0
1646351293.4570868,7759,1646351293,456498433,,0.0,0.0,0.0,0.0,0.0,0.0,0.0,0.0,0.0,0.0,0.0,0.0,0.0,-0.0480874665081501,-0.0009482299210503697,0.14535045623779297,0.0,0.0,0.0,0.0,0.0,0.0,0.0,0.0,0.0,-0.1705128252506256,0.1238461583852768,9.783845901489258,0.0,0.0,0.0,0.0,0.0,0.0,0.0,0.0,0.0
1646351293.4591565,7760,1646351293,458760666,,0.0,0.0,0.0,0.0,0.0,0.0,0.0,0.0,0.0,0.0,0.0,0.0,0.0,-0.04489167407155037,-0.041428275406360626,0.1538725644350052,0.0,0.0,0.0,0.0,0.0,0.0,0.0,0.0,0.0,-0.16692309081554413,-0.31948718428611755,9.756922721862793,0.0,0.0,0.0,0.0,0.0,0.0,0.0,0.0,0.0
1646351293.4613428,7761,1646351293,460964451,,0.0,0.0,0.0,0.0,0.0,0.0,0.0,0.0,0.0,0.0,0.0,0.0,0.0,-0.01506427489221096,0.017161265015602112,0.17304733395576477,0.0,0.0,0.0,0.0,0.0,0.0,0.0,0.0,0.0,-0.29076921939849854,0.30153846740722656,10.282820701599121,0.0,0.0,0.0,0.0,0.0,0.0,0.0,0.0,0.0
1646351293.4636242,7762,1646351293,463181768,,0.0,0.0,0.0,0.0,0.0,0.0,0.0,0.0,0.0,0.0,0.0,0.0,0.0,-0.02997797727584839,-0.023318784311413765,0.17517785727977753,0.0,0.0,0.0,0.0,0.0,0.0,0.0,0.0,0.0,-0.23153845965862274,-0.025128206238150597,9.823333740234375,0.0,0.0,0.0,0.0,0.0,0.0,0.0,0.0,0.0
1646351293.4656098,7763,1646351293,465378922,,0.0,0.0,0.0,0.0,0.0,0.0,0.0,0.0,0.0,0.0,0.0,0.0,0.0,-0.009737951681017876,-0.008405081927776337,0.18796101212501526,0.0,0.0,0.0,0.0,0.0,0.0,0.0,0.0,0.0,0.016153845936059952,0.13641025125980377,10.074614524841309,0.0,0.0,0.0,0.0,0.0,0.0,0.0,0.0,0.0
1646351293.4682248,7764,1646351293,467617992,,0.0,0.0,0.0,0.0,0.0,0.0,0.0,0.0,0.0,0.0,0.0,0.0,0.0,0.001979956403374672,-0.041428275406360626,0.18263469636440277,0.0,0.0,0.0,0.0,0.0,0.0,0.0,0.0,0.0,-0.003589743748307228,-0.35179489850997925,9.362051010131836,0.0,0.0,0.0,0.0,0.0,0.0,0.0,0.0,0.0
1646351293.4702597,7765,1646351293,469845035,,0.0,0.0,0.0,0.0,0.0,0.0,0.0,0.0,0.0,0.0,0.0,0.0,0.0,0.005175749771296978,-0.009470346383750439,0.20287472009658813,0.0,0.0,0.0,0.0,0.0,0.0,0.0,0.0,0.0,0.23692308366298676,-0.26384615898132324,9.59538459777832,0.0,0.0,0.0,0.0,0.0,0.0,0.0,0.0,0.0
1646351293.4725673,7766,1646351293,472116357,,0.0,0.0,0.0,0.0,0.0,0.0,0.0,0.0,0.0,0.0,0.0,0.0,0.0,-0.005476894788444042,-0.024384047836065292,0.19222207367420197,0.0,0.0,0.0,0.0,0.0,0.0,0.0,0.0,0.0,0.07000000029802322,0.048461541533470154,9.85025691986084,0.0,0.0,0.0,0.0,0.0,0.0,0.0,0.0,0.0
1646351293.4748302,7767,1646351293,474385530,,0.0,0.0,0.0,0.0,0.0,0.0,0.0,0.0,0.0,0.0,0.0,0.0,0.0,0.009436807595193386,-0.019057724624872208,0.19861365854740143,0.0,0.0,0.0,0.0,0.0,0.0,0.0,0.0,0.0,0.13641025125980377,-0.39307692646980286,9.667179107666016,0.0,0.0,0.0,0.0,0.0,0.0,0.0,0.0,0.0
1646351293.477002,7768,1646351293,476601416,,0.0,0.0,0.0,0.0,0.0,0.0,0.0,0.0,0.0,0.0,0.0,0.0,0.0,0.005175749771296978,-0.023318784311413765,0.19648313522338867,0.0,0.0,0.0,0.0,0.0,0.0,0.0,0.0,0.0,0.18666666746139526,0.005384615622460842,9.785640716552734,0.0,0.0,0.0,0.0,0.0,0.0,0.0,0.0,0.0
1646351293.4800017,7769,1646351293,478817500,,0.0,0.0,0.0,0.0,0.0,0.0,0.0,0.0,0.0,0.0,0.0,0.0,0.0,0.02008945122361183,-0.02544931322336197,0.22098422050476074,0.0,0.0,0.0,0.0,0.0,0.0,0.0,0.0,0.0,0.5241025686264038,-0.18666666746139526,9.412307739257812,0.0,0.0,0.0,0.0,0.0,0.0,0.0,0.0,0.0
1646351293.4814231,7770,1646351293,481074629,,0.0,0.0,0.0,0.0,0.0,0.0,0.0,0.0,0.0,0.0,0.0,0.0,0.0,0.025415774434804916,-0.02225351706147194,0.22204947471618652,0.0,0.0,0.0,0.0,0.0,0.0,0.0,0.0,0.0,0.24230769276618958,0.05384615436196327,9.871794700622559,0.0,0.0,0.0,0.0,0.0,0.0,0.0,0.0,0.0
1646351293.483722,7771,1646351293,483331191,,0.0,0.0,0.0,0.0,0.0,0.0,0.0,0.0,0.0,0.0,0.0,0.0,0.0,0.008371543139219284,-0.006274553015828133,0.24442003667354584,0.0,0.0,0.0,0.0,0.0,0.0,0.0,0.0,0.0,0.026923077180981636,-0.026923077180981636,9.755127906799316,0.0,0.0,0.0,0.0,0.0,0.0,0.0,0.0,0.0
1646351293.4860854,7772,1646351293,485554422,,0.0,0.0,0.0,0.0,0.0,0.0,0.0,0.0,0.0,0.0,0.0,0.0,0.0,0.052047379314899445,-0.01799245923757553,0.22950632870197296,0.0,0.0,0.0,0.0,0.0,0.0,0.0,0.0,0.0,-0.10769230872392654,0.36974361538887024,10.038718223571777,0.0,0.0,0.0,0.0,0.0,0.0,0.0,0.0,0.0
1646351293.4881616,7773,1646351293,487752933,,0.0,0.0,0.0,0.0,0.0,0.0,0.0,0.0,0.0,0.0,0.0,0.0,0.0,0.05311264470219612,-0.04995039105415344,0.22418001294136047,0.0,0.0,0.0,0.0,0.0,0.0,0.0,0.0,0.0,0.19564102590084076,-0.05384615436196327,9.69948673248291,0.0,0.0,0.0,0.0,0.0,0.0,0.0,0.0,0.0
1646351293.4903388,7774,1646351293,489953746,,0.0,0.0,0.0,0.0,0.0,0.0,0.0,0.0,0.0,0.0,0.0,0.0,0.0,0.04991685226559639,-0.02544931322336197,0.2412242442369461,0.0,0.0,0.0,0.0,0.0,0.0,0.0,0.0,0.0,-0.11128205060958862,-0.03948718309402466,9.376410484313965,0.0,0.0,0.0,0.0,0.0,0.0,0.0,0.0,0.0
1646351293.492582,7775,1646351293,492174681,,0.0,0.0,0.0,0.0,0.0,0.0,0.0,0.0,0.0,0.0,0.0,0.0,0.0,0.07974426448345184,-0.010535608977079391,0.23376739025115967,0.0,0.0,0.0,0.0,0.0,0.0,0.0,0.0,0.0,0.15794873237609863,0.21000000834465027,9.40871810913086,0.0,0.0,0.0,0.0,0.0,0.0,0.0,0.0,0.0
1646351293.4947584,7776,1646351293,494392362,,0.0,0.0,0.0,0.0,0.0,0.0,0.0,0.0,0.0,0.0,0.0,0.0,0.0,0.08507058769464493,-0.02118825353682041,0.24974635243415833,0.0,0.0,0.0,0.0,0.0,0.0,0.0,0.0,0.0,-0.05384615436196327,-0.08076923340559006,9.559487342834473,0.0,0.0,0.0,0.0,0.0,0.0,0.0,0.0,0.0
1646351293.4974785,7777,1646351293,496630666,,0.0,0.0,0.0,0.0,0.0,0.0,0.0,0.0,0.0,0.0,0.0,0.0,0.0,0.07867900282144547,-0.013731402345001698,0.23057159781455994,0.0,0.0,0.0,0.0,0.0,0.0,0.0,0.0,0.0,-0.21897436678409576,0.31589746475219727,9.957948684692383,0.0,0.0,0.0,0.0,0.0,0.0,0.0,0.0,0.0
1646351293.4992807,7778,1646351293,498910333,,0.0,0.0,0.0,0.0,0.0,0.0,0.0,0.0,0.0,0.0,0.0,0.0,0.0,0.08400531858205795,-0.02118825353682041,0.2327021211385727,0.0,0.0,0.0,0.0,0.0,0.0,0.0,0.0,0.0,-0.03769230842590332,0.11666666716337204,10.083589553833008,0.0,0.0,0.0,0.0,0.0,0.0,0.0,0.0,0.0
1646351293.5017235,7779,1646351293,501182541,,0.0,0.0,0.0,0.0,0.0,0.0,0.0,0.0,0.0,0.0,0.0,0.0,0.0,0.07228740304708481,-0.023318784311413765,0.2508116066455841,0.0,0.0,0.0,0.0,0.0,0.0,0.0,0.0,0.0,-0.14179487526416779,0.7735897898674011,10.359999656677246,0.0,0.0,0.0,0.0,0.0,0.0,0.0,0.0,0.0
1646351293.5039747,7780,1646351293,503500967,,0.0,0.0,0.0,0.0,0.0,0.0,0.0,0.0,0.0,0.0,0.0,0.0,0.0,0.07228740304708481,0.00544335599988699,0.2646600604057312,0.0,0.0,0.0,0.0,0.0,0.0,0.0,0.0,0.0,0.12205128371715546,0.4558974504470825,9.692307472229004,0.0,0.0,0.0,0.0,0.0,0.0,0.0,0.0,0.0
1646351293.5061777,7781,1646351293,505782313,,0.0,0.0,0.0,0.0,0.0,0.0,0.0,0.0,0.0,0.0,0.0,0.0,0.0,0.052047379314899445,-0.013731402345001698,0.26252952218055725,0.0,0.0,0.0,0.0,0.0,0.0,0.0,0.0,0.0,-0.05923077091574669,0.016153845936059952,9.61153793334961,0.0,0.0,0.0,0.0,0.0,0.0,0.0,0.0,0.0
1646351293.5084267,7782,1646351293,508033457,,0.0,0.0,0.0,0.0,0.0,0.0,0.0,0.0,0.0,0.0,0.0,0.0,0.0,0.0541779100894928,-0.012666137889027596,0.27211689949035645,0.0,0.0,0.0,0.0,0.0,0.0,0.0,0.0,0.0,0.1382051259279251,0.007179487496614456,9.573845863342285,0.0,0.0,0.0,0.0,0.0,0.0,0.0,0.0,0.0
1646351293.5107393,7783,1646351293,510304939,,0.0,0.0,0.0,0.0,0.0,0.0,0.0,0.0,0.0,0.0,0.0,0.0,0.0,0.04246000573039055,-0.003078758716583252,0.25400739908218384,0.0,0.0,0.0,0.0,0.0,0.0,0.0,0.0,0.0,-0.1884615421295166,-0.010769231244921684,10.43897533416748,0.0,0.0,0.0,0.0,0.0,0.0,0.0,0.0,0.0
1646351293.5129313,7784,1646351293,512517076,,0.0,0.0,0.0,0.0,0.0,0.0,0.0,0.0,0.0,0.0,0.0,0.0,0.0,0.052047379314899445,-0.02225351706147194,0.26146426796913147,0.0,0.0,0.0,0.0,0.0,0.0,0.0,0.0,0.0,-0.005384615622460842,0.4361538589000702,10.05846118927002,0.0,0.0,0.0,0.0,0.0,0.0,0.0,0.0,0.0
1646351293.5152216,7785,1646351293,514777000,,0.0,0.0,0.0,0.0,0.0,0.0,0.0,0.0,0.0,0.0,0.0,0.0,0.0,0.014763129875063896,-0.013731402345001698,0.27211689949035645,0.0,0.0,0.0,0.0,0.0,0.0,0.0,0.0,0.0,-0.2656410336494446,0.40205129981040955,10.087179183959961,0.0,0.0,0.0,0.0,0.0,0.0,0.0,0.0,0.0
1646351293.517381,7786,1646351293,516991919,,0.0,0.0,0.0,0.0,0.0,0.0,0.0,0.0,0.0,0.0,0.0,0.0,0.0,0.008371543139219284,-0.006274553015828133,0.26679059863090515,0.0,0.0,0.0,0.0,0.0,0.0,0.0,0.0,0.0,0.2674359083175659,0.003589743748307228,9.353076934814453,0.0,0.0,0.0,0.0,0.0,0.0,0.0,0.0,0.0
1646351293.519585,7787,1646351293,519205797,,0.0,0.0,0.0,0.0,0.0,0.0,0.0,0.0,0.0,0.0,0.0,0.0,0.0,-0.01932533085346222,0.008639149367809296,0.2838348150253296,0.0,0.0,0.0,0.0,0.0,0.0,0.0,0.0,0.0,0.003589743748307228,0.2710256576538086,9.695897102355957,0.0,0.0,0.0,0.0,0.0,0.0,0.0,0.0,0.0
1646351293.5232081,7788,1646351293,521453769,,0.0,0.0,0.0,0.0,0.0,0.0,0.0,0.0,0.0,0.0,0.0,0.0,0.0,-0.012933745980262756,-0.003078758716583252,0.28596535325050354,0.0,0.0,0.0,0.0,0.0,0.0,0.0,0.0,0.0,-0.16692309081554413,0.17769230902194977,9.530769348144531,0.0,0.0,0.0,0.0,0.0,0.0,0.0,0.0,0.0
1646351293.52417,7789,1646351293,523665081,,0.0,0.0,0.0,0.0,0.0,0.0,0.0,0.0,0.0,0.0,0.0,0.0,0.0,-0.031043240800499916,0.013965470716357231,0.25720319151878357,0.0,0.0,0.0,0.0,0.0,0.0,0.0,0.0,0.0,-0.20102564990520477,0.3715384900569916,10.162564277648926,0.0,0.0,0.0,0.0,0.0,0.0,0.0,0.0,0.0
1646351293.5262628,7790,1646351293,525874231,,0.0,0.0,0.0,0.0,0.0,0.0,0.0,0.0,0.0,0.0,0.0,0.0,0.0,-0.05234852433204651,-0.016927195712924004,0.29981377720832825,0.0,0.0,0.0,0.0,0.0,0.0,0.0,0.0,0.0,-0.5223076939582825,0.4002564251422882,10.135641098022461,0.0,0.0,0.0,0.0,0.0,0.0,0.0,0.0,0.0
1646351293.5285268,7791,1646351293,528135923,,0.0,0.0,0.0,0.0,0.0,0.0,0.0,0.0,0.0,0.0,0.0,0.0,0.0,-0.06726223230361938,0.00224756239913404,0.2870306074619293,0.0,0.0,0.0,0.0,0.0,0.0,0.0,0.0,0.0,-0.2441025674343109,0.7000000476837158,9.983077049255371,0.0,0.0,0.0,0.0,0.0,0.0,0.0,0.0,0.0
1646351293.5310426,7792,1646351293,530489620,,0.0,0.0,0.0,0.0,0.0,0.0,0.0,0.0,0.0,0.0,0.0,0.0,0.0,-0.05447905510663986,0.013965470716357231,0.292356938123703,0.0,0.0,0.0,0.0,0.0,0.0,0.0,0.0,0.0,-0.026923077180981636,-0.18487180769443512,9.730000495910645,0.0,0.0,0.0,0.0,0.0,0.0,0.0,0.0,0.0
1646351293.5332904,7793,1646351293,532838587,,0.0,0.0,0.0,0.0,0.0,0.0,0.0,0.0,0.0,0.0,0.0,0.0,0.0,-0.09708963334560394,0.010769677348434925,0.3104664385318756,0.0,0.0,0.0,0.0,0.0,0.0,0.0,0.0,0.0,0.44692307710647583,-0.07717949151992798,9.2615385055542,0.0,0.0,0.0,0.0,0.0,0.0,0.0,0.0,0.0
1646351293.5359213,7794,1646351293,535081438,,0.0,0.0,0.0,0.0,0.0,0.0,0.0,0.0,0.0,0.0,0.0,0.0,0.0,-0.1130685955286026,0.004378091543912888,0.29874852299690247,0.0,0.0,0.0,0.0,0.0,0.0,0.0,0.0,0.0,0.001794871874153614,0.28358975052833557,9.690512657165527,0.0,0.0,0.0,0.0,0.0,0.0,0.0,0.0,0.0
1646351293.5389297,7795,1646351293,537333520,,0.0,0.0,0.0,0.0,0.0,0.0,0.0,0.0,0.0,0.0,0.0,0.0,0.0,-0.11093807220458984,0.012900206260383129,0.3008790612220764,0.0,0.0,0.0,0.0,0.0,0.0,0.0,0.0,0.0,-0.1148717999458313,0.03769230842590332,9.821538925170898,0.0,0.0,0.0,0.0,0.0,0.0,0.0,0.0,0.0
1646351293.539994,7796,1646351293,539580566,,0.0,0.0,0.0,0.0,0.0,0.0,0.0,0.0,0.0,0.0,0.0,0.0,0.0,-0.10774227976799011,0.026748644188046455,0.32644540071487427,0.0,0.0,0.0,0.0,0.0,0.0,0.0,0.0,0.0,0.33384618163108826,0.6317949295043945,9.067692756652832,0.0,0.0,0.0,0.0,0.0,0.0,0.0,0.0,0.0
1646351293.5421917,7797,1646351293,541829504,,0.0,0.0,0.0,0.0,0.0,0.0,0.0,0.0,0.0,0.0,0.0,0.0,0.0,-0.12798230350017548,0.029944438487291336,0.303009569644928,0.0,0.0,0.0,0.0,0.0,0.0,0.0,0.0,0.0,0.1148717999458313,0.3805128335952759,9.755127906799316,0.0,0.0,0.0,0.0,0.0,0.0,0.0,0.0,0.0
1646351293.54637,7798,1646351293,544070181,,0.0,0.0,0.0,0.0,0.0,0.0,0.0,0.0,0.0,0.0,0.0,0.0,0.0,-0.09176331013441086,0.020357057452201843,0.31792327761650085,0.0,0.0,0.0,0.0,0.0,0.0,0.0,0.0,0.0,-0.09333333373069763,-0.3643589913845062,9.530769348144531,0.0,0.0,0.0,0.0,0.0,0.0,0.0,0.0,0.0
1646351293.5466666,7799,1646351293,546287642,,0.0,0.0,0.0,0.0,0.0,0.0,0.0,0.0,0.0,0.0,0.0,0.0,0.0,-0.08750224858522415,0.031009702011942863,0.3062053620815277,0.0,0.0,0.0,0.0,0.0,0.0,0.0,0.0,0.0,0.25846153497695923,0.18307693302631378,9.374615669250488,0.0,0.0,0.0,0.0,0.0,0.0,0.0,0.0,0.0
1646351293.5490983,7800,1646351293,548612307,,0.0,0.0,0.0,0.0,0.0,0.0,0.0,0.0,0.0,0.0,0.0,0.0,0.0,-0.10667701065540314,0.026748644188046455,0.3339022397994995,0.0,0.0,0.0,0.0,0.0,0.0,0.0,0.0,0.0,-0.28717949986457825,0.29615384340286255,9.704872131347656,0.0,0.0,0.0,0.0,0.0,0.0,0.0,0.0,0.0
1646351293.5513728,7801,1646351293,550957336,,0.0,0.0,0.0,0.0,0.0,0.0,0.0,0.0,0.0,0.0,0.0,0.0,0.0,-0.0715232864022255,0.025683380663394928,0.3243148624897003,0.0,0.0,0.0,0.0,0.0,0.0,0.0,0.0,0.0,0.4217948913574219,0.6820513010025024,9.205897331237793,0.0,0.0,0.0,0.0,0.0,0.0,0.0,0.0,0.0
1646351293.5540135,7802,1646351293,553192810,,0.0,0.0,0.0,0.0,0.0,0.0,0.0,0.0,0.0,0.0,0.0,0.0,0.0,-0.05874011293053627,0.02461811527609825,0.31366223096847534,0.0,0.0,0.0,0.0,0.0,0.0,0.0,0.0,0.0,0.3069230914115906,0.18487180769443512,9.383589744567871,0.0,0.0,0.0,0.0,0.0,0.0,0.0,0.0,0.0
1646351293.5558407,7803,1646351293,555422443,,0.0,0.0,0.0,0.0,0.0,0.0,0.0,0.0,0.0,0.0,0.0,0.0,0.0,-0.04702220484614372,0.04911919683218002,0.35094648599624634,0.0,0.0,0.0,0.0,0.0,0.0,0.0,0.0,0.0,0.16153846681118011,0.07717949151992798,9.119743347167969,0.0,0.0,0.0,0.0,0.0,0.0,0.0,0.0,0.0
1646351293.5581365,7804,1646351293,557671331,,0.0,0.0,0.0,0.0,0.0,0.0,0.0,0.0,0.0,0.0,0.0,0.0,0.0,-0.02997797727584839,0.027813909575343132,0.3381633162498474,0.0,0.0,0.0,0.0,0.0,0.0,0.0,0.0,0.0,0.5366666913032532,0.20820513367652893,8.59743595123291,0.0,0.0,0.0,0.0,0.0,0.0,0.0,0.0,0.0
1646351293.560251,7805,1646351293,559889482,,0.0,0.0,0.0,0.0,0.0,0.0,0.0,0.0,0.0,0.0,0.0,0.0,0.0,0.001979956403374672,0.03207496553659439,0.33709803223609924,0.0,0.0,0.0,0.0,0.0,0.0,0.0,0.0,0.0,0.4451282024383545,0.08076923340559006,9.00487232208252,0.0,0.0,0.0,0.0,0.0,0.0,0.0,0.0,0.0
1646351293.562463,7806,1646351293,562133102,,0.0,0.0,0.0,0.0,0.0,0.0,0.0,0.0,0.0,0.0,0.0,0.0,0.0,-0.0012158364988863468,0.04272760823369026,0.3125969469547272,0.0,0.0,0.0,0.0,0.0,0.0,0.0,0.0,0.0,0.1058974415063858,0.7610256671905518,9.581025123596191,0.0,0.0,0.0,0.0,0.0,0.0,0.0,0.0,0.0
1646351293.5659842,7807,1646351293,564356185,,0.0,0.0,0.0,0.0,0.0,0.0,0.0,0.0,0.0,0.0,0.0,0.0,0.0,0.023285245522856712,0.03953181207180023,0.3392285704612732,0.0,0.0,0.0,0.0,0.0,0.0,0.0,0.0,0.0,-0.3625641167163849,0.4056410491466522,9.220256805419922,0.0,0.0,0.0,0.0,0.0,0.0,0.0,0.0,0.0
1646351293.5669756,7808,1646351293,566616638,,0.0,0.0,0.0,0.0,0.0,0.0,0.0,0.0,0.0,0.0,0.0,0.0,0.0,0.03180735930800438,0.013965470716357231,0.32751065492630005,0.0,0.0,0.0,0.0,0.0,0.0,0.0,0.0,0.0,-0.17769230902194977,0.4415384829044342,9.439230918884277,0.0,0.0,0.0,0.0,0.0,0.0,0.0,0.0,0.0
1646351293.5695124,7809,1646351293,568857433,,0.0,0.0,0.0,0.0,0.0,0.0,0.0,0.0,0.0,0.0,0.0,0.0,0.0,0.04246000573039055,0.052314989268779755,0.3339022397994995,0.0,0.0,0.0,0.0,0.0,0.0,0.0,0.0,0.0,-0.3123077154159546,-0.014358974993228912,9.913077354431152,0.0,0.0,0.0,0.0,0.0,0.0,0.0,0.0,0.0
1646351293.5714881,7810,1646351293,571090686,,0.0,0.0,0.0,0.0,0.0,0.0,0.0,0.0,0.0,0.0,0.0,0.0,0.0,0.07228740304708481,0.011834941804409027,0.3573380410671234,0.0,0.0,0.0,0.0,0.0,0.0,0.0,0.0,0.0,0.1884615421295166,0.025128206238150597,9.405128479003906,0.0,0.0,0.0,0.0,0.0,0.0,0.0,0.0,0.0
1646351293.5737667,7811,1646351293,573309782,,0.0,0.0,0.0,0.0,0.0,0.0,0.0,0.0,0.0,0.0,0.0,0.0,0.0,0.11383271217346191,-0.010535608977079391,0.3392285704612732,0.0,0.0,0.0,0.0,0.0,0.0,0.0,0.0,0.0,0.23333333432674408,0.3302564322948456,8.839743614196777,0.0,0.0,0.0,0.0,0.0,0.0,0.0,0.0,0.0
1646351293.5759451,7812,1646351293,575533405,,0.0,0.0,0.0,0.0,0.0,0.0,0.0,0.0,0.0,0.0,0.0,0.0,0.0,0.08507058769464493,0.015030735172331333,0.3669254183769226,0.0,0.0,0.0,0.0,0.0,0.0,0.0,0.0,0.0,0.27282050251960754,0.34641027450561523,8.960000038146973,0.0,0.0,0.0,0.0,0.0,0.0,0.0,0.0,0.0
1646351293.578191,7813,1646351293,577770190,,0.0,0.0,0.0,0.0,0.0,0.0,0.0,0.0,0.0,0.0,0.0,0.0,0.0,0.1425948441028595,-0.027579842135310173,0.3573380410671234,0.0,0.0,0.0,0.0,0.0,0.0,0.0,0.0,0.0,0.026923077180981636,-0.02153846248984337,9.498461723327637,0.0,0.0,0.0,0.0,0.0,0.0,0.0,0.0,0.0
1646351293.5804646,7814,1646351293,580036525,,0.0,0.0,0.0,0.0,0.0,0.0,0.0,0.0,0.0,0.0,0.0,0.0,0.0,0.12555061280727386,-0.008405081927776337,0.3765127956867218,0.0,0.0,0.0,0.0,0.0,0.0,0.0,0.0,0.0,-0.3643589913845062,-0.2028205245733261,9.65999984741211,0.0,0.0,0.0,0.0,0.0,0.0,0.0,0.0,0.0
1646351293.583931,7815,1646351293,582297358,,0.0,0.0,0.0,0.0,0.0,0.0,0.0,0.0,0.0,0.0,0.0,0.0,0.0,0.1468559205532074,-0.027579842135310173,0.3584032952785492,0.0,0.0,0.0,0.0,0.0,0.0,0.0,0.0,0.0,-0.12025640904903412,0.2476923167705536,9.573845863342285,0.0,0.0,0.0,0.0,0.0,0.0,0.0,0.0,0.0
1646351293.5852377,7816,1646351293,584507564,,0.0,0.0,0.0,0.0,0.0,0.0,0.0,0.0,0.0,0.0,0.0,0.0,0.0,0.14792118966579437,-0.009470346383750439,0.3807738423347473,0.0,0.0,0.0,0.0,0.0,0.0,0.0,0.0,0.0,0.4738461673259735,-0.6317949295043945,9.279486656188965,0.0,0.0,0.0,0.0,0.0,0.0,0.0,0.0,0.0
1646351293.5871701,7817,1646351293,586799677,,0.0,0.0,0.0,0.0,0.0,0.0,0.0,0.0,0.0,0.0,0.0,0.0,0.0,0.12235482782125473,-0.0147966668009758,0.3956875503063202,0.0,0.0,0.0,0.0,0.0,0.0,0.0,0.0,0.0,0.17230769991874695,0.1974359005689621,9.584615707397461,0.0,0.0,0.0,0.0,0.0,0.0,0.0,0.0,0.0
1646351293.5894706,7818,1646351293,589074293,,0.0,0.0,0.0,0.0,0.0,0.0,0.0,0.0,0.0,0.0,0.0,0.0,0.0,0.12981167435646057,-0.04781986027956009,0.36586013436317444,0.0,0.0,0.0,0.0,0.0,0.0,0.0,0.0,0.0,-0.3410256505012512,0.7969231009483337,9.835898399353027,0.0,0.0,0.0,0.0,0.0,0.0,0.0,0.0,0.0
1646351293.5916939,7819,1646351293,591327880,,0.0,0.0,0.0,0.0,0.0,0.0,0.0,0.0,0.0,0.0,0.0,0.0,0.0,0.12235482782125473,0.006508619990199804,0.40634018182754517,0.0,0.0,0.0,0.0,0.0,0.0,0.0,0.0,0.0,-0.7520512938499451,-1.1235897541046143,10.674102783203125,0.0,0.0,0.0,0.0,0.0,0.0,0.0,0.0,0.0
1646351293.59408,7820,1646351293,593641767,,0.0,0.0,0.0,0.0,0.0,0.0,0.0,0.0,0.0,0.0,0.0,0.0,0.0,0.1564432978630066,-0.04781986027956009,0.3775780498981476,0.0,0.0,0.0,0.0,0.0,0.0,0.0,0.0,0.0,-1.4017949104309082,-0.7592307925224304,10.792563438415527,0.0,0.0,0.0,0.0,0.0,0.0,0.0,0.0,0.0
1646351293.5961378,7821,1646351293,595855629,,0.0,0.0,0.0,0.0,0.0,0.0,0.0,0.0,0.0,0.0,0.0,0.0,0.0,0.0680263489484787,-0.03290615975856781,0.4042096734046936,0.0,0.0,0.0,0.0,0.0,0.0,0.0,0.0,0.0,0.5420513153076172,0.2620512843132019,11.774359703063965,0.0,0.0,0.0,0.0,0.0,0.0,0.0,0.0,0.0
1646351293.5985851,7822,1646351293,598109764,,0.0,0.0,0.0,0.0,0.0,0.0,0.0,0.0,0.0,0.0,0.0,0.0,0.0,0.06483055651187897,-0.026514576748013496,0.38396963477134705,0.0,0.0,0.0,0.0,0.0,0.0,0.0,0.0,0.0,0.19384616613388062,1.0105128288269043,9.20230770111084,0.0,0.0,0.0,0.0,0.0,0.0,0.0,0.0,0.0
1646351293.6009712,7823,1646351293,600455265,,0.0,0.0,0.0,0.0,0.0,0.0,0.0,0.0,0.0,0.0,0.0,0.0,0.0,0.07228740304708481,-0.038232482969760895,0.39675280451774597,0.0,0.0,0.0,0.0,0.0,0.0,0.0,0.0,0.0,1.2994872331619263,-0.8310256600379944,10.467693328857422,0.0,0.0,0.0,0.0,0.0,0.0,0.0,0.0,0.0
1646351293.6030939,7824,1646351293,602776632,,0.0,0.0,0.0,0.0,0.0,0.0,0.0,0.0,0.0,0.0,0.0,0.0,0.0,0.0009146920638158917,0.00011703448399202898,0.4276454746723175,0.0,0.0,0.0,0.0,0.0,0.0,0.0,0.0,0.0,-0.917179524898529,0.31948718428611755,9.040769577026367,0.0,0.0,0.0,0.0,0.0,0.0,0.0,0.0,0.0
1646351293.6053421,7825,1646351293,605040155,,0.0,0.0,0.0,0.0,0.0,0.0,0.0,0.0,0.0,0.0,0.0,0.0,0.0,-0.020390594378113747,-0.016927195712924004,0.3914265036582947,0.0,0.0,0.0,0.0,0.0,0.0,0.0,0.0,0.0,-0.08076923340559006,0.6210256814956665,11.34538459777832,0.0,0.0,0.0,0.0,0.0,0.0,0.0,0.0,0.0
1646351293.6084156,7826,1646351293,607319494,,0.0,0.0,0.0,0.0,0.0,0.0,0.0,0.0,0.0,0.0,0.0,0.0,0.0,-0.008672687225043774,-0.027579842135310173,0.4042096734046936,0.0,0.0,0.0,0.0,0.0,0.0,0.0,0.0,0.0,0.18666666746139526,-0.22615385055541992,9.661794662475586,0.0,0.0,0.0,0.0,0.0,0.0,0.0,0.0,0.0
1646351293.609858,7827,1646351293,609560304,,0.0,0.0,0.0,0.0,0.0,0.0,0.0,0.0,0.0,0.0,0.0,0.0,0.0,-0.0342390350997448,-0.008405081927776337,0.3871654272079468,0.0,0.0,0.0,0.0,0.0,0.0,0.0,0.0,0.0,0.6066666841506958,-0.44871795177459717,10.358205795288086,0.0,0.0,0.0,0.0,0.0,0.0,0.0,0.0,0.0
1646351293.6122124,7828,1646351293,611781228,,0.0,0.0,0.0,0.0,0.0,0.0,0.0,0.0,0.0,0.0,0.0,0.0,0.0,-0.03317376971244812,-0.009470346383750439,0.3946222960948944,0.0,0.0,0.0,0.0,0.0,0.0,0.0,0.0,0.0,-0.5043590068817139,0.2674359083175659,10.20025634765625,0.0,0.0,0.0,0.0,0.0,0.0,0.0,0.0,0.0
1646351293.6143649,7829,1646351293,614041985,,0.0,0.0,0.0,0.0,0.0,0.0,0.0,0.0,0.0,0.0,0.0,0.0,0.0,-0.06300117075443268,-0.009470346383750439,0.37331700325012207,0.0,0.0,0.0,0.0,0.0,0.0,0.0,0.0,0.0,0.3302564322948456,1.2600001096725464,9.880769729614258,0.0,0.0,0.0,0.0,0.0,0.0,0.0,0.0,0.0
1646351293.6167097,7830,1646351293,616270050,,0.0,0.0,0.0,0.0,0.0,0.0,0.0,0.0,0.0,0.0,0.0,0.0,0.0,-0.02997797727584839,-0.0424935407936573,0.40634018182754517,0.0,0.0,0.0,0.0,0.0,0.0,0.0,0.0,0.0,0.2674359083175659,-0.19025641679763794,9.475128173828125,0.0,0.0,0.0,0.0,0.0,0.0,0.0,0.0,0.0
1646351293.6190948,7831,1646351293,618611443,,0.0,0.0,0.0,0.0,0.0,0.0,0.0,0.0,0.0,0.0,0.0,0.0,0.0,-0.06939276307821274,-0.01799245923757553,0.3999485969543457,0.0,0.0,0.0,0.0,0.0,0.0,0.0,0.0,0.0,0.4361538589000702,0.06282051652669907,10.934358596801758,0.0,0.0,0.0,0.0,0.0,0.0,0.0,0.0,0.0
1646351293.6216583,7832,1646351293,620825562,,0.0,0.0,0.0,0.0,0.0,0.0,0.0,0.0,0.0,0.0,0.0,0.0,0.0,-0.10880754142999649,0.00544335599988699,0.4287107586860657,0.0,0.0,0.0,0.0,0.0,0.0,0.0,0.0,0.0,-0.3571794927120209,0.06282051652669907,10.072820663452148,0.0,0.0,0.0,0.0,0.0,0.0,0.0,0.0,0.0
1646351293.6235404,7833,1646351293,623104783,,0.0,0.0,0.0,0.0,0.0,0.0,0.0,0.0,0.0,0.0,0.0,0.0,0.0,-0.09708963334560394,-0.05740724131464958,0.3999485969543457,0.0,0.0,0.0,0.0,0.0,0.0,0.0,0.0,0.0,-0.3392307758331299,0.3141025900840759,10.184102058410645,0.0,0.0,0.0,0.0,0.0,0.0,0.0,0.0,0.0
1646351293.625959,7834,1646351293,625311263,,0.0,0.0,0.0,0.0,0.0,0.0,0.0,0.0,0.0,0.0,0.0,0.0,0.0,-0.08643698692321777,-0.019057724624872208,0.3999485969543457,0.0,0.0,0.0,0.0,0.0,0.0,0.0,0.0,0.0,-0.08076923340559006,0.5061538815498352,9.756922721862793,0.0,0.0,0.0,0.0,0.0,0.0,0.0,0.0,0.0
1646351293.6279087,7835,1646351293,627559189,,0.0,0.0,0.0,0.0,0.0,0.0,0.0,0.0,0.0,0.0,0.0,0.0,0.0,-0.12904757261276245,-0.03184089809656143,0.41273176670074463,0.0,0.0,0.0,0.0,0.0,0.0,0.0,0.0,0.0,-0.4451282024383545,0.014358974993228912,10.645384788513184,0.0,0.0,0.0,0.0,0.0,0.0,0.0,0.0,0.0
1646351293.6301522,7836,1646351293,629789138,,0.0,0.0,0.0,0.0,0.0,0.0,0.0,0.0,0.0,0.0,0.0,0.0,0.0,-0.13437388837337494,-0.03184089809656143,0.4042096734046936,0.0,0.0,0.0,0.0,0.0,0.0,0.0,0.0,0.0,-0.5833333134651184,-0.023333333432674408,10.135641098022461,0.0,0.0,0.0,0.0,0.0,0.0,0.0,0.0,0.0
1646351293.6323252,7837,1646351293,631992068,,0.0,0.0,0.0,0.0,0.0,0.0,0.0,0.0,0.0,0.0,0.0,0.0,0.0,-0.12798230350017548,-0.05527671426534653,0.40314438939094543,0.0,0.0,0.0,0.0,0.0,0.0,0.0,0.0,0.0,-0.967435896396637,0.2153846174478531,10.701025009155273,0.0,0.0,0.0,0.0,0.0,0.0,0.0,0.0,0.0
1646351293.6347363,7838,1646351293,634228566,,0.0,0.0,0.0,0.0,0.0,0.0,0.0,0.0,0.0,0.0,0.0,0.0,0.0,-0.14715705811977386,-0.0659293606877327,0.4265802204608917,0.0,0.0,0.0,0.0,0.0,0.0,0.0,0.0,0.0,-0.05205128341913223,-0.2800000011920929,9.886154174804688,0.0,0.0,0.0,0.0,0.0,0.0,0.0,0.0,0.0
1646351293.6372247,7839,1646351293,636767277,,0.0,0.0,0.0,0.0,0.0,0.0,0.0,0.0,0.0,0.0,0.0,0.0,0.0,-0.15567918121814728,-0.03290615975856781,0.4084707200527191,0.0,0.0,0.0,0.0,0.0,0.0,0.0,0.0,0.0,0.19025641679763794,0.07897436618804932,10.257692337036133,0.0,0.0,0.0,0.0,0.0,0.0,0.0,0.0,0.0
1646351293.639504,7840,1646351293,639024025,,0.0,0.0,0.0,0.0,0.0,0.0,0.0,0.0,0.0,0.0,0.0,0.0,0.0,-0.16313602030277252,-0.08403884619474411,0.41699284315109253,0.0,0.0,0.0,0.0,0.0,0.0,0.0,0.0,0.0,0.31051284074783325,-0.05205128341913223,9.564871788024902,0.0,0.0,0.0,0.0,0.0,0.0,0.0,0.0,0.0
1646351293.641736,7841,1646351293,641224059,,0.0,0.0,0.0,0.0,0.0,0.0,0.0,0.0,0.0,0.0,0.0,0.0,0.0,-0.17272339761257172,-0.09149569272994995,0.4191233515739441,0.0,0.0,0.0,0.0,0.0,0.0,0.0,0.0,0.0,-0.45230770111083984,-0.07000000029802322,10.001025199890137,0.0,0.0,0.0,0.0,0.0,0.0,0.0,0.0,0.0
1646351293.6438227,7842,1646351293,643433306,,0.0,0.0,0.0,0.0,0.0,0.0,0.0,0.0,0.0,0.0,0.0,0.0,0.0,-0.1642012894153595,-0.0893651694059372,0.4191233515739441,0.0,0.0,0.0,0.0,0.0,0.0,0.0,0.0,0.0,-0.4594871997833252,-0.6120513081550598,9.94538402557373,0.0,0.0,0.0,0.0,0.0,0.0,0.0,0.0,0.0
