Time,header.seq,header.stamp.secs,header.stamp.nsecs,header.frame_id,name,position_0,position_1,position_2,position_3,position_4,position_5,position_6,position_7,position_8,position_9,position_10,position_11,velocity_0,velocity_1,velocity_2,velocity_3,velocity_4,velocity_5,velocity_6,velocity_7,velocity_8,velocity_9,velocity_10,velocity_11,effort_0,effort_1,effort_2,effort_3,effort_4,effort_5,effort_6,effort_7,effort_8,effort_9,effort_10,effort_11
170.73025,170591,170,712500000,,"['FL_calf_joint', 'FL_hip_joint', 'FL_thigh_joint', 'FR_calf_joint', 'FR_hip_joint', 'FR_thigh_joint', 'RL_calf_joint', 'RL_hip_joint', 'RL_thigh_joint', 'RR_calf_joint', 'RR_hip_joint', 'RR_thigh_joint']",-1.6197211869672032,-0.08562831929000758,0.6991624030930579,-1.557790546918715,-0.02385227638375298,0.7872424698234015,-1.521905698874165,-0.0010514242052135359,0.5038070304064197,-1.6062041308752741,0.116822286815629,0.6480893379224852,0.6355783950550722,0.027584910322133643,-0.23840088302529577,0.6542138081019593,0.009976886464936878,-0.2871403822897107,1.0784937349759953,0.0027751441249560475,-0.3840979061027728,1.0818402556991487,-0.05465604005775376,-0.429466236437898,3.373530387878418,-0.33022499084472656,0.8402521014213562,3.1327624320983887,1.1041308641433716,0.2082211822271347,7.3954176902771,-2.4639813899993896,3.3605360984802246,7.12129545211792,1.4067860841751099,2.083311080932617
170.73025,170592,170,713500000,,"['FL_calf_joint', 'FL_hip_joint', 'FL_thigh_joint', 'FR_calf_joint', 'FR_hip_joint', 'FR_thigh_joint', 'RL_calf_joint', 'RL_hip_joint', 'RL_thigh_joint', 'RR_calf_joint', 'RR_hip_joint', 'RR_thigh_joint']",-1.6196525017249148,-0.08562537300391426,0.699188208258338,-1.5577189494989612,-0.02385190112608271,0.7872610701320424,-1.5219716848895297,-0.0010518867123820996,0.5038920529635211,-1.6062714129522986,0.11682456105616534,0.6481791770402969,0.6275599654338386,0.027196532425755555,-0.2384377342884765,0.648748225574425,0.00991594361143276,-0.2879403411168522,1.0859893464682533,0.0028217681903470807,-0.39101228201617955,1.0876111488541755,-0.05487828723290606,-0.43597794319139993,3.373530387878418,-0.33022499084472656,0.8402521014213562,3.1327624320983887,1.1041308641433716,0.2082211822271347,7.3954176902771,-2.4639813899993896,3.3605360984802246,7.12129545211792,1.4067860841751099,2.083311080932617
170.73025,170593,170,714500000,,"['FL_calf_joint', 'FL_hip_joint', 'FL_thigh_joint', 'FR_calf_joint', 'FR_hip_joint', 'FR_thigh_joint', 'RL_calf_joint', 'RL_hip_joint', 'RL_thigh_joint', 'RR_calf_joint', 'RR_hip_joint', 'RR_thigh_joint']",-1.6195880573817463,-0.08562263976440931,0.6992121494662236,-1.5576520946500332,-0.023851566679433667,0.7872784660554872,-1.5220334523475918,-0.001052308684684533,0.5039714981258729,-1.6063341431095912,0.11682669272670498,0.6482630447467548,0.6214026692322455,0.026895366203991425,-0.2393629711486396,0.643675640183079,0.00985936079977513,-0.28894665498633026,1.0918068086702228,0.0028599882134553167,-0.3972232689289966,1.092699799766091,-0.05506276609224581,-0.4421729577175605,3.373530387878418,-0.33022499084472656,0.8402521014213562,3.1327624320983887,1.1041308641433716,0.2082211822271347,7.3954176902771,-2.4639813899993896,3.3605360984802246,7.12129545211792,1.4067860841751099,2.083311080932617
170.73075,170594,170,715500000,,"['FL_calf_joint', 'FL_hip_joint', 'FL_thigh_joint', 'FR_calf_joint', 'FR_hip_joint', 'FR_thigh_joint', 'RL_calf_joint', 'RL_hip_joint', 'RL_thigh_joint', 'RR_calf_joint', 'RR_hip_joint', 'RR_thigh_joint']",-1.6195275774174562,-0.08562009938519477,0.6992340938344306,-1.5575899703185754,-0.02385126286135897,0.7872946498434752,-1.5220911490457096,-0.0010526874173812928,0.5040454279779869,-1.6063923118219678,0.11682868779247713,0.6483409350148746,0.6156315340671156,0.02660173780877083,-0.24051219686513856,0.6385532709397554,0.00977783369639627,-0.28996763318561913,1.0973944610166795,0.0028857136309032266,-0.4033762323772786,1.0978638111947738,-0.055262143766846926,-0.4484419545445687,3.367926597595215,-0.32826584577560425,0.8400132060050964,3.1299233436584473,1.1030550003051758,0.20860710740089417,7.400457382202148,-2.4662132263183594,3.359013557434082,7.124802112579346,1.4073690176010132,2.0808796882629395
170.73075,170595,170,716500000,,"['FL_calf_joint', 'FL_hip_joint', 'FL_thigh_joint', 'FR_calf_joint', 'FR_hip_joint', 'FR_thigh_joint', 'RL_calf_joint', 'RL_hip_joint', 'RL_thigh_joint', 'RR_calf_joint', 'RR_hip_joint', 'RR_thigh_joint']",-1.619471563069823,-0.08561777959884864,0.6992542247722318,-1.5575327896303635,-0.023851000173587877,0.7873096775291231,-1.5221442558420764,-0.0010530247116982139,0.5041135708153455,-1.6064455941659892,0.11683052728677712,0.648412640157729,0.6101210909085157,0.026311470075846884,-0.24182467414020503,0.6334492336378414,0.009678340926788785,-0.29103745193410235,1.1027735178376035,0.002903769109145647,-0.4094806168292247,1.1029741300039797,-0.05546863690742586,-0.4547254851022036,3.367926597595215,-0.32826584577560425,0.8400132060050964,3.1299233436584473,1.1030550003051758,0.20860710740089417,7.400457382202148,-2.4662132263183594,3.359013557434082,7.124802112579346,1.4073690176010132,2.0808796882629395
170.73075,170596,170,717500000,,"['FL_calf_joint', 'FL_hip_joint', 'FL_thigh_joint', 'FR_calf_joint', 'FR_hip_joint', 'FR_thigh_joint', 'RL_calf_joint', 'RL_hip_joint', 'RL_thigh_joint', 'RR_calf_joint', 'RR_hip_joint', 'RR_thigh_joint']",-1.6194201297815884,-0.085615675841197,0.6992726002980376,-1.5574805016792763,-0.02385077931486279,0.7873235221390864,-1.522192769283424,-0.0010533161487789044,0.5041759281397011,-1.6064940576856541,0.1168322244217661,0.6484781924661132,0.6045584950817853,0.026036351922119574,-0.24312163948669163,0.628272883691545,0.00959121694389843,-0.29208041159327097,1.1081257589182545,0.0029369905231795166,-0.4155841659156043,1.1081741145669737,-0.055668905160615255,-0.46106197196060855,3.362475633621216,-0.3259577453136444,0.8410592079162598,3.127592086791992,1.1010531187057495,0.21054527163505554,7.405898571014404,-2.4688472747802734,3.3610737323760986,7.129844665527344,1.4088281393051147,2.0817530155181885
170.73075,170597,170,718500000,,"['FL_calf_joint', 'FL_hip_joint', 'FL_thigh_joint', 'FR_calf_joint', 'FR_hip_joint', 'FR_thigh_joint', 'RL_calf_joint', 'RL_hip_joint', 'RL_thigh_joint', 'RR_calf_joint', 'RR_hip_joint', 'RR_thigh_joint']",-1.6193736528304128,-0.08561381582153516,0.6992893795114874,-1.5574332633798265,-0.02385061013489409,0.7873362465858991,-1.522236390602182,-0.0010535692812787545,0.5042323532228732,-1.6065375059006124,0.11683376618960661,0.648537478469283,0.5990957406124932,0.025745956844689187,-0.24447963563338732,0.6231113421845642,0.009481907511603166,-0.29314374879909044,1.1133688269014141,0.0029531411200938427,-0.4216561732043209,1.1133005019628208,-0.05589489888171343,-0.46737763853350434,3.362475633621216,-0.3259577453136444,0.8410592079162598,3.127592086791992,1.1010531187057495,0.21054527163505554,7.405898571014404,-2.4688472747802734,3.3610737323760986,7.129844665527344,1.4088281393051147,2.0817530155181885
170.73075,170598,170,719500000,,"['FL_calf_joint', 'FL_hip_joint', 'FL_thigh_joint', 'FR_calf_joint', 'FR_hip_joint', 'FR_thigh_joint', 'RL_calf_joint', 'RL_hip_joint', 'RL_thigh_joint', 'RR_calf_joint', 'RR_hip_joint', 'RR_thigh_joint']",-1.6193319003984477,-0.08561219013268673,0.6993044667196822,-1.5573908948177375,-0.023850497248875335,0.787347770268922,-1.522275309475872,-0.0010537901032687813,0.5042829420431518,-1.6065761875112257,0.11683514972009235,0.6485906229674088,0.5939529416635505,0.025472579232459387,-0.2459749270967569,0.6181275878487567,0.009377387272943538,-0.29428737263220256,1.1183294316053676,0.0029725362380774115,-0.4275959657952706,1.1181676036502624,-0.05611279149283061,-0.47355454358706933,3.362475633621216,-0.3259577453136444,0.8410592079162598,3.127592086791992,1.1010531187057495,0.21054527163505554,7.405898571014404,-2.4688472747802734,3.3610737323760986,7.129844665527344,1.4088281393051147,2.0817530155181885
170.73075,170599,170,720500000,,"['FL_calf_joint', 'FL_hip_joint', 'FL_thigh_joint', 'FR_calf_joint', 'FR_hip_joint', 'FR_thigh_joint', 'RL_calf_joint', 'RL_hip_joint', 'RL_thigh_joint', 'RR_calf_joint', 'RR_hip_joint', 'RR_thigh_joint']",-1.6192948974591048,-0.08561079799852678,0.6993178903381319,-1.5573533667282438,-0.02385044116569013,0.7873580955326291,-1.5223095005835932,-0.0010539822858302017,0.5043276998051294,-1.6066101499055483,0.11683626472280384,0.6486376759086854,0.5889562828397983,0.025206672900630864,-0.2475190222442541,0.6132323313184644,0.00927889944396582,-0.29546164407785624,1.1231621127935416,0.0030012616327719944,-0.4334645100979585,1.1229308299405911,-0.05623296738625402,-0.4796670462370901,3.362475633621216,-0.3259577453136444,0.8410592079162598,3.127592086791992,1.1010531187057495,0.21054527163505554,7.405898571014404,-2.4688472747802734,3.3610737323760986,7.129844665527344,1.4088281393051147,2.0817530155181885
170.73075,170600,170,721500000,,"['FL_calf_joint', 'FL_hip_joint', 'FL_thigh_joint', 'FR_calf_joint', 'FR_hip_joint', 'FR_thigh_joint', 'RL_calf_joint', 'RL_hip_joint', 'RL_thigh_joint', 'RR_calf_joint', 'RR_hip_joint', 'RR_thigh_joint']",-1.6192627163333113,-0.08560963473847139,0.699329706555301,-1.5573207005030683,-0.02385042545012439,0.7873672486144736,-1.5223389067853814,-0.0010541213389760884,0.5043666218618448,-1.6066393511145174,0.11683714723207927,0.6486786355797705,0.5840287487693512,0.02493897260977595,-0.24907238873312187,0.6083911873081438,0.009173493971359439,-0.29664162041899367,1.1279297830661257,0.0030211059273255996,-0.4392836615230204,1.1276499000405444,-0.05624088760323381,-0.48574063144857943,3.362475633621216,-0.3259577453136444,0.8410592079162598,3.127592086791992,1.1010531187057495,0.21054527163505554,7.405898571014404,-2.4688472747802734,3.3610737323760986,7.129844665527344,1.4088281393051147,2.0817530155181885
170.731,170601,170,722500000,,"['FL_calf_joint', 'FL_hip_joint', 'FL_thigh_joint', 'FR_calf_joint', 'FR_hip_joint', 'FR_thigh_joint', 'RL_calf_joint', 'RL_hip_joint', 'RL_thigh_joint', 'RR_calf_joint', 'RR_hip_joint', 'RR_thigh_joint']",-1.6192357561905237,-0.08560872416806209,0.6993400879260037,-1.557293110019509,-0.023850464505249747,0.7873753263543444,-1.522363166745703,-0.001054217928748713,0.5043995404364852,-1.6066634639360933,0.11683780062005233,0.6487133302357782,0.5781977279443127,0.024619902827862822,-0.25028308445948916,0.6030326231193305,0.009045161050825399,-0.2976325867784631,1.1335492311090498,0.003026016681914432,-0.4455473772236991,1.1331444379233697,-0.05625711949902056,-0.49226378481046956,3.3494842052459717,-0.3211336135864258,0.8402320742607117,3.1210038661956787,1.0974817276000977,0.21098491549491882,7.415469646453857,-2.474177598953247,3.3582890033721924,7.137467384338379,1.4113636016845703,2.076331615447998
170.731,170602,170,723500000,,"['FL_calf_joint', 'FL_hip_joint', 'FL_thigh_joint', 'FR_calf_joint', 'FR_hip_joint', 'FR_thigh_joint', 'RL_calf_joint', 'RL_hip_joint', 'RL_thigh_joint', 'RR_calf_joint', 'RR_hip_joint', 'RR_thigh_joint']",-1.6192145980646298,-0.08560812234093085,0.6993491553194282,-1.5572709968205136,-0.02385060939828243,0.7873823901471706,-1.522381745874564,-0.0010542979766405836,0.5044260779914937,-1.606681986319054,0.11683824278849464,0.6487413689593842,0.5721980096771829,0.02429387338062067,-0.2515084286850082,0.5974929153779691,0.008929793918413897,-0.2986173469552818,1.1393196607354046,0.0030352775926746987,-0.45197036635794785,1.1387963401080392,-0.05630696842515732,-0.49895609018350034,3.3494842052459717,-0.3211336135864258,0.8402320742607117,3.1210038661956787,1.0974817276000977,0.21098491549491882,7.415469646453857,-2.474177598953247,3.3582890033721924,7.137467384338379,1.4113636016845703,2.076331615447998
170.731,170603,170,724500000,,"['FL_calf_joint', 'FL_hip_joint', 'FL_thigh_joint', 'FR_calf_joint', 'FR_hip_joint', 'FR_thigh_joint', 'RL_calf_joint', 'RL_hip_joint', 'RL_thigh_joint', 'RR_calf_joint', 'RR_hip_joint', 'RR_thigh_joint']",-1.6191984742063785,-0.08560778968445604,0.6993565391093162,-1.557253974193284,-0.023850843306817637,0.7873882339585307,-1.522395359377092,-0.0010543603692916292,0.504446529935243,-1.6066955554022764,0.1168384751370688,0.6487630429538624,0.5667202887325058,0.024000283252611315,-0.25296700858452553,0.5922188120750956,0.008837577869919965,-0.2997281822974696,1.1446002077453998,0.003049633220627037,-0.45817374335011724,1.1440145638061896,-0.056353095962792185,-0.5054322046653785,3.3494842052459717,-0.3211336135864258,0.8402320742607117,3.1210038661956787,1.0974817276000977,0.21098491549491882,7.415469646453857,-2.474177598953247,3.3582890033721924,7.137467384338379,1.4113636016845703,2.076331615447998
170.731,170604,170,725500000,,"['FL_calf_joint', 'FL_hip_joint', 'FL_thigh_joint', 'FR_calf_joint', 'FR_hip_joint', 'FR_thigh_joint', 'RL_calf_joint', 'RL_hip_joint', 'RL_thigh_joint', 'RR_calf_joint', 'RR_hip_joint', 'RR_thigh_joint']",-1.619187486459293,-0.08560773611737638,0.6993622953712002,-1.5572421102201521,-0.02385116734691195,0.7873929016941199,-1.522403925720698,-0.001054413000352028,0.5044608698835775,-1.6067041369607749,0.11683838144846526,0.6487783448580311,0.561052288483084,0.023690121300506677,-0.25433646574629737,0.5867959107430128,0.008739422735146241,-0.3007617399920543,1.1500179888253266,0.003055165126651442,-0.46443740594710636,1.1493601477313224,-0.05644326917651425,-0.5119693682869472,3.34645676612854,-0.31972551345825195,0.8414145112037659,3.1196508407592773,1.0961405038833618,0.21273498237133026,7.419092178344727,-2.4758121967315674,3.360395669937134,7.1414079666137695,1.4123780727386475,2.0777995586395264
170.731,170605,170,726500000,,"['FL_calf_joint', 'FL_hip_joint', 'FL_thigh_joint', 'FR_calf_joint', 'FR_hip_joint', 'FR_thigh_joint', 'RL_calf_joint', 'RL_hip_joint', 'RL_thigh_joint', 'RR_calf_joint', 'RR_hip_joint', 'RR_thigh_joint']",-1.6191815202284539,-0.08560793500801189,0.6993663739386697,-1.5572353300257338,-0.023851567415855257,0.787396359834438,-1.5224075245784432,-0.0010544388761379864,0.5044691388378899,-1.6067076801117723,0.11683820439833426,0.6487872576363731,0.5557045600738916,0.023401302233947912,-0.2558416150816563,0.5815742039076657,0.00865927809587783,-0.3018889923374505,1.1551541871306565,0.0030714823996078854,-0.47057004689776566,1.1545118651074984,-0.05645310184795022,-0.5184032351847594,3.34645676612854,-0.31972551345825195,0.8414145112037659,3.1196508407592773,1.0961405038833618,0.21273498237133026,7.419092178344727,-2.4758121967315674,3.360395669937134,7.1414079666137695,1.4123780727386475,2.0777995586395264
170.73125,170606,170,727500000,,"['FL_calf_joint', 'FL_hip_joint', 'FL_thigh_joint', 'FR_calf_joint', 'FR_hip_joint', 'FR_thigh_joint', 'RL_calf_joint', 'RL_hip_joint', 'RL_thigh_joint', 'RR_calf_joint', 'RR_hip_joint', 'RR_thigh_joint']",-1.6191802921483265,-0.08560832389089867,0.699368694992172,-1.5572335336791192,-0.023852006788294133,0.7873986045226689,-1.5224067115734812,-0.0010544200006714632,0.5044715362515984,-1.6067068660429014,0.11683819089413294,0.648790140930271,0.5504859079203837,0.023102509350935045,-0.25738245541054927,0.5764529155522223,0.00857388329367299,-0.30304938107819834,1.1601476152315744,0.0030753206099404067,-0.47662076678083265,1.1595104138119,-0.056673475262990894,-0.5247464323418234,3.34645676612854,-0.31972551345825195,0.8414145112037659,3.1196508407592773,1.0961405038833618,0.21273498237133026,7.419092178344727,-2.4758121967315674,3.360395669937134,7.1414079666137695,1.4123780727386475,2.0777995586395264
170.73175,170607,170,728500000,,"['FL_calf_joint', 'FL_hip_joint', 'FL_thigh_joint', 'FR_calf_joint', 'FR_hip_joint', 'FR_thigh_joint', 'RL_calf_joint', 'RL_hip_joint', 'RL_thigh_joint', 'RR_calf_joint', 'RR_hip_joint', 'RR_thigh_joint']",-1.6191839842973965,-0.08560890519258813,0.6993693519133108,-1.5572363118083303,-0.023852446303523678,0.7873994783704283,-1.522400960067456,-0.0010543233094946203,0.5044681223324528,-1.6067011231054487,0.11683788222838043,0.648786809643668,0.5447807246372969,0.02274410009192949,-0.2587289986069913,0.5710603113144941,0.008471739501244486,-0.30410398319147997,1.165559797678158,0.003070322085473135,-0.4828534144317311,1.1649391133331815,-0.056780932683309485,-0.5313267710030722,3.3423101902008057,-0.3180616497993469,0.8415343761444092,3.1175737380981445,1.0948551893234253,0.21331536769866943,7.422310829162598,-2.477670907974243,3.3599417209625244,7.1443915367126465,1.4133222103118896,2.076439380645752
170.73175,170608,170,729500000,,"['FL_calf_joint', 'FL_hip_joint', 'FL_thigh_joint', 'FR_calf_joint', 'FR_hip_joint', 'FR_thigh_joint', 'RL_calf_joint', 'RL_hip_joint', 'RL_thigh_joint', 'RR_calf_joint', 'RR_hip_joint', 'RR_thigh_joint']",-1.6191933805838885,-0.08560968241396338,0.6993687585584167,-1.5572447045200914,-0.023852865691546654,0.7873994230531309,-1.522389822836348,-0.0010541079217762928,0.5044584434355492,-1.6066900229007137,0.11683759199228216,0.6487769472945777,0.5393569438631751,0.02239647653594966,-0.26016246914214247,0.5658401010715954,0.008362669699202631,-0.3052217882353069,1.1707054910272305,0.0030562114801333737,-0.48900824134420345,1.1701083504357592,-0.05698900157320531,-0.5377692754970271,3.3423101902008057,-0.3180616497993469,0.8415343761444092,3.1175737380981445,1.0948551893234253,0.21331536769866943,7.422310829162598,-2.477670907974243,3.3599417209625244,7.1443915367126465,1.4133222103118896,2.076439380645752
170.73175,170609,170,730500000,,"['FL_calf_joint', 'FL_hip_joint', 'FL_thigh_joint', 'FR_calf_joint', 'FR_hip_joint', 'FR_thigh_joint', 'RL_calf_joint', 'RL_hip_joint', 'RL_thigh_joint', 'RR_calf_joint', 'RR_hip_joint', 'RR_thigh_joint']",-1.6192077887484735,-0.08561059367850277,0.699366499599015,-1.5572582805854638,-0.023853257460853428,0.7873982375993585,-1.5223736072069354,-0.001053772222640248,0.5044426501758661,-1.6066738447649627,0.11683733330019397,0.6487606900201852,0.5341323275344048,0.022029137427118078,-0.2617020898012829,0.5607725717390136,0.008239105139802345,-0.30640055282705736,1.175663711475743,0.0030268645809550417,-0.4950368358048948,1.175123981566289,-0.057304943721256156,-0.5441050869532966,3.343175172805786,-0.3182852864265442,0.8418803215026855,3.1180970668792725,1.0951611995697021,0.21349352598190308,7.422216415405273,-2.4775197505950928,3.360769748687744,7.144478797912598,1.41315495967865,2.0772902965545654
170.73175,170610,170,731500000,,"['FL_calf_joint', 'FL_hip_joint', 'FL_thigh_joint', 'FR_calf_joint', 'FR_hip_joint', 'FR_thigh_joint', 'RL_calf_joint', 'RL_hip_joint', 'RL_thigh_joint', 'RR_calf_joint', 'RR_hip_joint', 'RR_thigh_joint']",-1.6192273351226212,-0.08561175441602309,0.6993627042210813,-1.55727684487969,-0.023853685823436166,0.7873958330565571,-1.522352398623152,-0.001053374560215481,0.5044208233992968,-1.6066526602914806,0.11683710086250532,0.6487381034739998,0.5290015478062688,0.021691804652220738,-0.2632827503899002,0.5557436818503712,0.008133983021825256,-0.30757166921547174,1.1805734996658845,0.003007355919297361,-0.5010174072013986,1.1800859218810527,-0.05772374727112557,-0.5503881824352278,3.343175172805786,-0.3182852864265442,0.8418803215026855,3.1180970668792725,1.0951611995697021,0.21349352598190308,7.422216415405273,-2.4775197505950928,3.360769748687744,7.144478797912598,1.41315495967865,2.0772902965545654
170.74075,170611,170,732500000,,"['FL_calf_joint', 'FL_hip_joint', 'FL_thigh_joint', 'FR_calf_joint', 'FR_hip_joint', 'FR_thigh_joint', 'RL_calf_joint', 'RL_hip_joint', 'RL_thigh_joint', 'RR_calf_joint', 'RR_hip_joint', 'RR_thigh_joint']",-1.6192520435268523,-0.08561316321868695,0.6993573558797701,-1.5573004456557382,-0.023854150390254958,0.7873922643293447,-1.5223261884630368,-0.0010529183487753002,0.5043929863832997,-1.606626487377432,0.11683699929777358,0.6487092291717032,0.5239418905949058,0.021387187242633852,-0.2648756215574478,0.5507256666285455,0.008052631651337735,-0.3087378525992193,1.185465670187018,0.00300559983422066,-0.5069829382273258,1.1850313080157926,-0.05833186844470271,-0.5566571198586507,3.343175172805786,-0.3182852864265442,0.8418803215026855,3.1180970668792725,1.0951611995697021,0.21349352598190308,7.422216415405273,-2.4775197505950928,3.360769748687744,7.144478797912598,1.41315495967865,2.0772902965545654
170.74075,170612,170,733500000,,"['FL_calf_joint', 'FL_hip_joint', 'FL_thigh_joint', 'FR_calf_joint', 'FR_hip_joint', 'FR_thigh_joint', 'RL_calf_joint', 'RL_hip_joint', 'RL_thigh_joint', 'RR_calf_joint', 'RR_hip_joint', 'RR_thigh_joint']",-1.6192818652410117,-0.08561485589782336,0.6993504518375913,-1.5573290799356792,-0.023854674373577467,0.7873875418688598,-1.522294989835454,-0.0010524398106701582,0.5043591547829767,-1.6065953011679168,0.1168365793033681,0.6486740626950569,0.5189267282649801,0.021129808605228912,-0.2664754468131985,0.5457559455176398,0.007987915754913902,-0.30992847260889134,1.1903343487268607,0.0030237772906420235,-0.5129355212813936,1.1899182775219188,-0.05895463730063675,-0.5628968561152551,3.3432369232177734,-0.3182787299156189,0.8414648771286011,3.118161916732788,1.0954723358154297,0.21281491219997406,7.421628952026367,-2.477571487426758,3.359731912612915,7.143679618835449,1.412946105003357,2.0761520862579346
170.74075,170613,170,734500000,,"['FL_calf_joint', 'FL_hip_joint', 'FL_thigh_joint', 'FR_calf_joint', 'FR_hip_joint', 'FR_thigh_joint', 'RL_calf_joint', 'RL_hip_joint', 'RL_thigh_joint', 'RR_calf_joint', 'RR_hip_joint', 'RR_thigh_joint']",-1.619316799578788,-0.08561681447923775,0.699342008739559,-1.5573627717331413,-0.02385526167632257,0.7873816886990141,-1.5222588024063075,-0.0010519389044452154,0.5043193399752628,-1.606559113466865,0.11683570257948883,0.648632621065599,0.5139061308167858,0.020895809949848174,-0.26805183308800395,0.5407724840209682,0.007936336509674357,-0.31110012187377295,1.1951999162043234,0.0030596194623227374,-0.5188736451169168,1.1947801975882557,-0.05930036346260268,-0.5691122150575757,3.3432369232177734,-0.3182787299156189,0.8414648771286011,3.118161916732788,1.0954723358154297,0.21281491219997406,7.421628952026367,-2.477571487426758,3.359731912612915,7.143679618835449,1.412946105003357,2.0761520862579346
170.74075,170614,170,735500000,,"['FL_calf_joint', 'FL_hip_joint', 'FL_thigh_joint', 'FR_calf_joint', 'FR_hip_joint', 'FR_thigh_joint', 'RL_calf_joint', 'RL_hip_joint', 'RL_thigh_joint', 'RR_calf_joint', 'RR_hip_joint', 'RR_thigh_joint']",-1.6193568431890095,-0.0856190289535661,0.6993320435467831,-1.5574015292543568,-0.023855909333679648,0.7873747223784484,-1.5222176373021306,-0.0010514095979541338,0.5042735611526137,-1.6065179523804138,0.11683453668188104,0.6485849315561643,0.5088936895332762,0.020644614298277235,-0.2696129214674195,0.5357862837645835,0.007868108033326403,-0.3122543385766693,1.200059982946713,0.003081554925838024,-0.5247942656641553,1.1996151761729898,-0.059548362163017635,-0.5752986209200205,3.3432369232177734,-0.32061973214149475,0.8410751223564148,3.118161916732788,1.0954723358154297,0.21281491219997406,7.421628952026367,-2.477571487426758,3.359731912612915,7.143679618835449,1.412946105003357,2.0761520862579346
170.74075,170615,170,736500000,,"['FL_calf_joint', 'FL_hip_joint', 'FL_thigh_joint', 'FR_calf_joint', 'FR_hip_joint', 'FR_thigh_joint', 'RL_calf_joint', 'RL_hip_joint', 'RL_thigh_joint', 'RR_calf_joint', 'RR_hip_joint', 'RR_thigh_joint']",-1.6194015514849691,-0.08562148450760709,0.6993203917618667,-1.5574450604093522,-0.023856622439161868,0.7873665319378755,-1.5221716538238752,-0.0010508600751171215,0.5042219307937454,-1.606471989002534,0.11683314623535335,0.6485311202362558,0.5046332661692069,0.020457950842881458,-0.2714564849489114,0.5313077514071133,0.007831794164407227,-0.3136074270476789,1.2045138535314095,0.003125082832266213,-0.5304703563726144,1.204063107576101,-0.05971151823019108,-0.5812310602347183,3.3491570949554443,-0.32061973214149475,0.8410751223564148,3.1212363243103027,1.0977977514266968,0.2113865166902542,7.416864395141602,-2.475080966949463,3.359588146209717,7.139256477355957,1.4112703800201416,2.076988458633423
170.74075,170616,170,737500000,,"['FL_calf_joint', 'FL_hip_joint', 'FL_thigh_joint', 'FR_calf_joint', 'FR_hip_joint', 'FR_thigh_joint', 'RL_calf_joint', 'RL_hip_joint', 'RL_thigh_joint', 'RR_calf_joint', 'RR_hip_joint', 'RR_thigh_joint']",-1.6194511601721149,-0.08562416484910251,0.6993072400076441,-1.5574934501197348,-0.02385737622954487,0.7873572313755304,-1.5221210945730252,-0.0010502673193037992,0.504164621961932,-1.6064214525257317,0.11683159443992874,0.6484713637779125,0.5000133471954968,0.020260739116762464,-0.2730813683109426,0.5266409644919932,0.0078017593089972324,-0.3148161674899775,1.208883257355347,0.0031756811446674187,-0.5360664165709047,1.2084283860922445,-0.0598435886904976,-0.5870802973861187,3.3491570949554443,-0.32061973214149475,0.8410751223564148,3.1212363243103027,1.0977977514266968,0.2113865166902542,7.416864395141602,-2.475080966949463,3.359588146209717,7.139256477355957,1.4112703800201416,2.076988458633423
170.74075,170617,170,738500000,,"['FL_calf_joint', 'FL_hip_joint', 'FL_thigh_joint', 'FR_calf_joint', 'FR_hip_joint', 'FR_thigh_joint', 'RL_calf_joint', 'RL_hip_joint', 'RL_thigh_joint', 'RR_calf_joint', 'RR_hip_joint', 'RR_thigh_joint']",-1.6195055817500914,-0.08562705576759733,0.699292581597267,-1.5575466717582018,-0.023858159686882985,0.7873468391358145,-1.5220658044069895,-0.0010496212271613459,0.5041016047649123,-1.6063661158330476,0.11682988801273542,0.6484055924960641,0.49582177988334963,0.02010409938614715,-0.2748629704734154,0.5222235473888149,0.00779723270111339,-0.3161131548136237,1.2130660792785246,0.0032467178955293413,-0.5415373374332859,1.212763801645992,-0.059948327289631495,-0.5928681697716317,3.3545637130737305,-0.32273900508880615,0.8399437665939331,3.123962879180908,1.100089192390442,0.20908361673355103,7.411302089691162,-2.4728589057922363,3.3577828407287598,7.133677959442139,1.4095360040664673,2.076021671295166
170.74075,170618,170,739500000,,"['FL_calf_joint', 'FL_hip_joint', 'FL_thigh_joint', 'FR_calf_joint', 'FR_hip_joint', 'FR_thigh_joint', 'RL_calf_joint', 'RL_hip_joint', 'RL_thigh_joint', 'RR_calf_joint', 'RR_hip_joint', 'RR_thigh_joint']",-1.6195647827309751,-0.08563014868893504,0.699276465273388,-1.557604572662941,-0.023858964845278052,0.7873353353706527,-1.5220059640251486,-0.0010489167286156231,0.5040330185761963,-1.606306290656753,0.1168280525432186,0.6483340142166947,0.49141956352034133,0.01991979958565523,-0.2764917206995251,0.5177897945992007,0.00777458571912618,-0.31735092184334457,1.2172528606645838,0.00329890705828457,-0.5469590856407585,1.2168429428406804,-0.060054974178212026,-0.5984859464533581,3.3545637130737305,-0.32273900508880615,0.8399437665939331,3.123962879180908,1.100089192390442,0.20908361673355103,7.411302089691162,-2.4728589057922363,3.3577828407287598,7.133677959442139,1.4095360040664673,2.076021671295166
170.7475,170619,170,740500000,,"['FL_calf_joint', 'FL_hip_joint', 'FL_thigh_joint', 'FR_calf_joint', 'FR_hip_joint', 'FR_thigh_joint', 'RL_calf_joint', 'RL_hip_joint', 'RL_thigh_joint', 'RR_calf_joint', 'RR_hip_joint', 'RR_thigh_joint']",-1.6196290068978008,-0.08563346915076231,0.6992590324831474,-1.5576673431575068,-0.023859807780404196,0.7873228460713371,-1.521941306357105,-0.001048166061040412,0.5039587768514124,-1.6062417036867824,0.11682606147505314,0.648256528852202,0.4868103639675764,0.019724418360693125,-0.2780026457451138,0.5132073085724367,0.007748050778913433,-0.31849135794837075,1.221666690576685,0.00335057213974463,-0.5524574936513692,1.2212030131295797,-0.060177464749871366,-0.6042140120903551,3.3545637130737305,-0.32273900508880615,0.8399437665939331,3.123962879180908,1.100089192390442,0.20908361673355103,7.411302089691162,-2.4728589057922363,3.3577828407287598,7.133677959442139,1.4095360040664673,2.076021671295166
170.7475,170620,170,741500000,,"['FL_calf_joint', 'FL_hip_joint', 'FL_thigh_joint', 'FR_calf_joint', 'FR_hip_joint', 'FR_thigh_joint', 'RL_calf_joint', 'RL_hip_joint', 'RL_thigh_joint', 'RR_calf_joint', 'RR_hip_joint', 'RR_thigh_joint']",-1.6196982262379165,-0.08563701544168012,0.6992402848875559,-1.5577349904420434,-0.023860688214693226,0.7873093896149168,-1.5218718416150114,-0.001047368445466823,0.5038788990780922,-1.6061723058692179,0.11682391278616411,0.6481731294514796,0.4821206131051179,0.019525223914691605,-0.27945848962629516,0.5085644291947047,0.007720352052363668,-0.31958368281392574,1.2261642231040275,0.0034017043053336743,-0.5579747590993626,1.2256723936056382,-0.060305739103464845,-0.6099755165789027,3.3545637130737305,-0.32273900508880615,0.8399437665939331,3.123962879180908,1.100089192390442,0.20908361673355103,7.411302089691162,-2.4728589057922363,3.3577828407287598,7.133677959442139,1.4095360040664673,2.076021671295166
170.7475,170621,170,742500000,,"['FL_calf_joint', 'FL_hip_joint', 'FL_thigh_joint', 'FR_calf_joint', 'FR_hip_joint', 'FR_thigh_joint', 'RL_calf_joint', 'RL_hip_joint', 'RL_thigh_joint', 'RR_calf_joint', 'RR_hip_joint', 'RR_thigh_joint']",-1.619772365858077,-0.08564078305779077,0.6992202004528059,-1.5578074689362862,-0.023861604366203437,0.7872949549994956,-1.5217976446022208,-0.0010465235923442506,0.503793430645695,-1.6060981586713003,0.11682161057159224,0.6480838587079072,0.47740364812515795,0.01932508303747662,-0.2808858660276334,0.5039013018549429,0.007692570424815581,-0.32065034983402535,1.2306876801044822,0.0034527515217363837,-0.5634877608153365,1.230179686959628,-0.06043548306099707,-0.6157386185030191,3.3545637130737305,-0.32273900508880615,0.8399437665939331,3.123962879180908,1.100089192390442,0.20908361673355103,7.411302089691162,-2.4728589057922363,3.3577828407287598,7.133677959442139,1.4095360040664673,2.076021671295166
170.7475,170622,170,743500000,,"['FL_calf_joint', 'FL_hip_joint', 'FL_thigh_joint', 'FR_calf_joint', 'FR_hip_joint', 'FR_thigh_joint', 'RL_calf_joint', 'RL_hip_joint', 'RL_thigh_joint', 'RR_calf_joint', 'RR_hip_joint', 'RR_thigh_joint']",-1.619851361764853,-0.08564476814835231,0.6991987622172635,-1.557884730364718,-0.023862554485878817,0.7872795296503199,-1.5217187816515967,-0.0010456307318778002,0.503702413305458,-1.6060193291474656,0.11681915949181931,0.6479887618187581,0.47268211488141765,0.01912532843109917,-0.2822962141439941,0.49923596807266496,0.007665190821189169,-0.3217015905326678,1.2352137332188815,0.003503844200793477,-0.5689873144869937,1.2346955333143712,-0.060565287660157355,-0.6214904152310128,3.3545637130737305,-0.32273900508880615,0.8399437665939331,3.123962879180908,1.100089192390442,0.20908361673355103,7.411302089691162,-2.4728589057922363,3.3577828407287598,7.133677959442139,1.4095360040664673,2.076021671295166
170.7475,170623,170,744500000,,"['FL_calf_joint', 'FL_hip_joint', 'FL_thigh_joint', 'FR_calf_joint', 'FR_hip_joint', 'FR_thigh_joint', 'RL_calf_joint', 'RL_hip_joint', 'RL_thigh_joint', 'RR_calf_joint', 'RR_hip_joint', 'RR_thigh_joint']",-1.619935278862838,-0.08564897576543018,0.6991760066205623,-1.5579667907439991,-0.023863541073593453,0.7872631271203332,-1.5216351935183123,-0.0010446925746041558,0.5036058284104143,-1.6059357370142147,0.11681655254048362,0.6478878078248078,0.4677708658742533,0.01891259957065688,-0.2836141938475996,0.4944814470259601,0.007631968888113282,-0.3227041813676814,1.2399224114927043,0.003550243340697928,-0.5745615384361478,1.2394385736701208,-0.06071163802711661,-0.6273449781586838,3.353142261505127,-0.32217565178871155,0.8404527902603149,3.1235997676849365,1.099567174911499,0.20980124175548553,7.413148880004883,-2.473864793777466,3.358736515045166,7.135875701904297,1.4099831581115723,2.076664924621582
170.7475,170624,170,745500000,,"['FL_calf_joint', 'FL_hip_joint', 'FL_thigh_joint', 'FR_calf_joint', 'FR_hip_joint', 'FR_thigh_joint', 'RL_calf_joint', 'RL_hip_joint', 'RL_thigh_joint', 'RR_calf_joint', 'RR_hip_joint', 'RR_thigh_joint']",-1.6200240111145745,-0.08565340035438851,0.6991518897680775,-1.5580535952257226,-0.02386456248873081,0.7872457247891553,-1.5215469836168243,-0.0010437083565841832,0.5035037265646132,-1.605847506124956,0.11681379685908322,0.6477810612825321,0.4629709736998018,0.018706597304236277,-0.28497254830731067,0.48977853452962117,0.007601287932703417,-0.3237218679182589,1.2445226801180005,0.0035978565748953167,-0.5800778572776158,1.2440516923405234,-0.06084917812838223,-0.6331264054856471,3.353142261505127,-0.32217565178871155,0.8404527902603149,3.1235997676849365,1.099567174911499,0.20980124175548553,7.413148880004883,-2.473864793777466,3.358736515045166,7.135875701904297,1.4099831581115723,2.076664924621582
170.7475,170625,170,746500000,,"['FL_calf_joint', 'FL_hip_joint', 'FL_thigh_joint', 'FR_calf_joint', 'FR_hip_joint', 'FR_thigh_joint', 'RL_calf_joint', 'RL_hip_joint', 'RL_thigh_joint', 'RR_calf_joint', 'RR_hip_joint', 'RR_thigh_joint']",-1.620116053707258,-0.08565796704476725,0.6991259041981968,-1.5581442103561316,-0.023865598845571157,0.7872270290667824,-1.5214555187000736,-0.0010426768215543447,0.503396887352956,-1.6057559685484684,0.11681096166987981,0.6476693480816733,0.4607039563035452,0.018623510735452844,-0.2872138916039906,0.48661848749292413,0.007601019427389044,-0.3252463643829922,1.246820711852911,0.0036437361332207303,-0.58431018827427,1.246449298077823,-0.06087132194747866,-0.6375592568897581,3.3730340003967285,-0.32937896251678467,0.8408594131469727,3.133181095123291,1.1058863401412964,0.20724543929100037,7.397934436798096,-2.465942859649658,3.360912799835205,7.122268199920654,1.4050896167755127,2.08231258392334
170.7475,170626,170,747500000,,"['FL_calf_joint', 'FL_hip_joint', 'FL_thigh_joint', 'FR_calf_joint', 'FR_hip_joint', 'FR_thigh_joint', 'RL_calf_joint', 'RL_hip_joint', 'RL_thigh_joint', 'RR_calf_joint', 'RR_hip_joint', 'RR_thigh_joint']",-1.6202121751097187,-0.08566271823822902,0.6990985685478384,-1.558238924237504,-0.023866667861103252,0.7872073383065867,-1.5213601122779377,-0.001041612828953653,0.5032851736504682,-1.605660503362996,0.11680800335370645,0.6475525336902619,0.4572630288315544,0.018478785268542276,-0.2888681955986375,0.4828648998633831,0.007582354976267548,-0.3264304362312857,1.2501829504491724,0.0036835561570073734,-0.5889618263505567,1.249834060237044,-0.06095372063356061,-0.6424211765285981,3.3730340003967285,-0.32937896251678467,0.8408594131469727,3.133181095123291,1.1058863401412964,0.20724543929100037,7.397934436798096,-2.465942859649658,3.360912799835205,7.122268199920654,1.4050896167755127,2.08231258392334
170.7485,170627,170,748500000,,"['FL_calf_joint', 'FL_hip_joint', 'FL_thigh_joint', 'FR_calf_joint', 'FR_hip_joint', 'FR_thigh_joint', 'RL_calf_joint', 'RL_hip_joint', 'RL_thigh_joint', 'RR_calf_joint', 'RR_hip_joint', 'RR_thigh_joint']",-1.6203130205272234,-0.08566768953415682,0.6990702109120948,-1.5583381007044914,-0.02386777836935039,0.7871868652378513,-1.5212602269853068,-0.001040516003223857,0.5031683804629257,-1.6055605838566844,0.11680488794976096,0.6474303953280822,0.45333102914444834,0.018309001308790658,-0.2902698777219955,0.4788470562321654,0.00755720552544371,-0.32745682876154636,1.253972619748708,0.0037227704675948854,-0.5937748560550807,1.253624704428674,-0.06106072134854882,-0.647452208712984,3.3730340003967285,-0.32937896251678467,0.8408594131469727,3.133181095123291,1.1058863401412964,0.20724543929100037,7.397934436798096,-2.465942859649658,3.360912799835205,7.122268199920654,1.4050896167755127,2.08231258392334
170.75,170628,170,749500000,,"['FL_calf_joint', 'FL_hip_joint', 'FL_thigh_joint', 'FR_calf_joint', 'FR_hip_joint', 'FR_thigh_joint', 'RL_calf_joint', 'RL_hip_joint', 'RL_thigh_joint', 'RR_calf_joint', 'RR_hip_joint', 'RR_thigh_joint']",-1.6204175324787253,-0.08567282758962413,0.6990403944100452,-1.558441236371849,-0.023868916941726326,0.7871654081852455,-1.5211567502160621,-0.0010393831024817501,0.5030469467131802,-1.6054569118195872,0.1168016549700992,0.6473033261870542,0.4514057149989421,0.018237640832520757,-0.29250295164316564,0.4758001499171487,0.007554112950054012,-0.3288769279063789,1.2561351468392183,0.0037629250481124457,-0.5977818622396842,1.2561448589377249,-0.06109683887919497,-0.6517685286411998,3.394019365310669,-0.33784982562065125,0.8368620872497559,3.1396138668060303,1.112451195716858,0.19935135543346405,7.376169681549072,-2.456613302230835,3.3497815132141113,7.105264663696289,1.4000526666641235,2.0761702060699463
170.7585,170629,170,750500000,,"['FL_calf_joint', 'FL_hip_joint', 'FL_thigh_joint', 'FR_calf_joint', 'FR_hip_joint', 'FR_thigh_joint', 'RL_calf_joint', 'RL_hip_joint', 'RL_thigh_joint', 'RR_calf_joint', 'RR_hip_joint', 'RR_thigh_joint']",-1.6205255732924377,-0.085678127243634,0.6990091777835241,-1.5585481317345615,-0.02387008629755627,0.7871429799242886,-1.521049784020299,-0.001038222797220989,0.5029210384606273,-1.605349637380134,0.11679830660735124,0.6471715202271584,0.44873317981811545,0.018125689516063647,-0.29431425840683534,0.4724784413472104,0.007539266013619088,-0.3300895520792711,1.258929307543888,0.0037973959263866183,-0.6019894193290708,1.2591402065983226,-0.06116564659422261,-0.6562397686132388,3.394019365310669,-0.33784982562065125,0.8368620872497559,3.1396138668060303,1.112451195716858,0.19935135543346405,7.376169681549072,-2.456613302230835,3.3497815132141113,7.105264663696289,1.4000526666641235,2.0761702060699463
170.7585,170630,170,751500000,,"['FL_calf_joint', 'FL_hip_joint', 'FL_thigh_joint', 'FR_calf_joint', 'FR_hip_joint', 'FR_thigh_joint', 'RL_calf_joint', 'RL_hip_joint', 'RL_thigh_joint', 'RR_calf_joint', 'RR_hip_joint', 'RR_thigh_joint']",-1.6206378348345782,-0.08568362705559274,0.6989769383556572,-1.5586591563102208,-0.023871296352165672,0.7871198220494424,-1.5209388323381745,-0.0010370360515201682,0.5027904942663266,-1.605238290177211,0.11679481043788709,0.6470348072674197,0.44631784562561894,0.018023108656078493,-0.2961639692154044,0.46908867072156635,0.0075214819300443506,-0.33118380470095743,1.2614211084870073,0.003829839476014585,-0.6059879888365987,1.2621748203123149,-0.061241172625662935,-0.660643868165212,3.4087157249450684,-0.3431355655193329,0.8374086022377014,3.1420156955718994,1.1145093441009521,0.19793583452701569,7.362648010253906,-2.4502570629119873,3.3456060886383057,7.099869728088379,1.3981318473815918,2.076413631439209
170.7585,170631,170,752500000,,"['FL_calf_joint', 'FL_hip_joint', 'FL_thigh_joint', 'FR_calf_joint', 'FR_hip_joint', 'FR_thigh_joint', 'RL_calf_joint', 'RL_hip_joint', 'RL_thigh_joint', 'RR_calf_joint', 'RR_hip_joint', 'RR_thigh_joint']",-1.6207537798695184,-0.08568930184547341,0.6989435367180077,-1.5587740980807046,-0.023872545836658432,0.7870959349519744,-1.5208243963841994,-0.001035828401252381,0.5026556397175312,-1.6051231810867552,0.11679117981891185,0.646893448850105,0.44374375820695566,0.017910557151867745,-0.2978509702437188,0.4656612658577387,0.007498561197987712,-0.3321749620446232,1.2640298067650995,0.0038564407832208923,-0.6099500141926093,1.2652939177012432,-0.06132495951905765,-0.6650000945595265,3.4087157249450684,-0.3431355655193329,0.8374086022377014,3.1420156955718994,1.1145093441009521,0.19793583452701569,7.362648010253906,-2.4502570629119873,3.3456060886383057,7.099869728088379,1.3981318473815918,2.076413631439209
170.7585,170632,170,753500000,,"['FL_calf_joint', 'FL_hip_joint', 'FL_thigh_joint', 'FR_calf_joint', 'FR_hip_joint', 'FR_thigh_joint', 'RL_calf_joint', 'RL_hip_joint', 'RL_thigh_joint', 'RR_calf_joint', 'RR_hip_joint', 'RR_thigh_joint']",-1.6208741171037135,-0.0856951866769009,0.6989093365601002,-1.558893044318117,-0.023873837796704933,0.7870713876989672,-1.5207058527506625,-0.00103459877641221,0.5025162392427571,-1.6050041143910825,0.11678740147441413,0.6467473791217886,0.4404605167409271,0.01776393989998638,-0.2991826404387381,0.4620520064496726,0.007471159278633643,-0.3330546660357755,1.267247832650523,0.0038840236047380646,-0.6141509152744992,1.2687111310278216,-0.06142685941949157,-0.6694779740395704,3.4087157249450684,-0.3431355655193329,0.8374086022377014,3.1420156955718994,1.1145093441009521,0.19793583452701569,7.362648010253906,-2.4502570629119873,3.3456060886383057,7.099869728088379,1.3981318473815918,2.076413631439209
170.7585,170633,170,754500000,,"['FL_calf_joint', 'FL_hip_joint', 'FL_thigh_joint', 'FR_calf_joint', 'FR_hip_joint', 'FR_thigh_joint', 'RL_calf_joint', 'RL_hip_joint', 'RL_thigh_joint', 'RR_calf_joint', 'RR_hip_joint', 'RR_thigh_joint']",-1.6209982770572497,-0.08570131572911244,0.6988740874827046,-1.5590159272070179,-0.02387522772889028,0.7870461664595556,-1.5205832247955637,-0.0010334050727394128,0.5023723254396639,-1.6048811769904807,0.11678342050382806,0.6465966617483039,0.4390709819268854,0.017463285971114812,-0.30135030439559773,0.4584542881409794,0.007213174677056506,-0.3338692098243748,1.2707461713079242,0.0036736741163123808,-0.6183982984896569,1.2721558183720205,-0.0617715815145886,-0.6738950903311705,3.4669296741485596,-0.36280331015586853,0.843700110912323,3.1420156955718994,1.1196861267089844,0.1955077201128006,7.362648010253906,-2.4502570629119873,3.3456060886383057,7.099869728088379,1.3981318473815918,2.076413631439209
170.7585,170634,170,755500000,,"['FL_calf_joint', 'FL_hip_joint', 'FL_thigh_joint', 'FR_calf_joint', 'FR_hip_joint', 'FR_thigh_joint', 'RL_calf_joint', 'RL_hip_joint', 'RL_thigh_joint', 'RR_calf_joint', 'RR_hip_joint', 'RR_thigh_joint']",-1.6211226615347871,-0.08570763459998787,0.6988363732505265,-1.5591418129913497,-0.02387682241005251,0.7870200709125061,-1.5204600237760566,-0.0010323759687569378,0.5022256647859322,-1.6047558310676484,0.11677919218118138,0.6464422790855329,0.44073597361331196,0.01755230214010624,-0.3046087156332316,0.4561255641632048,0.007201402021536053,-0.3350033650575082,1.2683858249322673,0.0036846741442895033,-0.619837561417993,1.2735054471025644,-0.061763472991453114,-0.676975678732145,3.4669296741485596,-0.36280331015586853,0.843700110912323,3.1490495204925537,1.1196861267089844,0.1955077201128006,7.304980278015137,-2.4262783527374268,3.3184213638305664,7.080151557922363,1.3926217555999756,2.067599296569824
170.7585,170635,170,756500000,,"['FL_calf_joint', 'FL_hip_joint', 'FL_thigh_joint', 'FR_calf_joint', 'FR_hip_joint', 'FR_thigh_joint', 'RL_calf_joint', 'RL_hip_joint', 'RL_thigh_joint', 'RR_calf_joint', 'RR_hip_joint', 'RR_thigh_joint']",-1.6212504086863837,-0.08571410368046273,0.6987978672129378,-1.5592706783394559,-0.023878437403487496,0.786993245033349,-1.5203342694525332,-0.0010313356130593476,0.5020755990634136,-1.604627552405404,0.11677486036600992,0.6462841542133839,0.4403029727928636,0.017579397997825114,-0.3067848510443838,0.4538746829896921,0.007239984126521527,-0.3361111039876924,1.2686765521721224,0.00374179804708079,-0.6223065303892573,1.2758397830853434,-0.06178762989359664,-0.6804372556911116,3.4861719608306885,-0.3694192171096802,0.8466429114341736,3.161548614501953,1.1279247999191284,0.19450221955776215,7.289224147796631,-2.4193644523620605,3.311001777648926,7.080151557922363,1.3865387439727783,2.067599296569824
170.7585,170636,170,757500000,,"['FL_calf_joint', 'FL_hip_joint', 'FL_thigh_joint', 'FR_calf_joint', 'FR_hip_joint', 'FR_thigh_joint', 'RL_calf_joint', 'RL_hip_joint', 'RL_thigh_joint', 'RR_calf_joint', 'RR_hip_joint', 'RR_thigh_joint']",-1.6213813565507755,-0.08572068488026652,0.6987586741175607,-1.5594018103555247,-0.023880032607412005,0.7869654810312134,-1.520205375670181,-0.0010302451488719555,0.501922062921361,-1.6044971417745328,0.11677049936805961,0.6461228365513891,0.4398195484917736,0.017569105760564627,-0.308738021539354,0.4523103566613643,0.00724553921691023,-0.33739416421872503,1.2693741397914788,0.0037648455625499144,-0.6247500232307243,1.2764121435143876,-0.06173791227420106,-0.6828890597598334,3.4861719608306885,-0.3694192171096802,0.8466429114341736,3.161548614501953,1.1279247999191284,0.19450221955776215,7.289224147796631,-2.4193644523620605,3.311001777648926,7.060273170471191,1.3865387439727783,2.0616557598114014
170.7585,170637,170,758500000,,"['FL_calf_joint', 'FL_hip_joint', 'FL_thigh_joint', 'FR_calf_joint', 'FR_hip_joint', 'FR_thigh_joint', 'RL_calf_joint', 'RL_hip_joint', 'RL_thigh_joint', 'RR_calf_joint', 'RR_hip_joint', 'RR_thigh_joint']",-1.6215163099962377,-0.0857274597488562,0.6987192505957927,-1.5595359199042904,-0.02388166315584428,0.7869372295131747,-1.5200726848243313,-0.001029144706183871,0.5017648520573044,-1.6043639027291583,0.11676602496446176,0.6459580783003931,0.4379627934658604,0.017487238610043178,-0.31001239504930644,0.4500492805049281,0.007233844956600392,-0.33828526453015073,1.271282458746712,0.0037822791343940184,-0.6276782870140064,1.2782468577046953,-0.06177693208296637,-0.6859012485798912,3.4861719608306885,-0.3694192171096802,0.8466429114341736,3.161548614501953,1.1279247999191284,0.19450221955776215,7.289224147796631,-2.4193644523620605,3.311001777648926,7.060273170471191,1.3865387439727783,2.0616557598114014
170.76825,170638,170,759500000,,"['FL_calf_joint', 'FL_hip_joint', 'FL_thigh_joint', 'FR_calf_joint', 'FR_hip_joint', 'FR_thigh_joint', 'RL_calf_joint', 'RL_hip_joint', 'RL_thigh_joint', 'RR_calf_joint', 'RR_hip_joint', 'RR_thigh_joint']",-1.6216534481166458,-0.08573433003501663,0.6986789363009942,-1.5596718675687407,-0.023883295949492123,0.7869080852757993,-1.5199378624694297,-0.0010280238911635209,0.5016048690511692,-1.6042292061524615,0.11676151868458096,0.6457907219391616,0.43859474000734283,0.017546888812926553,-0.31214015843940246,0.44983829293371014,0.007279436286801167,-0.3399482152781631,1.2710315379911807,0.0038155038080024046,-0.6293739288759882,1.2774279043316425,-0.061660965046596905,-0.6873564013355964,3.512667655944824,-0.3781883716583252,0.8501668572425842,3.179112434387207,1.1390619277954102,0.19248947501182556,7.265780448913574,-2.4100043773651123,3.301084280014038,7.031456470489502,1.3783416748046875,2.0538506507873535
170.76825,170639,170,760500000,,"['FL_calf_joint', 'FL_hip_joint', 'FL_thigh_joint', 'FR_calf_joint', 'FR_hip_joint', 'FR_thigh_joint', 'RL_calf_joint', 'RL_hip_joint', 'RL_thigh_joint', 'RR_calf_joint', 'RR_hip_joint', 'RR_thigh_joint']",-1.6217934144484558,-0.0857413309801025,0.6986381876595571,-1.5598102029828138,-0.02388495187791939,0.7868784849322132,-1.5198004084848566,-0.001026895225966662,0.5014420513748767,-1.6040920865632344,0.11675691983584979,0.6456204721140777,0.4374664132412279,0.01751113695465964,-0.3134018057867721,0.4484354251018683,0.007289796423955186,-0.3409518870264542,1.2722869208632859,0.003836128500706166,-0.6316752502296239,1.278423525613172,-0.06165688760564081,-0.6896227334055788,3.512667655944824,-0.3781883716583252,0.8501668572425842,3.179112434387207,1.1390619277954102,0.19248947501182556,7.265780448913574,-2.4100043773651123,3.301084280014038,7.031456470489502,1.3783416748046875,2.0538506507873535
170.76825,170640,170,761500000,,"['FL_calf_joint', 'FL_hip_joint', 'FL_thigh_joint', 'FR_calf_joint', 'FR_hip_joint', 'FR_thigh_joint', 'RL_calf_joint', 'RL_hip_joint', 'RL_thigh_joint', 'RR_calf_joint', 'RR_hip_joint', 'RR_thigh_joint']",-1.6219367178638335,-0.08574849294340225,0.6985972565637022,-1.5599514578890674,-0.023886642936858493,0.7868487212888997,-1.5196599461193072,-0.0010257605355858956,0.5012762500783623,-1.6039518897879903,0.11675218708463309,0.645447036796102,0.435594919805372,0.017436476748061536,-0.3142962644052476,0.4464922071650624,0.007286449472709625,-0.3416557242772653,1.2741554145067293,0.0038527297566081494,-0.6342213814963533,1.2801757376562506,-0.06169839740531249,-0.6922254187818793,3.512667655944824,-0.3781883716583252,0.8501668572425842,3.179112434387207,1.1390619277954102,0.19248947501182556,7.265780448913574,-2.4100043773651123,3.301084280014038,7.031456470489502,1.3783416748046875,2.0538506507873535
170.76825,170641,170,762500000,,"['FL_calf_joint', 'FL_hip_joint', 'FL_thigh_joint', 'FR_calf_joint', 'FR_hip_joint', 'FR_thigh_joint', 'RL_calf_joint', 'RL_hip_joint', 'RL_thigh_joint', 'RR_calf_joint', 'RR_hip_joint', 'RR_thigh_joint']",-1.6220831437830436,-0.08575580415341122,0.698556038741887,-1.560095580970064,-0.02388836601387112,0.7868187658533987,-1.5195166861331115,-0.001024618230979435,0.5011075521892128,-1.603808780242188,0.11674733067580423,0.6452704908688984,0.4334102917699041,0.01734625021697892,-0.3150347314586085,0.44430487437046184,0.007277299357314081,-0.3422231524975928,1.2762732576827616,0.003867256476953926,-0.6368655338558395,1.2822435949950926,-0.06175781249561105,-0.6949667902362426,3.512667655944824,-0.3781883716583252,0.8501668572425842,3.179112434387207,1.1390619277954102,0.19248947501182556,7.265780448913574,-2.4100043773651123,3.301084280014038,7.031456470489502,1.3783416748046875,2.0538506507873535
170.76825,170642,170,763500000,,"['FL_calf_joint', 'FL_hip_joint', 'FL_thigh_joint', 'FR_calf_joint', 'FR_hip_joint', 'FR_thigh_joint', 'RL_calf_joint', 'RL_hip_joint', 'RL_thigh_joint', 'RR_calf_joint', 'RR_hip_joint', 'RR_thigh_joint']",-1.6222320038673472,-0.08576322723804886,0.6985142358463916,-1.5602421082124533,-0.023890105588924015,0.7867884009466284,-1.5193712097527028,-0.0010234616982858213,0.5009362313206687,-1.6036634350875651,0.1167423911933545,0.6450911776680561,0.4327231848623039,0.01733593754644674,-0.3163528546047917,0.44321537663320176,0.007306189663523838,-0.3432448480408294,1.2771311384587078,0.003899885129473693,-0.6388500630222751,1.2827709751741907,-0.06172783874031041,-0.696862446342225,3.5568320751190186,-0.39284470677375793,0.8573493957519531,3.2084574699401855,1.1575573682785034,0.19055208563804626,7.22830057144165,-2.3945300579071045,3.2844555377960205,6.985323429107666,1.364750862121582,2.042248010635376
170.76825,170643,170,764500000,,"['FL_calf_joint', 'FL_hip_joint', 'FL_thigh_joint', 'FR_calf_joint', 'FR_hip_joint', 'FR_thigh_joint', 'RL_calf_joint', 'RL_hip_joint', 'RL_thigh_joint', 'RR_calf_joint', 'RR_hip_joint', 'RR_thigh_joint']",-1.622380410262188,-0.0857706034472141,0.6984708864737863,-1.5603887401480692,-0.02389181000058116,0.7867568031563597,-1.519225920810043,-0.0010222837484441527,0.5007637042636528,-1.603518764414587,0.11673753618377258,0.6449108570755753,0.43456325035858734,0.01746220297074523,-0.3184602932851384,0.4441752309691771,0.007363919895773505,-0.34495760606330167,1.2758738423772709,0.003919964660909822,-0.6395376817277348,1.2807430079173754,-0.06155349541209172,-0.6971620104491487,3.5568320751190186,-0.39284470677375793,0.8573493957519531,3.2084574699401855,1.1575573682785034,0.19055208563804626,7.22830057144165,-2.3945300579071045,3.2844555377960205,6.985323429107666,1.364750862121582,2.042248010635376
170.76825,170644,170,765500000,,"['FL_calf_joint', 'FL_hip_joint', 'FL_thigh_joint', 'FR_calf_joint', 'FR_hip_joint', 'FR_thigh_joint', 'RL_calf_joint', 'RL_hip_joint', 'RL_thigh_joint', 'RR_calf_joint', 'RR_hip_joint', 'RR_thigh_joint']",-1.6225306882107673,-0.0857780634227705,0.6984272465662604,-1.560537041720965,-0.02389352881111151,0.7867249464703612,-1.51907892328592,-0.0010211038716461118,0.5005893193463979,-1.6033723483703657,0.11673261264207202,0.6447285583640978,0.4343726094500263,0.017474645467870198,-0.31957065743766133,0.4437030847612719,0.007388373145354106,-0.3458808349928462,1.2762901592835767,0.003936698517823712,-0.6409006430935765,1.280813850923425,-0.06151083742760275,-0.6984026510102325,3.5568320751190186,-0.39284470677375793,0.8573493957519531,3.2084574699401855,1.1575573682785034,0.19055208563804626,7.22830057144165,-2.3945300579071045,3.2844555377960205,6.985323429107666,1.364750862121582,2.042248010635376
170.76825,170645,170,766500000,,"['FL_calf_joint', 'FL_hip_joint', 'FL_thigh_joint', 'FR_calf_joint', 'FR_hip_joint', 'FR_thigh_joint', 'RL_calf_joint', 'RL_hip_joint', 'RL_thigh_joint', 'RR_calf_joint', 'RR_hip_joint', 'RR_thigh_joint']",-1.622683572225474,-0.08578564906635044,0.6983836747335692,-1.5606876338568871,-0.023895277000145043,0.7866931698983493,-1.5189296787161846,-0.001019924186453025,0.5004128585276995,-1.6032234552132651,0.11672757370968068,0.6445439519928042,0.4333231747123772,0.017441001760351352,-0.320260374548737,0.442581802035156,0.0073960816230743,-0.34644776030477076,1.2773883631380822,0.003949101998989941,-0.6425391845518503,1.2817617186753791,-0.06152134943931622,-0.700037101009434,3.5568320751190186,-0.39284470677375793,0.8573493957519531,3.2084574699401855,1.1575573682785034,0.19055208563804626,7.22830057144165,-2.3945300579071045,3.2844555377960205,6.985323429107666,1.364750862121582,2.042248010635376
170.76825,170646,170,767500000,,"['FL_calf_joint', 'FL_hip_joint', 'FL_thigh_joint', 'FR_calf_joint', 'FR_hip_joint', 'FR_thigh_joint', 'RL_calf_joint', 'RL_hip_joint', 'RL_thigh_joint', 'RR_calf_joint', 'RR_hip_joint', 'RR_thigh_joint']",-1.6228384137740792,-0.08579337018091948,0.6983398978403494,-1.5608401175558115,-0.023897084283978742,0.7866612988186397,-1.518778724669584,-0.0010187786332460647,0.5002345826980186,-1.6030727554249022,0.11672241855715182,0.6443573860365825,0.4331929907763761,0.01740136532286102,-0.32127414599901716,0.4420911005130055,0.0073646948854083835,-0.347236492135895,1.2777628458677186,0.003914220314678358,-0.6437623454178474,1.2817991909751636,-0.061532247575414575,-0.7011338722777517,3.5759997367858887,-0.39933860301971436,0.8609500527381897,3.221090793609619,1.1656047105789185,0.19035372138023376,7.213127613067627,-2.3877148628234863,3.2779181003570557,6.96615743637085,1.358820915222168,2.0371756553649902
170.77925,170647,170,768500000,,"['FL_calf_joint', 'FL_hip_joint', 'FL_thigh_joint', 'FR_calf_joint', 'FR_hip_joint', 'FR_thigh_joint', 'RL_calf_joint', 'RL_hip_joint', 'RL_thigh_joint', 'RR_calf_joint', 'RR_hip_joint', 'RR_thigh_joint']",-1.6229941919519724,-0.08580113942688605,0.6982956079094622,-1.5609936673759575,-0.02389890567694586,0.7866290645218399,-1.5186268903063045,-0.0010176409173654477,0.5000550158901422,-1.6029212408177163,0.11671722963852904,0.6441694963513909,0.43314594389674377,0.017419213201980033,-0.3221995745772328,0.441739401397903,0.0073866676970943766,-0.3479797756363371,1.278043181290218,0.003925452469831211,-0.6448202141421047,1.2817846187691662,-0.0614911300883777,-0.702081644196569,3.5759997367858887,-0.39933860301971436,0.8609500527381897,3.221090793609619,1.1656047105789185,0.19035372138023376,7.213127613067627,-2.3877148628234863,3.2779181003570557,6.96615743637085,1.358820915222168,2.0371756553649902
170.77925,170648,170,769500000,,"['FL_calf_joint', 'FL_hip_joint', 'FL_thigh_joint', 'FR_calf_joint', 'FR_hip_joint', 'FR_thigh_joint', 'RL_calf_joint', 'RL_hip_joint', 'RL_thigh_joint', 'RR_calf_joint', 'RR_hip_joint', 'RR_thigh_joint']",-1.6231517735352727,-0.0858089929034076,0.6982512445664861,-1.561148865278151,-0.02390074440825707,0.7865968009797246,-1.518473523723614,-0.0010165037314004977,0.499873910156472,-1.6027680606973442,0.1167119663528533,0.6439799154842687,0.4323376246899497,0.017396636157659164,-0.3227537548211855,0.4408410752854519,0.0073946322424949164,-0.3484241647682166,1.2789109179492795,0.003933388869171274,-0.6461168125152227,1.2825250945153654,-0.06149635594558129,-0.7033698455574571,3.5759997367858887,-0.39933860301971436,0.8609500527381897,3.221090793609619,1.1656047105789185,0.19035372138023376,7.213127613067627,-2.3877148628234863,3.2779181003570557,6.96615743637085,1.358820915222168,2.0371756553649902
170.77925,170649,170,770500000,,"['FL_calf_joint', 'FL_hip_joint', 'FL_thigh_joint', 'FR_calf_joint', 'FR_hip_joint', 'FR_thigh_joint', 'RL_calf_joint', 'RL_hip_joint', 'RL_thigh_joint', 'RR_calf_joint', 'RR_hip_joint', 'RR_thigh_joint']",-1.6233105762883553,-0.0858168440746887,0.6982065657570056,-1.5613052778645629,-0.023902533769144085,0.7865643076108331,-1.5183191431458702,-0.0010153148321982997,0.4996915184034023,-1.6026130826375615,0.11670666863623591,0.643788616349144,0.4329375061492117,0.017593864342703203,-0.3238766886515023,0.44104181371438944,0.007573215233450268,-0.34936623953502904,1.2785499975190524,0.004075285509875631,-0.6467960871257195,1.2838448109070897,-0.0614012259661316,-0.7048268627317685,3.602407693862915,-0.4080003499984741,0.8650487065315247,3.2387592792510986,1.1762229204177856,0.1895865499973297,7.19097375869751,-2.3785338401794434,3.269923448562622,6.96615743637085,1.350991129875183,2.0292856693267822
170.77925,170650,170,771500000,,"['FL_calf_joint', 'FL_hip_joint', 'FL_thigh_joint', 'FR_calf_joint', 'FR_hip_joint', 'FR_thigh_joint', 'RL_calf_joint', 'RL_hip_joint', 'RL_thigh_joint', 'RR_calf_joint', 'RR_hip_joint', 'RR_thigh_joint']",-1.6234694495193263,-0.0858245830509361,0.6981612618244393,-1.5614619061379185,-0.023904206643823755,0.7865312789557084,-1.518164718280782,-0.001014026500390841,0.49950848215160626,-1.602458409678226,0.11670150522414158,0.6435968037142112,0.4337844902891984,0.017665198270622004,-0.32488147983387605,0.44147933476806867,0.007617886058150884,-0.3501971731003834,1.2779492227596476,0.0040957261072545915,-0.6471449426298153,1.281768190533263,-0.06124124123244768,-0.7044804439107568,3.602407693862915,-0.4080003499984741,0.8650487065315247,3.2387592792510986,1.1762229204177856,0.1895865499973297,7.19097375869751,-2.3785338401794434,3.269923448562622,6.938104629516602,1.350991129875183,2.0292856693267822
170.77925,170651,170,772500000,,"['FL_calf_joint', 'FL_hip_joint', 'FL_thigh_joint', 'FR_calf_joint', 'FR_hip_joint', 'FR_thigh_joint', 'RL_calf_joint', 'RL_hip_joint', 'RL_thigh_joint', 'RR_calf_joint', 'RR_hip_joint', 'RR_thigh_joint']",-1.6236285903897403,-0.08583231570255201,0.6981155972362965,-1.5616188770987596,-0.02390585946487178,0.7864979528958926,-1.5180096774402223,-0.001012726268861286,0.49932472848301934,-1.6023038232938793,0.11669636274398432,0.6434045509229298,0.4359666560395933,0.01780845226862818,-0.3263181458176035,0.44293514869945166,0.007688417903094936,-0.3513734343538035,1.2768139745947902,0.00412392792308344,-0.6470677729786538,1.279686577084569,-0.06108611811368478,-0.7039244157927146,3.6279497146606445,-0.4167461693286896,0.8692678213119507,3.255476951599121,1.1870681047439575,0.18870685994625092,7.170336723327637,-2.3693130016326904,3.2604339122772217,6.911962985992432,1.3430546522140503,2.021718740463257
170.77925,170652,170,773500000,,"['FL_calf_joint', 'FL_hip_joint', 'FL_thigh_joint', 'FR_calf_joint', 'FR_hip_joint', 'FR_thigh_joint', 'RL_calf_joint', 'RL_hip_joint', 'RL_thigh_joint', 'RR_calf_joint', 'RR_hip_joint', 'RR_thigh_joint']",-1.6237880559505284,-0.08584005388498639,0.6980698181638418,-1.5617761428627106,-0.023907507026155628,0.7864645148427751,-1.5178546822047245,-0.0010114318449794268,0.4991407474845495,-1.6021494304956354,0.11669123419639771,0.6432121254081204,0.4370699520897513,0.017884209137346566,-0.327120711087682,0.44368063499419197,0.007727117738280579,-0.3520564769523773,1.2758003886412792,0.004128280112058365,-0.6469266199146608,1.278043755094055,-0.060975703320957295,-0.7034538714441964,3.6279497146606445,-0.4167461693286896,0.8692678213119507,3.255476951599121,1.1870681047439575,0.18870685994625092,7.170336723327637,-2.3693130016326904,3.2604339122772217,6.911962985992432,1.3430546522140503,2.021718740463257
