Time,header.seq,header.stamp.secs,header.stamp.nsecs,header.frame_id,orientation.x,orientation.y,orientation.z,orientation.w,orientation_covariance_0,orientation_covariance_1,orientation_covariance_2,orientation_covariance_3,orientation_covariance_4,orientation_covariance_5,orientation_covariance_6,orientation_covariance_7,orientation_covariance_8,angular_velocity.x,angular_velocity.y,angular_velocity.z,angular_velocity_covariance_0,angular_velocity_covariance_1,angular_velocity_covariance_2,angular_velocity_covariance_3,angular_velocity_covariance_4,angular_velocity_covariance_5,angular_velocity_covariance_6,angular_velocity_covariance_7,angular_velocity_covariance_8,linear_acceleration.x,linear_acceleration.y,linear_acceleration.z,linear_acceleration_covariance_0,linear_acceleration_covariance_1,linear_acceleration_covariance_2,linear_acceleration_covariance_3,linear_acceleration_covariance_4,linear_acceleration_covariance_5,linear_acceleration_covariance_6,linear_acceleration_covariance_7,linear_acceleration_covariance_8
170.7295,169527,170,690500000,imu_link,-0.00461940295565895,0.0010314397581086651,-0.0009151834473595028,0.9999883797762934,0.0,0.0,0.0,0.0,0.0,0.0,0.0,0.0,0.0,0.0009439106071346107,-0.1185337027668107,-0.0013146699577479017,0.0,0.0,0.0,0.0,0.0,0.0,0.0,0.0,0.0,-0.02730525651164563,-0.09201550474100895,9.812725576527253,0.0,0.0,0.0,0.0,0.0,0.0,0.0,0.0,0.0
170.7295,169528,170,691500000,imu_link,-0.004619083386332091,0.0009759253121304929,-0.0009153390234860238,0.9999884368296102,0.0,0.0,0.0,0.0,0.0,0.0,0.0,0.0,0.0,0.0009601245730313256,-0.11644424127105701,-0.0012812370002805856,0.0,0.0,0.0,0.0,0.0,0.0,0.0,0.0,0.0,-0.02589239996059533,-0.09194585439564716,9.812254267816149,0.0,0.0,0.0,0.0,0.0,0.0,0.0,0.0,0.0
170.7295,169529,170,692500000,imu_link,-0.004618761728182117,0.000921342835377764,-0.0009154846925159993,0.9999884899613875,0.0,0.0,0.0,0.0,0.0,0.0,0.0,0.0,0.0,0.0009694837042178292,-0.1150404071028542,-0.001260368582702145,0.0,0.0,0.0,0.0,0.0,0.0,0.0,0.0,0.0,-0.02439006251385931,-0.09187361827084307,9.812000081760948,0.0,0.0,0.0,0.0,0.0,0.0,0.0,0.0,0.0
170.7295,169530,170,693500000,imu_link,-0.004618442550805347,0.0008677039793166257,-0.0009156196178877993,0.9999885392937885,0.0,0.0,0.0,0.0,0.0,0.0,0.0,0.0,0.0,0.0009696210853016547,-0.11270318963086978,-0.001224122565414914,0.0,0.0,0.0,0.0,0.0,0.0,0.0,0.0,0.0,-0.022879666883646725,-0.09182488391423255,9.811971361450773,0.0,0.0,0.0,0.0,0.0,0.0,0.0,0.0,0.0
170.72975,169531,170,694500000,imu_link,-0.004618125879750262,0.0008150017193222449,-0.0009157438868745736,0.9999885849841939,0.0,0.0,0.0,0.0,0.0,0.0,0.0,0.0,0.0,0.0009625089705360963,-0.11084351703257929,-0.001194792574992701,0.0,0.0,0.0,0.0,0.0,0.0,0.0,0.0,0.0,-0.021397237836647584,-0.09174861423437536,9.811685317369086,0.0,0.0,0.0,0.0,0.0,0.0,0.0,0.0,0.0
170.72975,169532,170,695500000,imu_link,-0.004617810962259015,0.0007632274277873246,-0.0009158577617181924,0.9999886271905151,0.0,0.0,0.0,0.0,0.0,0.0,0.0,0.0,0.0,0.0009522968734311057,-0.10899571525040952,-0.0011654954564084689,0.0,0.0,0.0,0.0,0.0,0.0,0.0,0.0,0.0,-0.020001181283747164,-0.09167971823283613,9.811361794380533,0.0,0.0,0.0,0.0,0.0,0.0,0.0,0.0,0.0
170.72975,169533,170,696500000,imu_link,-0.004617497202702329,0.0007123728682432735,-0.0009159614647401025,0.9999886660653083,0.0,0.0,0.0,0.0,0.0,0.0,0.0,0.0,0.0,0.000940293075762536,-0.10716064913470918,-0.00113634534552667,0.0,0.0,0.0,0.0,0.0,0.0,0.0,0.0,0.0,-0.018629656845502985,-0.09161198154616682,9.811025279984674,0.0,0.0,0.0,0.0,0.0,0.0,0.0,0.0,0.0
170.72975,169534,170,697500000,imu_link,-0.00461718442860407,0.0006624304601020524,-0.0009160551585781073,0.999988701754567,0.0,0.0,0.0,0.0,0.0,0.0,0.0,0.0,0.0,0.0009271192241695399,-0.10533856807314912,-0.0011073988269708745,0.0,0.0,0.0,0.0,0.0,0.0,0.0,0.0,0.0,-0.01728095690369353,-0.09154526530204984,9.810686809444482,0.0,0.0,0.0,0.0,0.0,0.0,0.0,0.0,0.0
170.72975,169535,170,698500000,imu_link,-0.004616872642007427,0.0006133931308747578,-0.0009161389747143456,0.9999887343991699,0.0,0.0,0.0,0.0,0.0,0.0,0.0,0.0,0.0,0.0009130721182635142,-0.10352947993974501,-0.0010786770822875337,0.0,0.0,0.0,0.0,0.0,0.0,0.0,0.0,0.0,-0.015954703604236262,-0.0914796344395417,9.810350301847862,0.0,0.0,0.0,0.0,0.0,0.0,0.0,0.0,0.0
170.72975,169536,170,699500000,imu_link,-0.0046165601156397595,0.0005652790696934393,-0.0009162133023672412,0.9999887641296059,0.0,0.0,0.0,0.0,0.0,0.0,0.0,0.0,0.0,0.0009118336165939559,-0.10160073672196011,-0.0010508009919731214,0.0,0.0,0.0,0.0,0.0,0.0,0.0,0.0,0.0,-0.01407566385079442,-0.09133017043574831,9.809314024013164,0.0,0.0,0.0,0.0,0.0,0.0,0.0,0.0,0.0
170.72975,169537,170,700500000,imu_link,-0.004616244241202424,0.000518188874760562,-0.000916278206739777,0.9999887910390015,0.0,0.0,0.0,0.0,0.0,0.0,0.0,0.0,0.0,0.0009110142462539081,-0.100055570999631,-0.001029212110923858,0.0,0.0,0.0,0.0,0.0,0.0,0.0,0.0,0.0,-0.01214167150458411,-0.09119664760713325,9.808698729047995,0.0,0.0,0.0,0.0,0.0,0.0,0.0,0.0,0.0
170.73,169538,170,701500000,imu_link,-0.004615931071639414,0.00047213233123423085,-0.0009163328230313756,0.9999888152402313,0.0,0.0,0.0,0.0,0.0,0.0,0.0,0.0,0.0,0.0008976606666528114,-0.09748583923090572,-0.0009921568418648494,0.0,0.0,0.0,0.0,0.0,0.0,0.0,0.0,0.0,-0.010807176143023773,-0.09114717935897125,9.808569226597513,0.0,0.0,0.0,0.0,0.0,0.0,0.0,0.0,0.0
170.73,169539,170,702500000,imu_link,-0.0046155603103678975,0.0004272571351337429,-0.0009163835257526371,0.9999888370854925,0.0,0.0,0.0,0.0,0.0,0.0,0.0,0.0,0.0,0.001065758218813544,-0.09489751443095792,-0.0009726375795712925,0.0,0.0,0.0,0.0,0.0,0.0,0.0,0.0,0.0,-0.007580422228101964,-0.08933958622101355,9.797110438730673,0.0,0.0,0.0,0.0,0.0,0.0,0.0,0.0,0.0
170.73,169540,170,703500000,imu_link,-0.004615185533744906,0.0003837363906731832,-0.0009164230977704499,0.9999888564266992,0.0,0.0,0.0,0.0,0.0,0.0,0.0,0.0,0.0,0.001072879653390906,-0.09288481846477245,-0.0009477977487061696,0.0,0.0,0.0,0.0,0.0,0.0,0.0,0.0,0.0,-0.008383247195934038,-0.09106505422376025,9.808437820915804,0.0,0.0,0.0,0.0,0.0,0.0,0.0,0.0,0.0
170.73025,169541,170,704500000,imu_link,-0.004614815446178018,0.00034157204055478945,-0.0009164507251396864,0.9999888734006029,0.0,0.0,0.0,0.0,0.0,0.0,0.0,0.0,0.0,0.0010688103254901432,-0.09020125575210906,-0.000913591309336828,0.0,0.0,0.0,0.0,0.0,0.0,0.0,0.0,0.0,-0.007031926605517873,-0.09106613122388672,9.808375189969235,0.0,0.0,0.0,0.0,0.0,0.0,0.0,0.0,0.0
170.73025,169542,170,705500000,imu_link,-0.004614449653601004,0.0003007547600123604,-0.000916466753680983,0.999988888183093,0.0,0.0,0.0,0.0,0.0,0.0,0.0,0.0,0.0,0.0010534317597301166,-0.08686018292513124,-0.0008703805898467622,0.0,0.0,0.0,0.0,0.0,0.0,0.0,0.0,0.0,-0.0056636971046414315,-0.09102107124807854,9.808052155992858,0.0,0.0,0.0,0.0,0.0,0.0,0.0,0.0,0.0
170.73025,169543,170,706500000,imu_link,-0.004614106691901579,0.000261285355191584,-0.0009164711166642847,0.9999889008534503,0.0,0.0,0.0,0.0,0.0,0.0,0.0,0.0,0.0,0.0010411007176889064,-0.08486558419488667,-0.0008444745084487818,0.0,0.0,0.0,0.0,0.0,0.0,0.0,0.0,0.0,-0.004413742266074558,-0.0909564080099579,9.807722655003326,0.0,0.0,0.0,0.0,0.0,0.0,0.0,0.0,0.0
170.73025,169544,170,707500000,imu_link,-0.004613818585762632,0.000223425026049926,-0.0009164638310079588,0.999988911365202,0.0,0.0,0.0,0.0,0.0,0.0,0.0,0.0,0.0,0.0008545291204517556,-0.08068982346369048,-0.0007987754816198681,0.0,0.0,0.0,0.0,0.0,0.0,0.0,0.0,0.0,-0.002666463263045391,-0.09009188577475548,9.79848907036744,0.0,0.0,0.0,0.0,0.0,0.0,0.0,0.0,0.0
170.73025,169545,170,708500000,imu_link,-0.004613529295291246,0.00018730502562119646,-0.0009164438674420622,0.9999889201360718,0.0,0.0,0.0,0.0,0.0,0.0,0.0,0.0,0.0,0.0008501951828459882,-0.07810759530087143,-0.0007701266386667109,0.0,0.0,0.0,0.0,0.0,0.0,0.0,0.0,0.0,-0.001550622500788946,-0.09050328188289129,9.805431732487396,0.0,0.0,0.0,0.0,0.0,0.0,0.0,0.0,0.0
170.73025,169546,170,709500000,imu_link,-0.004613246038521834,0.00015292352704064494,-0.0009164101906907937,0.9999889273225707,0.0,0.0,0.0,0.0,0.0,0.0,0.0,0.0,0.0,0.0008322102278420217,-0.07380617038761356,-0.000720111023394635,0.0,0.0,0.0,0.0,0.0,0.0,0.0,0.0,0.0,-0.00014373113057134825,-0.09050080892915074,9.805672519747729,0.0,0.0,0.0,0.0,0.0,0.0,0.0,0.0,0.0
170.73025,169547,170,710500000,imu_link,-0.004612968239478375,0.00012026914471173763,-0.0009163632489934626,0.9999889331076371,0.0,0.0,0.0,0.0,0.0,0.0,0.0,0.0,0.0,0.0008135809118208,-0.07037779368932422,-0.0006795764619698685,0.0,0.0,0.0,0.0,0.0,0.0,0.0,0.0,0.0,0.0011894282378612118,-0.09045472887513122,9.805518817568862,0.0,0.0,0.0,0.0,0.0,0.0,0.0,0.0,0.0
170.73025,169548,170,711500000,imu_link,-0.0046126943000758995,8.932957993892223e-05,-0.0009163036007749216,0.9999889376684282,0.0,0.0,0.0,0.0,0.0,0.0,0.0,0.0,0.0,0.0007977979523751276,-0.06781668404544934,-0.0006491999725767137,0.0,0.0,0.0,0.0,0.0,0.0,0.0,0.0,0.0,0.002295244575776737,-0.09039298633893104,9.805283094677325,0.0,0.0,0.0,0.0,0.0,0.0,0.0,0.0,0.0
170.73025,169549,170,712500000,imu_link,-0.004612418895842726,6.0132627181953724e-05,-0.0009162322708357729,0.9999889411860626,0.0,0.0,0.0,0.0,0.0,0.0,0.0,0.0,0.0,0.0007826104328940466,-0.0643151820228118,-0.0006102596817281554,0.0,0.0,0.0,0.0,0.0,0.0,0.0,0.0,0.0,0.0035024972544393075,-0.0902572349894288,9.804771136256434,0.0,0.0,0.0,0.0,0.0,0.0,0.0,0.0,0.0
170.73025,169550,170,713500000,imu_link,-0.004612138509841596,3.283188815713214e-05,-0.0009161492352754653,0.9999889438243864,0.0,0.0,0.0,0.0,0.0,0.0,0.0,0.0,0.0,0.0007614084669401311,-0.05956575577837565,-0.0005603902777078804,0.0,0.0,0.0,0.0,0.0,0.0,0.0,0.0,0.0,0.005373338821432007,-0.08991700632739512,9.803789430806793,0.0,0.0,0.0,0.0,0.0,0.0,0.0,0.0,0.0
170.73075,169551,170,714500000,imu_link,-0.004611869839659732,7.441017139162346e-06,-0.0009160521458896735,0.9999889456637406,0.0,0.0,0.0,0.0,0.0,0.0,0.0,0.0,0.0,0.0007414802165904953,-0.055766214547010605,-0.0005183468559473072,0.0,0.0,0.0,0.0,0.0,0.0,0.0,0.0,0.0,0.0066535521217644744,-0.08995397441604261,9.803256538267714,0.0,0.0,0.0,0.0,0.0,0.0,0.0,0.0,0.0
170.73075,169552,170,715500000,imu_link,-0.004611615214500237,-1.6039096955608954e-05,-0.0009159413567236002,0.9999889468385599,0.0,0.0,0.0,0.0,0.0,0.0,0.0,0.0,0.0,0.0007322898902231911,-0.05289942680433985,-0.0004868593863270677,0.0,0.0,0.0,0.0,0.0,0.0,0.0,0.0,0.0,0.007028829185415992,-0.08999107763515234,9.803008528131445,0.0,0.0,0.0,0.0,0.0,0.0,0.0,0.0,0.0
170.73075,169553,170,716500000,imu_link,-0.004611371857165849,-3.758148514427049e-05,-0.0009158175714648058,0.9999889474966224,0.0,0.0,0.0,0.0,0.0,0.0,0.0,0.0,0.0,0.0007304738278557085,-0.04902258199116699,-0.00044520450784922615,0.0,0.0,0.0,0.0,0.0,0.0,0.0,0.0,0.0,0.0067784258553500645,-0.0900238247968752,9.803145215605454,0.0,0.0,0.0,0.0,0.0,0.0,0.0,0.0,0.0
170.73075,169554,170,717500000,imu_link,-0.004611143333757246,-5.718588065444344e-05,-0.0009156818376605344,0.9999889477457752,0.0,0.0,0.0,0.0,0.0,0.0,0.0,0.0,0.0,0.0007112050055777036,-0.044167051324402976,-0.0003952812336765125,0.0,0.0,0.0,0.0,0.0,0.0,0.0,0.0,0.0,0.008210604357939997,-0.09012793910292807,9.80269096254766,0.0,0.0,0.0,0.0,0.0,0.0,0.0,0.0,0.0
170.73075,169555,170,718500000,imu_link,-0.004610924697567085,-7.483977605910659e-05,-0.0009155344565448635,0.9999889477234738,0.0,0.0,0.0,0.0,0.0,0.0,0.0,0.0,0.0,0.0007103282658169067,-0.04026202452524975,-0.0003544704053745573,0.0,0.0,0.0,0.0,0.0,0.0,0.0,0.0,0.0,0.009786184397534477,-0.08988700342667802,9.802199452184338,0.0,0.0,0.0,0.0,0.0,0.0,0.0,0.0,0.0
170.73075,169556,170,719500000,imu_link,-0.0046107136359587585,-9.054908516712615e-05,-0.000915375510734644,0.999988947543074,0.0,0.0,0.0,0.0,0.0,0.0,0.0,0.0,0.0,0.0007060893044438976,-0.037341958878462936,-0.00032370448528378984,0.0,0.0,0.0,0.0,0.0,0.0,0.0,0.0,0.0,0.010570681708310095,-0.08988976755572903,9.802037714513277,0.0,0.0,0.0,0.0,0.0,0.0,0.0,0.0,0.0
170.73075,169557,170,720500000,imu_link,-0.004610511324823336,-0.00010432068252760597,-0.000915205669994071,0.9999889472894691,0.0,0.0,0.0,0.0,0.0,0.0,0.0,0.0,0.0,0.000692145220073142,-0.032498062897131794,-0.0002710832191680472,0.0,0.0,0.0,0.0,0.0,0.0,0.0,0.0,0.0,0.011405771932701304,-0.09001865398182038,9.801719602145695,0.0,0.0,0.0,0.0,0.0,0.0,0.0,0.0,0.0
170.731,169558,170,721500000,imu_link,-0.004610325549016776,-0.00011616439064851807,-0.0009150236317646141,0.9999889470068755,0.0,0.0,0.0,0.0,0.0,0.0,0.0,0.0,0.0,0.0006879593008127991,-0.029607133776205267,-0.0002400500872430333,0.0,0.0,0.0,0.0,0.0,0.0,0.0,0.0,0.0,0.012222603215237998,-0.08995530653817606,9.80101241184059,0.0,0.0,0.0,0.0,0.0,0.0,0.0,0.0,0.0
170.731,169559,170,722500000,imu_link,-0.004610151870387193,-0.00012607088956016402,-0.0009148302236414519,0.9999889467846755,0.0,0.0,0.0,0.0,0.0,0.0,0.0,0.0,0.0,0.0006927956848745915,-0.02571702458659288,-0.0002005444615071812,0.0,0.0,0.0,0.0,0.0,0.0,0.0,0.0,0.0,0.011964703832601498,-0.08984601613724477,9.800540222062452,0.0,0.0,0.0,0.0,0.0,0.0,0.0,0.0,0.0
170.731,169560,170,723500000,imu_link,-0.004609975883820226,-0.00013396618911829534,-0.0009146264502054299,0.9999889467558467,0.0,0.0,0.0,0.0,0.0,0.0,0.0,0.0,0.0,0.0007031753334693598,-0.021686960801493765,-0.00016206493135853398,0.0,0.0,0.0,0.0,0.0,0.0,0.0,0.0,0.0,0.009958005623063666,-0.08975183055415598,9.800558848295152,0.0,0.0,0.0,0.0,0.0,0.0,0.0,0.0,0.0
170.731,169561,170,724500000,imu_link,-0.0046098000590385595,-0.00013984902994374483,-0.0009144116292195568,0.9999889469574336,0.0,0.0,0.0,0.0,0.0,0.0,0.0,0.0,0.0,0.0007039977138574589,-0.016669716367194307,-0.00011265329106770329,0.0,0.0,0.0,0.0,0.0,0.0,0.0,0.0,0.0,0.01081023273794941,-0.08965114937285462,9.800486032467655,0.0,0.0,0.0,0.0,0.0,0.0,0.0,0.0,0.0
170.731,169562,170,725500000,imu_link,-0.004609620867467559,-0.0001437206697369956,-0.0009141857438204725,0.9999889474410472,0.0,0.0,0.0,0.0,0.0,0.0,0.0,0.0,0.0,0.0007127634078006907,-0.013653144211147293,-8.305369530069841e-05,0.0,0.0,0.0,0.0,0.0,0.0,0.0,0.0,0.0,0.012769796949741752,-0.08962072636803535,9.799589806101926,0.0,0.0,0.0,0.0,0.0,0.0,0.0,0.0,0.0
170.73125,169563,170,726500000,imu_link,-0.0046094446017045316,-0.00014558339074029165,-0.0009139497617168094,0.9999889481998155,0.0,0.0,0.0,0.0,0.0,0.0,0.0,0.0,0.0,0.0007075424708468344,-0.00864076301964468,-3.386990856189393e-05,0.0,0.0,0.0,0.0,0.0,0.0,0.0,0.0,0.0,0.013404525229677276,-0.0894965513449208,9.799985863551923,0.0,0.0,0.0,0.0,0.0,0.0,0.0,0.0,0.0
170.73125,169564,170,727500000,imu_link,-0.004609288256421858,-0.0001454590661843096,-0.0009137040418994467,0.9999889491631161,0.0,0.0,0.0,0.0,0.0,0.0,0.0,0.0,0.0,0.0007086938697197568,-0.005646238659405315,-3.7683309376197696e-06,0.0,0.0,0.0,0.0,0.0,0.0,0.0,0.0,0.0,0.01401795713656814,-0.08946923942584414,9.800154329743702,0.0,0.0,0.0,0.0,0.0,0.0,0.0,0.0,0.0
170.73125,169565,170,728500000,imu_link,-0.00460916580541626,-0.0001433766023289585,-0.0009134481931718127,0.9999889502620148,0.0,0.0,0.0,0.0,0.0,0.0,0.0,0.0,0.0,0.0007333694872355058,-0.0006286989608758771,4.1771472458098554e-05,0.0,0.0,0.0,0.0,0.0,0.0,0.0,0.0,0.0,0.01383731592463848,-0.08942980717836015,9.799324815144953,0.0,0.0,0.0,0.0,0.0,0.0,0.0,0.0,0.0
170.73125,169566,170,729500000,imu_link,-0.004609090782345854,-0.00013928493276505518,-0.0009131842263218537,0.9999889514271828,0.0,0.0,0.0,0.0,0.0,0.0,0.0,0.0,0.0,0.0007520442469478206,0.0023773116669963523,6.867888324102982e-05,0.0,0.0,0.0,0.0,0.0,0.0,0.0,0.0,0.0,0.014178068694510056,-0.08951027425143027,9.799413891598974,0.0,0.0,0.0,0.0,0.0,0.0,0.0,0.0,0.0
170.73125,169567,170,730500000,imu_link,-0.004609065149255649,-0.00013318820643175956,-0.000912910563627575,0.999988952625805,0.0,0.0,0.0,0.0,0.0,0.0,0.0,0.0,0.0,0.00078782252124697,0.006363338813748778,0.00010211821487058462,0.0,0.0,0.0,0.0,0.0,0.0,0.0,0.0,0.0,0.01498046269095824,-0.08954050364010673,9.79907887048626,0.0,0.0,0.0,0.0,0.0,0.0,0.0,0.0,0.0
170.73175,169568,170,731500000,imu_link,-0.004609059552749007,-0.00012510901642369198,-0.0009126262543864004,0.9999889539545389,0.0,0.0,0.0,0.0,0.0,0.0,0.0,0.0,0.0,0.0008178676498504806,0.010326193497441195,0.00013164047112597266,0.0,0.0,0.0,0.0,0.0,0.0,0.0,0.0,0.0,0.015673782434536213,-0.08954193230035355,9.798822216586645,0.0,0.0,0.0,0.0,0.0,0.0,0.0,0.0,0.0
170.73275,169569,170,732500000,imu_link,-0.004609074402852969,-0.00011505024478643818,-0.000912335371578511,0.9999889553593879,0.0,0.0,0.0,0.0,0.0,0.0,0.0,0.0,0.0,0.0008222241026035889,0.014284893051185217,0.0001640167017349883,0.0,0.0,0.0,0.0,0.0,0.0,0.0,0.0,0.0,0.01596879321570677,-0.0894299779763438,9.796973934965974,0.0,0.0,0.0,0.0,0.0,0.0,0.0,0.0,0.0
170.7335,169570,170,733500000,imu_link,-0.0046090954370011225,-0.0001030177624315404,-0.0009120369650063791,0.9999889568466084,0.0,0.0,0.0,0.0,0.0,0.0,0.0,0.0,0.0,0.0008056483435952305,0.019220502429783744,0.0002066797355436259,0.0,0.0,0.0,0.0,0.0,0.0,0.0,0.0,0.0,0.015593879157351727,-0.08905634127960495,9.7966565276192,0.0,0.0,0.0,0.0,0.0,0.0,0.0,0.0,0.0
170.73475,169571,170,734500000,imu_link,-0.004609122797176443,-8.901695553741218e-05,-0.000911730883723467,0.99998895834395,0.0,0.0,0.0,0.0,0.0,0.0,0.0,0.0,0.0,0.0007748877357266136,0.023155369168970052,0.00024199254277665696,0.0,0.0,0.0,0.0,0.0,0.0,0.0,0.0,0.0,0.01573069901608243,-0.08904073288370991,9.79705972821434,0.0,0.0,0.0,0.0,0.0,0.0,0.0,0.0,0.0
170.73725,169572,170,735500000,imu_link,-0.004609158927309077,-7.305472777991472e-05,-0.0009114165962151106,0.9999889597574455,0.0,0.0,0.0,0.0,0.0,0.0,0.0,0.0,0.0,0.000759463250693827,0.027074829607751236,0.00027890957279594407,0.0,0.0,0.0,0.0,0.0,0.0,0.0,0.0,0.0,0.015912532650201552,-0.08883008598155563,9.797074748290832,0.0,0.0,0.0,0.0,0.0,0.0,0.0,0.0,0.0
170.73725,169573,170,736500000,imu_link,-0.004609199320257663,-5.5154350165009125e-05,-0.0009110934583915795,0.9999889610132374,0.0,0.0,0.0,0.0,0.0,0.0,0.0,0.0,0.0,0.0007231490350139313,0.03091912682170135,0.0003141931773206254,0.0,0.0,0.0,0.0,0.0,0.0,0.0,0.0,0.0,0.01571129362864145,-0.08901423915671496,9.799709009526197,0.0,0.0,0.0,0.0,0.0,0.0,0.0,0.0,0.0
170.7385,169574,170,737500000,imu_link,-0.004609256583297836,-3.534910195967664e-05,-0.00091076265134902,0.9999889619468724,0.0,0.0,0.0,0.0,0.0,0.0,0.0,0.0,0.0,0.0006781543605596926,0.034722825737314125,0.00034791108071440387,0.0,0.0,0.0,0.0,0.0,0.0,0.0,0.0,0.0,0.01657694967538275,-0.08901667158344616,9.797216495075642,0.0,0.0,0.0,0.0,0.0,0.0,0.0,0.0,0.0
170.7395,169575,170,738500000,imu_link,-0.00460933507946144,-1.3655902620695987e-05,-0.0009104248988538862,0.9999889624241587,0.0,0.0,0.0,0.0,0.0,0.0,0.0,0.0,0.0,0.0006131728970732729,0.038477839810280114,0.000379395438718704,0.0,0.0,0.0,0.0,0.0,0.0,0.0,0.0,0.0,0.015722064613761747,-0.08911965974557388,9.798597087490869,0.0,0.0,0.0,0.0,0.0,0.0,0.0,0.0,0.0
170.7395,169576,170,739500000,imu_link,-0.004609438142098733,9.893530229736675e-06,-0.0009100806935101893,0.9999889623067166,0.0,0.0,0.0,0.0,0.0,0.0,0.0,0.0,0.0,0.0005773457660845388,0.04125850631453968,0.0004028848499412593,0.0,0.0,0.0,0.0,0.0,0.0,0.0,0.0,0.0,0.015670839654497226,-0.0888788705111419,9.796940831558432,0.0,0.0,0.0,0.0,0.0,0.0,0.0,0.0,0.0
170.74075,169577,170,740500000,imu_link,-0.004609559059694886,3.528784162321404e-05,-0.0009097301702633109,0.999988961494606,0.0,0.0,0.0,0.0,0.0,0.0,0.0,0.0,0.0,0.0005202830133657771,0.04587163370877981,0.00044112351278420054,0.0,0.0,0.0,0.0,0.0,0.0,0.0,0.0,0.0,0.015618127985554122,-0.08884588162909024,9.796575771159743,0.0,0.0,0.0,0.0,0.0,0.0,0.0,0.0,0.0
170.74175,169578,170,741500000,imu_link,-0.00460969800011031,6.252030822060485e-05,-0.0009093734227962391,0.9999889598468258,0.0,0.0,0.0,0.0,0.0,0.0,0.0,0.0,0.0,0.0004865872780955694,0.048628185218813756,0.0004637016903188966,0.0,0.0,0.0,0.0,0.0,0.0,0.0,0.0,0.0,0.015547570875356805,-0.08881828487193953,9.796296398044158,0.0,0.0,0.0,0.0,0.0,0.0,0.0,0.0,0.0
170.74475,169579,170,742500000,imu_link,-0.004609855470209607,9.158475343460779e-05,-0.0009090105243308575,0.9999889572113502,0.0,0.0,0.0,0.0,0.0,0.0,0.0,0.0,0.0,0.0004416515214215447,0.05229131534599083,0.0004934353497541488,0.0,0.0,0.0,0.0,0.0,0.0,0.0,0.0,0.0,0.01538748012204493,-0.08879697641194044,9.796089431920663,0.0,0.0,0.0,0.0,0.0,0.0,0.0,0.0,0.0
170.74475,169580,170,743500000,imu_link,-0.004610032011759893,0.00012247504908710443,-0.0009086415528535135,0.9999889534266073,0.0,0.0,0.0,0.0,0.0,0.0,0.0,0.0,0.0,0.0003850841211164218,0.056851300442904276,0.0005300777772988483,0.0,0.0,0.0,0.0,0.0,0.0,0.0,0.0,0.0,0.015306531718303679,-0.08877006565356903,9.79584129788166,0.0,0.0,0.0,0.0,0.0,0.0,0.0,0.0,0.0
170.74475,169581,170,744500000,imu_link,-0.004610226600854121,0.0001551896738913658,-0.0009082667582338848,0.9999889483281051,0.0,0.0,0.0,0.0,0.0,0.0,0.0,0.0,0.0,0.00034412903219059414,0.06049910940410459,0.0005585843913602402,0.0,0.0,0.0,0.0,0.0,0.0,0.0,0.0,0.0,0.015647600087756654,-0.08859504630630222,9.79600271928263,0.0,0.0,0.0,0.0,0.0,0.0,0.0,0.0,0.0
170.74625,169582,170,745500000,imu_link,-0.004610439659712441,0.00018972608625912607,-0.0009078862063687596,0.9999889417352537,0.0,0.0,0.0,0.0,0.0,0.0,0.0,0.0,0.0,0.00030145399667229935,0.06413528345562795,0.0005869504665074143,0.0,0.0,0.0,0.0,0.0,0.0,0.0,0.0,0.0,0.015445649674215916,-0.08857409708850962,9.795850750795216,0.0,0.0,0.0,0.0,0.0,0.0,0.0,0.0,0.0
170.7475,169583,170,746500000,imu_link,-0.0046106736618641885,0.0002259840664816699,-0.0009074999538672154,0.9999889334704757,0.0,0.0,0.0,0.0,0.0,0.0,0.0,0.0,0.0,0.00025161914434897404,0.06746068310142567,0.0006138989583398476,0.0,0.0,0.0,0.0,0.0,0.0,0.0,0.0,0.0,0.018897256339732434,-0.08846271845151157,9.795391960509635,0.0,0.0,0.0,0.0,0.0,0.0,0.0,0.0,0.0
170.748,169584,170,747500000,imu_link,-0.0046109230532234815,0.0002638930424181822,-0.0009071093090469142,0.9999889233895348,0.0,0.0,0.0,0.0,0.0,0.0,0.0,0.0,0.0,0.00022052087830585254,0.06993959523306421,0.0006327504481703066,0.0,0.0,0.0,0.0,0.0,0.0,0.0,0.0,0.0,0.018410519400038294,-0.08842805064359224,9.794950030323047,0.0,0.0,0.0,0.0,0.0,0.0,0.0,0.0,0.0
170.7495,169585,170,748500000,imu_link,-0.004611185577558376,0.0003034444443457716,-0.0009067147923853032,0.9999889113171825,0.0,0.0,0.0,0.0,0.0,0.0,0.0,0.0,0.0,0.0001729182286078029,0.07405109019500933,0.0006629120831266296,0.0,0.0,0.0,0.0,0.0,0.0,0.0,0.0,0.0,0.017994468145839607,-0.08840383825474646,9.794651017210972,0.0,0.0,0.0,0.0,0.0,0.0,0.0,0.0,0.0
170.7495,169586,170,749500000,imu_link,-0.004611463652911442,0.0003446008417221973,-0.0009063161707191411,0.9999888970604807,0.0,0.0,0.0,0.0,0.0,0.0,0.0,0.0,0.0,0.00012806128413874444,0.07719714858866768,0.0006870945550981134,0.0,0.0,0.0,0.0,0.0,0.0,0.0,0.0,0.0,0.013405290715310193,-0.0883976431996219,9.795799551282812,0.0,0.0,0.0,0.0,0.0,0.0,0.0,0.0,0.0
170.75075,169587,170,750500000,imu_link,-0.004611755204101823,0.000387295864711091,-0.0009059142314570903,0.9999888804558059,0.0,0.0,0.0,0.0,0.0,0.0,0.0,0.0,0.0,9.018148505605363e-05,0.08027769195108712,0.0007091420847741681,0.0,0.0,0.0,0.0,0.0,0.0,0.0,0.0,0.0,0.011454903660992208,-0.08836874194260191,9.79587271654831,0.0,0.0,0.0,0.0,0.0,0.0,0.0,0.0,0.0
170.752,169588,170,751500000,imu_link,-0.004612057364649508,0.0004315077766981955,-0.000905509642168224,0.999988861328061,0.0,0.0,0.0,0.0,0.0,0.0,0.0,0.0,0.0,5.5213341549198986e-05,0.08327601429435944,0.000730345107459568,0.0,0.0,0.0,0.0,0.0,0.0,0.0,0.0,0.0,0.010878949099459911,-0.08837756708777857,9.795783967112943,0.0,0.0,0.0,0.0,0.0,0.0,0.0,0.0,0.0
170.75275,169589,170,752500000,imu_link,-0.004612369389246702,0.00047717903611897445,-0.000905102706517779,0.9999888395066593,0.0,0.0,0.0,0.0,0.0,0.0,0.0,0.0,0.0,2.4252179422451408e-05,0.0861904539430762,0.0007499863521494962,0.0,0.0,0.0,0.0,0.0,0.0,0.0,0.0,0.0,0.010218351621804974,-0.0883830311790264,9.795724329997286,0.0,0.0,0.0,0.0,0.0,0.0,0.0,0.0,0.0
170.75375,169590,170,753500000,imu_link,-0.00461269015285081,0.0005242984378212691,-0.0009046940870438588,0.9999888148021011,0.0,0.0,0.0,0.0,0.0,0.0,0.0,0.0,0.0,-4.253421304339168e-06,0.08909094230400971,0.0007684085901810944,0.0,0.0,0.0,0.0,0.0,0.0,0.0,0.0,0.0,0.009595955946133574,-0.08837071000095524,9.79555078349069,0.0,0.0,0.0,0.0,0.0,0.0,0.0,0.0,0.0
170.75475,169591,170,754500000,imu_link,-0.004612990989690093,0.0005728546725038232,-0.0009042834947597445,0.9999887871486434,0.0,0.0,0.0,0.0,0.0,0.0,0.0,0.0,0.0,-2.513366521578843e-05,0.09125943772052514,0.0007818134470459995,0.0,0.0,0.0,0.0,0.0,0.0,0.0,0.0,0.0,0.008925309525696225,-0.08836809866614338,9.79544712709716,0.0,0.0,0.0,0.0,0.0,0.0,0.0,0.0,0.0
170.75575,169592,170,755500000,imu_link,-0.004613213034620314,0.0006226916186031203,-0.0009038703197260453,0.9999887567063396,0.0,0.0,0.0,0.0,0.0,0.0,0.0,0.0,0.0,0.0001703958595372048,0.09436963245594825,0.0008060364981052585,0.0,0.0,0.0,0.0,0.0,0.0,0.0,0.0,0.0,0.004171774067465087,-0.08812336808666511,9.801649643563353,0.0,0.0,0.0,0.0,0.0,0.0,0.0,0.0,0.0
170.75675,169593,170,756500000,imu_link,-0.004613445565585593,0.0006737267594267682,-0.0009034587736471564,0.9999887229236696,0.0,0.0,0.0,0.0,0.0,0.0,0.0,0.0,0.0,0.00010129573327391236,0.0967483338481549,0.0008163100004356503,0.0,0.0,0.0,0.0,0.0,0.0,0.0,0.0,0.0,0.0028560635935960775,-0.08815425906167765,9.798802153631172,0.0,0.0,0.0,0.0,0.0,0.0,0.0,0.0,0.0
170.7575,169594,170,757500000,imu_link,-0.004613769542307244,0.0007390736226516862,-0.0009029482908108278,0.9999886757284678,0.0,0.0,0.0,0.0,0.0,0.0,0.0,0.0,0.0,6.704756484164626e-05,0.09893009862318114,0.0008266496213561578,0.0,0.0,0.0,0.0,0.0,0.0,0.0,0.0,0.0,0.001004921892885943,-0.08834202306485031,9.797560394673761,0.0,0.0,0.0,0.0,0.0,0.0,0.0,0.0,0.0
170.75875,169595,170,758500000,imu_link,-0.004613966688796469,0.0007790863921044199,-0.0009026439623812793,0.9999886447203616,0.0,0.0,0.0,0.0,0.0,0.0,0.0,0.0,0.0,4.459232079494006e-05,0.10109284803557102,0.000834697112678818,0.0,0.0,0.0,0.0,0.0,0.0,0.0,0.0,0.0,0.0003267817170763323,-0.08833002071398584,9.79704952145994,0.0,0.0,0.0,0.0,0.0,0.0,0.0,0.0,0.0
170.76,169596,170,759500000,imu_link,-0.00461424024237939,0.0008332709817326596,-0.0009022403500130546,0.9999886001394254,0.0,0.0,0.0,0.0,0.0,0.0,0.0,0.0,0.0,-2.6421209204723176e-06,0.10292014857127224,0.0008405343948002429,0.0,0.0,0.0,0.0,0.0,0.0,0.0,0.0,0.0,-0.0017598866217906056,-0.08828375720994489,9.797435321618522,0.0,0.0,0.0,0.0,0.0,0.0,0.0,0.0,0.0
170.76075,169597,170,760500000,imu_link,-0.0046145200946005,0.0008883509617238135,-0.0009018403603014048,0.9999885517948844,0.0,0.0,0.0,0.0,0.0,0.0,0.0,0.0,0.0,-3.293985607086023e-05,0.10472647589425911,0.0008438545160432074,0.0,0.0,0.0,0.0,0.0,0.0,0.0,0.0,0.0,-0.0028049745176224865,-0.0882640677376935,9.796852863359948,0.0,0.0,0.0,0.0,0.0,0.0,0.0,0.0,0.0
170.762,169598,170,761500000,imu_link,-0.004614803443969088,0.0009443226653093867,-0.0009014442807399496,0.9999884995549129,0.0,0.0,0.0,0.0,0.0,0.0,0.0,0.0,0.0,-5.6716387371165334e-05,0.10652261971298188,0.0008461465976889409,0.0,0.0,0.0,0.0,0.0,0.0,0.0,0.0,0.0,-0.0037719936660655876,-0.08826656107236433,9.796639222302227,0.0,0.0,0.0,0.0,0.0,0.0,0.0,0.0,0.0
170.763,169599,170,762500000,imu_link,-0.004615091312220729,0.0010011868415111885,-0.0009010519603772436,0.9999884432644475,0.0,0.0,0.0,0.0,0.0,0.0,0.0,0.0,0.0,-7.280226630438581e-05,0.10786603391445002,0.0008475694631789592,0.0,0.0,0.0,0.0,0.0,0.0,0.0,0.0,0.0,-0.0047454840310594305,-0.08827813243371986,9.796580726979565,0.0,0.0,0.0,0.0,0.0,0.0,0.0,0.0,0.0
170.764,169600,170,763500000,imu_link,-0.004615387031671142,0.0010589279311736834,-0.0009006630505155531,0.9999883827726471,0.0,0.0,0.0,0.0,0.0,0.0,0.0,0.0,0.0,-9.345000427525763e-05,0.10965411106056767,0.0008492354087629186,0.0,0.0,0.0,0.0,0.0,0.0,0.0,0.0,0.0,-0.005726947455424026,-0.08829407262189964,9.796575579278882,0.0,0.0,0.0,0.0,0.0,0.0,0.0,0.0,0.0
170.76475,169601,170,764500000,imu_link,-0.004615700933196081,0.001117337423581578,-0.0009002769101965212,0.9999883181134979,0.0,0.0,0.0,0.0,0.0,0.0,0.0,0.0,0.0,-0.00015243837424894248,0.11089999860772493,0.0008515749325211893,0.0,0.0,0.0,0.0,0.0,0.0,0.0,0.0,0.0,-0.007973761125787116,-0.08830718641160647,9.798248162567296,0.0,0.0,0.0,0.0,0.0,0.0,0.0,0.0,0.0
170.7655,169602,170,765500000,imu_link,-0.004616020327908053,0.0011763463186682584,-0.0008998953853209459,0.9999882493079438,0.0,0.0,0.0,0.0,0.0,0.0,0.0,0.0,0.0,-0.00018612393852082904,0.11212009039979273,0.000850434057595993,0.0,0.0,0.0,0.0,0.0,0.0,0.0,0.0,0.0,-0.009231514029934867,-0.08828547704499119,9.797480498130977,0.0,0.0,0.0,0.0,0.0,0.0,0.0,0.0,0.0
170.76675,169603,170,766500000,imu_link,-0.004616341774809727,0.0012359516386709446,-0.000899518905758465,0.9999881762690515,0.0,0.0,0.0,0.0,0.0,0.0,0.0,0.0,0.0,-0.0002150423714273713,0.11363110542008518,0.0008471842110816164,0.0,0.0,0.0,0.0,0.0,0.0,0.0,0.0,0.0,-0.010359914219683108,-0.08829310256847295,9.797217518737867,0.0,0.0,0.0,0.0,0.0,0.0,0.0,0.0,0.0
170.7675,169604,170,767500000,imu_link,-0.004616648380006928,0.0012961343432398114,-0.0008991456634005712,0.9999880989944708,0.0,0.0,0.0,0.0,0.0,0.0,0.0,0.0,0.0,-0.0001915843565240354,0.11472324768216101,0.0008485318980341604,0.0,0.0,0.0,0.0,0.0,0.0,0.0,0.0,0.0,-0.011559954624294485,-0.08775431740126911,9.797684194970028,0.0,0.0,0.0,0.0,0.0,0.0,0.0,0.0,0.0
170.76875,169605,170,768500000,imu_link,-0.004616956148156318,0.0013568056646924638,-0.0008987766096432893,0.999988017425669,0.0,0.0,0.0,0.0,0.0,0.0,0.0,0.0,0.0,-0.00021751037080547248,0.11569138340713626,0.0008444230183734143,0.0,0.0,0.0,0.0,0.0,0.0,0.0,0.0,0.0,-0.012900601736307808,-0.08840169762102805,9.798240291775018,0.0,0.0,0.0,0.0,0.0,0.0,0.0,0.0,0.0
170.76975,169606,170,769500000,imu_link,-0.004617267134352077,0.0014179541685913903,-0.0008984128689002948,0.9999879314794269,0.0,0.0,0.0,0.0,0.0,0.0,0.0,0.0,0.0,-0.00023650955459406998,0.11665356023008927,0.0008393711334998984,0.0,0.0,0.0,0.0,0.0,0.0,0.0,0.0,0.0,-0.014077162566933907,-0.0884223881089711,9.79812060312923,0.0,0.0,0.0,0.0,0.0,0.0,0.0,0.0,0.0
170.7705,169607,170,770500000,imu_link,-0.0046176092707979005,0.00147956156678598,-0.0008980568572589139,0.9999878409641156,0.0,0.0,0.0,0.0,0.0,0.0,0.0,0.0,0.0,-0.00040168155520493376,0.11751086526927298,0.0008205506954191101,0.0,0.0,0.0,0.0,0.0,0.0,0.0,0.0,0.0,-0.01699123538666754,-0.08772167015420904,9.805516546714774,0.0,0.0,0.0,0.0,0.0,0.0,0.0,0.0,0.0
170.7715,169608,170,771500000,imu_link,-0.0046180097789675556,0.0015415096396241724,-0.0008977107608923043,0.999987745849469,0.0,0.0,0.0,0.0,0.0,0.0,0.0,0.0,0.0,-0.00043185277696335296,0.11798281668737097,0.0008145782214490717,0.0,0.0,0.0,0.0,0.0,0.0,0.0,0.0,0.0,-0.016641936219933925,-0.08830404380142559,9.799244965565912,0.0,0.0,0.0,0.0,0.0,0.0,0.0,0.0,0.0
170.77275,169609,170,772500000,imu_link,-0.004618421222911847,0.001603714687648219,-0.0008973714672604711,0.9999876464282238,0.0,0.0,0.0,0.0,0.0,0.0,0.0,0.0,0.0,-0.0004833806421763576,0.11855869598271386,0.0008027523726992155,0.0,0.0,0.0,0.0,0.0,0.0,0.0,0.0,0.0,-0.018825233301088238,-0.08846528651776799,9.80355049799384,0.0,0.0,0.0,0.0,0.0,0.0,0.0,0.0,0.0
170.77375,169610,170,773500000,imu_link,-0.004618837278284585,0.0016660689813488437,-0.0008970395135519429,0.9999875428606386,0.0,0.0,0.0,0.0,0.0,0.0,0.0,0.0,0.0,-0.0005075468573258013,0.1188650589453146,0.0007910593549933776,0.0,0.0,0.0,0.0,0.0,0.0,0.0,0.0,0.0,-0.02042396239664463,-0.08852796808663277,9.800011827275542,0.0,0.0,0.0,0.0,0.0,0.0,0.0,0.0,0.0
170.77475,169611,170,774500000,imu_link,-0.004619250801904883,0.0017285651556058644,-0.0008967156213618156,0.9999874351638757,0.0,0.0,0.0,0.0,0.0,0.0,0.0,0.0,0.0,-0.0005183434770192303,0.11909027585532488,0.0007814360343982266,0.0,0.0,0.0,0.0,0.0,0.0,0.0,0.0,0.0,-0.021787724841429257,-0.08855368318179108,9.79971871235722,0.0,0.0,0.0,0.0,0.0,0.0,0.0,0.0,0.0
170.77575,169612,170,775500000,imu_link,-0.004619665834279955,0.0017911349463632634,-0.0008963994541949537,0.9999873234152531,0.0,0.0,0.0,0.0,0.0,0.0,0.0,0.0,0.0,-0.000545402040837666,0.11918121780401185,0.0007645597382508333,0.0,0.0,0.0,0.0,0.0,0.0,0.0,0.0,0.0,-0.01946436602971135,-0.08849228232268351,9.799539847728024,0.0,0.0,0.0,0.0,0.0,0.0,0.0,0.0,0.0
170.7785,169613,170,776500000,imu_link,-0.004620081795668107,0.0018536552257765499,-0.0008960914736294328,0.9999872078314683,0.0,0.0,0.0,0.0,0.0,0.0,0.0,0.0,0.0,-0.0005570882502241715,0.1191159458202951,0.0007530259384737831,0.0,0.0,0.0,0.0,0.0,0.0,0.0,0.0,0.0,-0.01848574865131027,-0.08844462903363909,9.799110485452568,0.0,0.0,0.0,0.0,0.0,0.0,0.0,0.0,0.0
170.7785,169614,170,777500000,imu_link,-0.004620494657865603,0.0019161249340585065,-0.0008957921953772577,0.999987088441994,0.0,0.0,0.0,0.0,0.0,0.0,0.0,0.0,0.0,-0.0005668739946837883,0.11900464504320332,0.0007326085324540904,0.0,0.0,0.0,0.0,0.0,0.0,0.0,0.0,0.0,-0.019861883387422622,-0.0884747843186116,9.79901824050469,0.0,0.0,0.0,0.0,0.0,0.0,0.0,0.0,0.0
170.77925,169615,170,778500000,imu_link,-0.00462089436318945,0.001978548499839513,-0.0008955007792496567,0.9999869652947846,0.0,0.0,0.0,0.0,0.0,0.0,0.0,0.0,0.0,-0.00048767101012538346,0.1189191966702911,0.0007220593113897644,0.0,0.0,0.0,0.0,0.0,0.0,0.0,0.0,0.0,-0.021192540279632847,-0.08758400215853615,9.799006780081603,0.0,0.0,0.0,0.0,0.0,0.0,0.0,0.0,0.0
170.7795,169616,170,779500000,imu_link,-0.004621269986024022,0.0020408492458127894,-0.0008952145758681808,0.9999868386078565,0.0,0.0,0.0,0.0,0.0,0.0,0.0,0.0,0.0,-0.000517855292863542,0.1185812220966114,0.000707244167741757,0.0,0.0,0.0,0.0,0.0,0.0,0.0,0.0,0.0,-0.029730756946661344,-0.08878336345747317,9.801570363629727,0.0,0.0,0.0,0.0,0.0,0.0,0.0,0.0,0.0
170.78075,169617,170,780500000,imu_link,-0.00462164501802506,0.002102958642079041,-0.0008949368890265137,0.999986708436788,0.0,0.0,0.0,0.0,0.0,0.0,0.0,0.0,0.0,-0.0005336870022006011,0.11814127207158327,0.000689545373313053,0.0,0.0,0.0,0.0,0.0,0.0,0.0,0.0,0.0,-0.029707377760733712,-0.08876031953197697,9.801359266660624,0.0,0.0,0.0,0.0,0.0,0.0,0.0,0.0,0.0
170.78175,169618,170,781500000,imu_link,-0.004622018354058189,0.002164734780223467,-0.000894668925105964,0.9999865751284768,0.0,0.0,0.0,0.0,0.0,0.0,0.0,0.0,0.0,-0.0005452170163657822,0.1174203134786119,0.0006679574124804973,0.0,0.0,0.0,0.0,0.0,0.0,0.0,0.0,0.0,-0.026802388064360978,-0.08868979968951986,9.800968124450002,0.0,0.0,0.0,0.0,0.0,0.0,0.0,0.0,0.0
170.78275,169619,170,782500000,imu_link,-0.004622383200787595,0.0022261387410308577,-0.0008944118081682729,0.9999864388617319,0.0,0.0,0.0,0.0,0.0,0.0,0.0,0.0,0.0,-0.0005452330542833434,0.11687547452725713,0.0006506961185957915,0.0,0.0,0.0,0.0,0.0,0.0,0.0,0.0,0.0,-0.028249617934029567,-0.08871093837228702,9.800745279514462,0.0,0.0,0.0,0.0,0.0,0.0,0.0,0.0,0.0
170.784,169620,170,783500000,imu_link,-0.00462273864523435,0.0022871749218257567,-0.0008941655723555387,0.999986299699263,0.0,0.0,0.0,0.0,0.0,0.0,0.0,0.0,0.0,-0.0005380713296263557,0.11597133773959582,0.0006211880481254411,0.0,0.0,0.0,0.0,0.0,0.0,0.0,0.0,0.0,-0.02964404656956392,-0.08875475064820981,9.800802126808449,0.0,0.0,0.0,0.0,0.0,0.0,0.0,0.0,0.0
170.78475,169621,170,784500000,imu_link,-0.004623087291897256,0.0023478017982909044,-0.000893925477286938,0.9999861577981211,0.0,0.0,0.0,0.0,0.0,0.0,0.0,0.0,0.0,-0.0005662254645010861,0.11530798427557298,0.0006126215887278196,0.0,0.0,0.0,0.0,0.0,0.0,0.0,0.0,0.0,-0.035023028411271875,-0.08904534882530922,9.810879585089117,0.0,0.0,0.0,0.0,0.0,0.0,0.0,0.0,0.0
170.78475,169622,170,785500000,imu_link,-0.00462345113526625,0.0024079191602493816,-0.0008936952735853418,0.9999860133690249,0.0,0.0,0.0,0.0,0.0,0.0,0.0,0.0,0.0,-0.000587134681693042,0.11404180454757484,0.0005834150977573788,0.0,0.0,0.0,0.0,0.0,0.0,0.0,0.0,0.0,-0.04004649195050418,-0.08912055174587581,9.8037835015498,0.0,0.0,0.0,0.0,0.0,0.0,0.0,0.0,0.0
170.78675,169623,170,786500000,imu_link,-0.0046238059435960615,0.0024675175533149366,-0.0008934764600063957,0.9999858666378918,0.0,0.0,0.0,0.0,0.0,0.0,0.0,0.0,0.0,-0.0005896326307060267,0.11327982063907698,0.0005647137569596613,0.0,0.0,0.0,0.0,0.0,0.0,0.0,0.0,0.0,-0.04155897442555477,-0.08915280531122032,9.80351405415545,0.0,0.0,0.0,0.0,0.0,0.0,0.0,0.0,0.0
170.78775,169624,170,787500000,imu_link,-0.004624152461247184,0.002526521362388665,-0.0008932695462490699,0.9999857178846798,0.0,0.0,0.0,0.0,0.0,0.0,0.0,0.0,0.0,-0.0005844644622918936,0.11206219485808046,0.0005366071011146895,0.0,0.0,0.0,0.0,0.0,0.0,0.0,0.0,0.0,-0.042453555088647184,-0.0897467356348359,9.810255581398337,0.0,0.0,0.0,0.0,0.0,0.0,0.0,0.0,0.0
170.78875,169625,170,788500000,imu_link,-0.0046244976445386984,0.0025848731481396187,-0.0008930737616631488,0.999985567331649,0.0,0.0,0.0,0.0,0.0,0.0,0.0,0.0,0.0,-0.0005972430285897516,0.11044928651686439,0.0005033549760631737,0.0,0.0,0.0,0.0,0.0,0.0,0.0,0.0,0.0,-0.04302378147239114,-0.08921164155501103,9.803952587350217,0.0,0.0,0.0,0.0,0.0,0.0,0.0,0.0,0.0
170.79075,169626,170,789500000,imu_link,-0.004624843346640487,0.0026425397627243287,-0.0008928888186079095,0.9999854151722309,0.0,0.0,0.0,0.0,0.0,0.0,0.0,0.0,0.0,-0.0006202288208740664,0.1089712329347942,0.00047728360701854237,0.0,0.0,0.0,0.0,0.0,0.0,0.0,0.0,0.0,-0.045989881701417594,-0.08936112350028044,9.805058030918419,0.0,0.0,0.0,0.0,0.0,0.0,0.0,0.0,0.0
170.79075,169627,170,790500000,imu_link,-0.0046251933655851885,0.0026993719332968503,-0.0008927145236039842,0.9999852619105325,0.0,0.0,0.0,0.0,0.0,0.0,0.0,0.0,0.0,-0.0006362321535952821,0.10771230814991635,0.0004566235834221058,0.0,0.0,0.0,0.0,0.0,0.0,0.0,0.0,0.0,-0.04897783872824864,-0.089499198026659,9.805848546383178,0.0,0.0,0.0,0.0,0.0,0.0,0.0,0.0,0.0
170.7925,169628,170,791500000,imu_link,-0.004625539107818019,0.0027553413296445904,-0.0008925519923461972,0.9999851078056414,0.0,0.0,0.0,0.0,0.0,0.0,0.0,0.0,0.0,-0.0006437849715552039,0.10603056275123478,0.00042748871462799557,0.0,0.0,0.0,0.0,0.0,0.0,0.0,0.0,0.0,-0.05041750039463216,-0.08952929138171382,9.80565066099907,0.0,0.0,0.0,0.0,0.0,0.0,0.0,0.0,0.0
170.79275,169629,170,792500000,imu_link,-0.0046258844622117734,0.002810308583821288,-0.0008924014993288197,0.9999849533758846,0.0,0.0,0.0,0.0,0.0,0.0,0.0,0.0,0.0,-0.000666173355923917,0.10345988424882387,0.0003879407278568448,0.0,0.0,0.0,0.0,0.0,0.0,0.0,0.0,0.0,-0.04563973758897337,-0.08947052144135824,9.805479693546301,0.0,0.0,0.0,0.0,0.0,0.0,0.0,0.0,0.0
170.79375,169630,170,793500000,imu_link,-0.004626223749672161,0.0028642373923861795,-0.0008922639104997611,0.9999847989160097,0.0,0.0,0.0,0.0,0.0,0.0,0.0,0.0,0.0,-0.0006681740382822371,0.10191684095905951,0.0003629364399300614,0.0,0.0,0.0,0.0,0.0,0.0,0.0,0.0,0.0,-0.04715665933779447,-0.08950397938040014,9.805281798735404,0.0,0.0,0.0,0.0,0.0,0.0,0.0,0.0,0.0
170.79475,169631,170,794500000,imu_link,-0.004626555980637367,0.002917134916788217,-0.0008921391935125791,0.9999846445777528,0.0,0.0,0.0,0.0,0.0,0.0,0.0,0.0,0.0,-0.0006639108174626355,0.09935563058591224,0.0003207178628537851,0.0,0.0,0.0,0.0,0.0,0.0,0.0,0.0,0.0,-0.048551634242617,-0.0895568282546782,9.805422654907783,0.0,0.0,0.0,0.0,0.0,0.0,0.0,0.0,0.0
170.7955,169632,170,795500000,imu_link,-0.004626889708237286,0.002968943992931821,-0.0008920261453255008,0.9999844906560057,0.0,0.0,0.0,0.0,0.0,0.0,0.0,0.0,0.0,-0.0006825869561556265,0.09711131838123302,0.00028902673486315303,0.0,0.0,0.0,0.0,0.0,0.0,0.0,0.0,0.0,-0.056851207723694785,-0.08982692172115582,9.807760971631351,0.0,0.0,0.0,0.0,0.0,0.0,0.0,0.0,0.0
170.79675,169633,170,796500000,imu_link,-0.004627220054861271,0.0030196234445853142,-0.0008919253211351395,0.9999843374663617,0.0,0.0,0.0,0.0,0.0,0.0,0.0,0.0,0.0,-0.0006853459501489432,0.09542728934846167,0.000263985644810414,0.0,0.0,0.0,0.0,0.0,0.0,0.0,0.0,0.0,-0.058238305435002836,-0.08986433473926414,9.807620287542775,0.0,0.0,0.0,0.0,0.0,0.0,0.0,0.0,0.0
170.79925,169634,170,797500000,imu_link,-0.004627548067050083,0.0030691301339701334,-0.0008918365686531791,0.9999841853082693,0.0,0.0,0.0,0.0,0.0,0.0,0.0,0.0,0.0,-0.0006950299996174171,0.09306319583413163,0.00023073201775294003,0.0,0.0,0.0,0.0,0.0,0.0,0.0,0.0,0.0,-0.05944837619157719,-0.08990039746888405,9.807991083906535,0.0,0.0,0.0,0.0,0.0,0.0,0.0,0.0,0.0
170.79925,169635,170,798500000,imu_link,-0.004627873707897487,0.0031173855217016184,-0.0008917599985528838,0.999984034600832,0.0,0.0,0.0,0.0,0.0,0.0,0.0,0.0,0.0,-0.0007017662133608266,0.08995363576147436,0.00018770907269315904,0.0,0.0,0.0,0.0,0.0,0.0,0.0,0.0,0.0,-0.06084781465826179,-0.08993125033235042,9.808105740380622,0.0,0.0,0.0,0.0,0.0,0.0,0.0,0.0,0.0
170.79975,169636,170,799500000,imu_link,-0.004628192987542411,0.0031643937498029144,-0.0008916959742393705,0.9999838855302399,0.0,0.0,0.0,0.0,0.0,0.0,0.0,0.0,0.0,-0.0006993610098709429,0.08809323724651616,0.00016133641063753584,0.0,0.0,0.0,0.0,0.0,0.0,0.0,0.0,0.0,-0.062191606370148506,-0.08998039166270172,9.808176766779765,0.0,0.0,0.0,0.0,0.0,0.0,0.0,0.0,0.0
170.80075,169637,170,800500000,imu_link,-0.004628553540026974,0.0032101162304596044,-0.0008916442137910546,0.9999837381760317,0.0,0.0,0.0,0.0,0.0,0.0,0.0,0.0,0.0,-0.0008221079948373044,0.08481165440132803,0.00011686751026945481,0.0,0.0,0.0,0.0,0.0,0.0,0.0,0.0,0.0,-0.06430319973622951,-0.09042535202713343,9.81163801002495,0.0,0.0,0.0,0.0,0.0,0.0,0.0,0.0,0.0
170.80175,169638,170,801500000,imu_link,-0.004628926913771418,0.003254460672616864,-0.0008916044749187613,0.9999835931468164,0.0,0.0,0.0,0.0,0.0,0.0,0.0,0.0,0.0,-0.0008237620132638047,0.08275027564482886,9.035075847138814e-05,0.0,0.0,0.0,0.0,0.0,0.0,0.0,0.0,0.0,-0.0659648953997626,-0.09020653943081793,9.809972969177942,0.0,0.0,0.0,0.0,0.0,0.0,0.0,0.0,0.0
170.80325,169639,170,802500000,imu_link,-0.004629291335891108,0.0032974272829342263,-0.0008915771958441692,0.9999834507256334,0.0,0.0,0.0,0.0,0.0,0.0,0.0,0.0,0.0,-0.000816125891823038,0.08000752780315475,5.4196023034755304e-05,0.0,0.0,0.0,0.0,0.0,0.0,0.0,0.0,0.0,-0.06722693277269216,-0.09026577580519249,9.809952371367238,0.0,0.0,0.0,0.0,0.0,0.0,0.0,0.0,0.0
170.80325,169640,170,803500000,imu_link,-0.004629653791750254,0.003338948392935581,-0.0008915615925808915,0.9999833112844057,0.0,0.0,0.0,0.0,0.0,0.0,0.0,0.0,0.0,-0.0008232015443641736,0.07709128630189475,1.8729299410873414e-05,0.0,0.0,0.0,0.0,0.0,0.0,0.0,0.0,0.0,-0.0684954045281409,-0.09037714137496929,9.81513486439201,0.0,0.0,0.0,0.0,0.0,0.0,0.0,0.0,0.0
170.80475,169641,170,804500000,imu_link,-0.004630008485913327,0.0033789572082147507,-0.0008915582033777063,0.9999831752552518,0.0,0.0,0.0,0.0,0.0,0.0,0.0,0.0,0.0,-0.0008176992855395189,0.07408022486688784,-1.820680876573605e-05,0.0,0.0,0.0,0.0,0.0,0.0,0.0,0.0,0.0,-0.06913682320805947,-0.09040660285306379,9.810966463295594,0.0,0.0,0.0,0.0,0.0,0.0,0.0,0.0,0.0
170.80575,169642,170,805500000,imu_link,-0.004630389713565213,0.003417420595362063,-0.000891567238252659,0.9999830427739437,0.0,0.0,0.0,0.0,0.0,0.0,0.0,0.0,0.0,-0.0009036841031011646,0.0701718098569677,-6.570751551181166e-05,0.0,0.0,0.0,0.0,0.0,0.0,0.0,0.0,0.0,-0.07099836470489115,-0.09077618047010648,9.81348394324098,0.0,0.0,0.0,0.0,0.0,0.0,0.0,0.0,0.0
170.80825,169643,170,806500000,imu_link,-0.004630774477293755,0.0034542670178639274,-0.0008915885955289316,0.9999829143724838,0.0,0.0,0.0,0.0,0.0,0.0,0.0,0.0,0.0,-0.0008927199860064621,0.06695041698428827,-0.0001039493891040293,0.0,0.0,0.0,0.0,0.0,0.0,0.0,0.0,0.0,-0.0725034613450431,-0.09062423204277219,9.812126959596752,0.0,0.0,0.0,0.0,0.0,0.0,0.0,0.0,0.0
170.80825,169644,170,807500000,imu_link,-0.0046311457860104335,0.0034894995988315617,-0.0008916225534543984,0.9999827902971535,0.0,0.0,0.0,0.0,0.0,0.0,0.0,0.0,0.0,-0.0008784411731008303,0.06454073478111186,-0.0001330554604348799,0.0,0.0,0.0,0.0,0.0,0.0,0.0,0.0,0.0,-0.07364567511774678,-0.09068445733504764,9.812176597263072,0.0,0.0,0.0,0.0,0.0,0.0,0.0,0.0,0.0
170.80825,169645,170,808500000,imu_link,-0.004631503825596303,0.003523121259011294,-0.0008916688194487284,0.9999826707076599,0.0,0.0,0.0,0.0,0.0,0.0,0.0,0.0,0.0,-0.0008536926997854679,0.06048838937418435,-0.00018118139836334292,0.0,0.0,0.0,0.0,0.0,0.0,0.0,0.0,0.0,-0.07456120925314023,-0.09074854819785387,9.812524836419444,0.0,0.0,0.0,0.0,0.0,0.0,0.0,0.0,0.0
170.81,169646,170,809500000,imu_link,-0.0046318512397820755,0.003555057563282258,-0.0008917266644794063,0.999982556019539,0.0,0.0,0.0,0.0,0.0,0.0,0.0,0.0,0.0,-0.0008398967676968111,0.05793597758836491,-0.00020987511251422905,0.0,0.0,0.0,0.0,0.0,0.0,0.0,0.0,0.0,-0.07491120601845824,-0.09079472409934021,9.812995038199317,0.0,0.0,0.0,0.0,0.0,0.0,0.0,0.0,0.0
170.81,169647,170,810500000,imu_link,-0.004632161337915502,0.0035852785086295156,-0.0008917961752796097,0.9999824466254079,0.0,0.0,0.0,0.0,0.0,0.0,0.0,0.0,0.0,-0.0007236714130446235,0.05451839322478955,-0.0002472543268311524,0.0,0.0,0.0,0.0,0.0,0.0,0.0,0.0,0.0,-0.07617376652202049,-0.09055211177852808,9.814932568348079,0.0,0.0,0.0,0.0,0.0,0.0,0.0,0.0,0.0
170.81225,169648,170,811500000,imu_link,-0.004632436582711273,0.0036137047736399743,-0.0008918772216271828,0.9999823429561833,0.0,0.0,0.0,0.0,0.0,0.0,0.0,0.0,0.0,-0.0007038115333216947,0.050008864788750655,-0.0002961935475839407,0.0,0.0,0.0,0.0,0.0,0.0,0.0,0.0,0.0,-0.07753022591961167,-0.09108662516453682,9.814315914539735,0.0,0.0,0.0,0.0,0.0,0.0,0.0,0.0,0.0
170.813,169649,170,812500000,imu_link,-0.004632694993825231,0.003640323367043824,-0.0008919705939228513,0.9999822451280508,0.0,0.0,0.0,0.0,0.0,0.0,0.0,0.0,0.0,-0.0006828072656292606,0.04730859403092414,-0.0003263980042210737,0.0,0.0,0.0,0.0,0.0,0.0,0.0,0.0,0.0,-0.07864091982951933,-0.09112271258766703,9.814273254125824,0.0,0.0,0.0,0.0,0.0,0.0,0.0,0.0,0.0
170.81375,169650,170,813500000,imu_link,-0.004632945210363216,0.003665130851548397,-0.0008920765365563278,0.9999821532577329,0.0,0.0,0.0,0.0,0.0,0.0,0.0,0.0,0.0,-0.0006789246125032693,0.04275631129804404,-0.0003789691600850612,0.0,0.0,0.0,0.0,0.0,0.0,0.0,0.0,0.0,-0.0781967763411944,-0.09122042919612224,9.81512091608825,0.0,0.0,0.0,0.0,0.0,0.0,0.0,0.0,0.0
170.815,169651,170,814500000,imu_link,-0.004633188435827191,0.003688075459618069,-0.0008921947851079699,0.9999820676656096,0.0,0.0,0.0,0.0,0.0,0.0,0.0,0.0,0.0,-0.000644776959481548,0.0390248161031293,-0.00041991873120084675,0.0,0.0,0.0,0.0,0.0,0.0,0.0,0.0,0.0,-0.07622362990974524,-0.09116358806467582,9.814424227270386,0.0,0.0,0.0,0.0,0.0,0.0,0.0,0.0,0.0
170.81575,169652,170,815500000,imu_link,-0.004633413428781404,0.003709156778822768,-0.0008923249789264008,0.9999819885338536,0.0,0.0,0.0,0.0,0.0,0.0,0.0,0.0,0.0,-0.0006155432479311465,0.03623544181641057,-0.0004507699743349084,0.0,0.0,0.0,0.0,0.0,0.0,0.0,0.0,0.0,-0.07709862386404132,-0.09122384492142142,9.814610826715242,0.0,0.0,0.0,0.0,0.0,0.0,0.0,0.0,0.0
170.81675,169653,170,816500000,imu_link,-0.004633624675603782,0.0037283583491761023,-0.0008924663977832408,0.9999819160215422,0.0,0.0,0.0,0.0,0.0,0.0,0.0,0.0,0.0,-0.000580164549772506,0.031503323447187044,-0.0005007937790890518,0.0,0.0,0.0,0.0,0.0,0.0,0.0,0.0,0.0,-0.08024853558651082,-0.09141169233033529,9.81566979919679,0.0,0.0,0.0,0.0,0.0,0.0,0.0,0.0,0.0
170.81825,169654,170,817500000,imu_link,-0.004633823616876678,0.0037456405055588202,-0.0008926189039594675,0.9999818503789872,0.0,0.0,0.0,0.0,0.0,0.0,0.0,0.0,0.0,-0.0005569982137037302,0.02862932952784035,-0.0005311266236965495,0.0,0.0,0.0,0.0,0.0,0.0,0.0,0.0,0.0,-0.08265938647073665,-0.09156460807698585,9.81629504675821,0.0,0.0,0.0,0.0,0.0,0.0,0.0,0.0,0.0
170.819,169655,170,818500000,imu_link,-0.0046340043850169035,0.0037610038933355177,-0.000892783026478498,0.9999817917300003,0.0,0.0,0.0,0.0,0.0,0.0,0.0,0.0,0.0,-0.0005107712872073675,0.024800448246559866,-0.0005725018861080836,0.0,0.0,0.0,0.0,0.0,0.0,0.0,0.0,0.0,-0.08315233296547647,-0.09175159268344822,9.816747656969877,0.0,0.0,0.0,0.0,0.0,0.0,0.0,0.0,0.0
170.81975,169656,170,819500000,imu_link,-0.004634170557578645,0.003774419271108302,-0.0008929584663193484,0.9999817402570842,0.0,0.0,0.0,0.0,0.0,0.0,0.0,0.0,0.0,-0.0004779783110656086,0.020891791196678597,-0.0006130931858129597,0.0,0.0,0.0,0.0,0.0,0.0,0.0,0.0,0.0,-0.08083741184777123,-0.09170205218387076,9.816510761711802,0.0,0.0,0.0,0.0,0.0,0.0,0.0,0.0,0.0
170.82075,169657,170,820500000,imu_link,-0.0046343243034614205,0.0037858852791973585,-0.0008931432591447985,0.9999816960354934,0.0,0.0,0.0,0.0,0.0,0.0,0.0,0.0,0.0,-0.0004025808290013204,0.016996401584052388,-0.0006510620222768285,0.0,0.0,0.0,0.0,0.0,0.0,0.0,0.0,0.0,-0.08162558397006366,-0.0914690122417045,9.816821255340024,0.0,0.0,0.0,0.0,0.0,0.0,0.0,0.0,0.0
170.824,169658,170,821500000,imu_link,-0.004634504871243182,0.003795382179292941,-0.0008933424419000617,0.9999816590208008,0.0,0.0,0.0,0.0,0.0,0.0,0.0,0.0,0.0,-0.0004563306457531733,0.013018009716944666,-0.0006894172606041859,0.0,0.0,0.0,0.0,0.0,0.0,0.0,0.0,0.0,-0.08552127617948665,-0.09191986550385739,9.821211674540326,0.0,0.0,0.0,0.0,0.0,0.0,0.0,0.0,0.0
170.824,169659,170,822500000,imu_link,-0.004634630412787651,0.0038028864663578097,-0.0008935485927934369,0.9999816297444534,0.0,0.0,0.0,0.0,0.0,0.0,0.0,0.0,0.0,-0.0004292570625762232,0.008059369874042228,-0.0007334146209422509,0.0,0.0,0.0,0.0,0.0,0.0,0.0,0.0,0.0,-0.0866610142335841,-0.0917804401020738,9.817734820925615,0.0,0.0,0.0,0.0,0.0,0.0,0.0,0.0,0.0
170.824,169660,170,823500000,imu_link,-0.004634714802852012,0.0038084015266674613,-0.0008937635659542658,0.9999816081724685,0.0,0.0,0.0,0.0,0.0,0.0,0.0,0.0,0.0,-0.00042604855900080956,0.0040977577135909915,-0.0007683717219591327,0.0,0.0,0.0,0.0,0.0,0.0,0.0,0.0,0.0,-0.08649523360563409,-0.09177231027085847,9.817331837328782,0.0,0.0,0.0,0.0,0.0,0.0,0.0,0.0,0.0
170.825,169661,170,824500000,imu_link,-0.004634767441082508,0.00381192170182466,-0.0008939868014533668,0.999981594316268,0.0,0.0,0.0,0.0,0.0,0.0,0.0,0.0,0.0,-0.00043021933727505524,0.00013309470816853466,-0.0008034312131882813,0.0,0.0,0.0,0.0,0.0,0.0,0.0,0.0,0.0,-0.08618972204825724,-0.09180583532929508,9.817365276798123,0.0,0.0,0.0,0.0,0.0,0.0,0.0,0.0,0.0
170.82575,169662,170,825500000,imu_link,-0.004634791616493466,0.0038134913521531,-0.000894214703845734,0.9999815880157206,0.0,0.0,0.0,0.0,0.0,0.0,0.0,0.0,0.0,-0.00042567244920744656,-0.00381546850320547,-0.000839660892766114,0.0,0.0,0.0,0.0,0.0,0.0,0.0,0.0,0.0,-0.08669323448818647,-0.09191006528744469,9.817976891628902,0.0,0.0,0.0,0.0,0.0,0.0,0.0,0.0,0.0
170.8275,169663,170,826500000,imu_link,-0.0046348173459167105,0.003813109042155212,-0.0008944530468348744,0.9999815891411951,0.0,0.0,0.0,0.0,0.0,0.0,0.0,0.0,0.0,-0.0004296870803618395,-0.00678054151117233,-0.0008659884420753007,0.0,0.0,0.0,0.0,0.0,0.0,0.0,0.0,0.0,-0.08960590079176901,-0.09205417507462087,9.819124252363016,0.0,0.0,0.0,0.0,0.0,0.0,0.0,0.0,0.0
170.8275,169664,170,827500000,imu_link,-0.004634833703908749,0.0038107691730948153,-0.0008947011546493038,0.999981597763024,0.0,0.0,0.0,0.0,0.0,0.0,0.0,0.0,0.0,-0.00041582617075500085,-0.010729553972486783,-0.0009016728799723966,0.0,0.0,0.0,0.0,0.0,0.0,0.0,0.0,0.0,-0.08995663792114393,-0.09212863561276577,9.819298272930665,0.0,0.0,0.0,0.0,0.0,0.0,0.0,0.0,0.0
170.82875,169665,170,828500000,imu_link,-0.00463483787266338,0.003806462081282992,-0.0008949576993382406,0.9999816139184932,0.0,0.0,0.0,0.0,0.0,0.0,0.0,0.0,0.0,-0.0004050358813092599,-0.015651163450237714,-0.000944983403302662,0.0,0.0,0.0,0.0,0.0,0.0,0.0,0.0,0.0,-0.09031967222893403,-0.09217131758196416,9.82003424550877,0.0,0.0,0.0,0.0,0.0,0.0,0.0,0.0,0.0
170.83075,169666,170,829500000,imu_link,-0.004634820719439706,0.0038001795006988646,-0.0008952228049919197,0.9999816376558075,0.0,0.0,0.0,0.0,0.0,0.0,0.0,0.0,0.0,-0.000396146015835521,-0.01960522743272043,-0.000978549913611981,0.0,0.0,0.0,0.0,0.0,0.0,0.0,0.0,0.0,-0.08980764116403606,-0.09219553000682953,9.820540348858678,0.0,0.0,0.0,0.0,0.0,0.0,0.0,0.0,0.0
170.83075,169667,170,830500000,imu_link,-0.004634761551851403,0.003791918713247101,-0.0008954970581728999,0.9999816690434122,0.0,0.0,0.0,0.0,0.0,0.0,0.0,0.0,0.0,-0.00039718525897490314,-0.023537105055148583,-0.0010108827498025823,0.0,0.0,0.0,0.0,0.0,0.0,0.0,0.0,0.0,-0.09006965713372528,-0.09224870348213475,9.82161587447535,0.0,0.0,0.0,0.0,0.0,0.0,0.0,0.0,0.0
170.83175,169668,170,831500000,imu_link,-0.004634643430105023,0.0037816862770916693,-0.0008957811519151307,0.9999817080853557,0.0,0.0,0.0,0.0,0.0,0.0,0.0,0.0,0.0,-0.0004081221466481556,-0.027428519582195596,-0.0010415446002460741,0.0,0.0,0.0,0.0,0.0,0.0,0.0,0.0,0.0,-0.09056828699344097,-0.09223870558680496,9.8227947894617,0.0,0.0,0.0,0.0,0.0,0.0,0.0,0.0,0.0
170.83275,169669,170,832500000,imu_link,-0.004634502978174006,0.0037695155435549664,-0.0008960721369673383,0.9999817544282683,0.0,0.0,0.0,0.0,0.0,0.0,0.0,0.0,0.0,-0.0004107647515100186,-0.031287296150996464,-0.0010710956729016216,0.0,0.0,0.0,0.0,0.0,0.0,0.0,0.0,0.0,-0.09144924977972914,-0.09240075960390262,9.822959727303274,0.0,0.0,0.0,0.0,0.0,0.0,0.0,0.0,0.0
170.8335,169670,170,833500000,imu_link,-0.004634347611107555,0.003755416787135187,-0.0008963692014694526,0.9999818079291387,0.0,0.0,0.0,0.0,0.0,0.0,0.0,0.0,0.0,-0.0003959532506767443,-0.03514212620527314,-0.0011014705255444747,0.0,0.0,0.0,0.0,0.0,0.0,0.0,0.0,0.0,-0.09170914487749927,-0.09241067545637939,9.822352764817413,0.0,0.0,0.0,0.0,0.0,0.0,0.0,0.0,0.0
170.83475,169671,170,834500000,imu_link,-0.004634174016482835,0.0037394065223031875,-0.0008966723944003496,0.9999818684599552,0.0,0.0,0.0,0.0,0.0,0.0,0.0,0.0,0.0,-0.0003689299242135553,-0.03894636694122111,-0.0011317586399194196,0.0,0.0,0.0,0.0,0.0,0.0,0.0,0.0,0.0,-0.09069922338365369,-0.09246196938295274,9.821768394366831,0.0,0.0,0.0,0.0,0.0,0.0,0.0,0.0,0.0
170.8365,169672,170,835500000,imu_link,-0.004633981453127734,0.0037215001217629205,-0.0008969814879247535,0.9999819358753169,0.0,0.0,0.0,0.0,0.0,0.0,0.0,0.0,0.0,-0.0003470489725034574,-0.04178882572771807,-0.0011542210833178728,0.0,0.0,0.0,0.0,0.0,0.0,0.0,0.0,0.0,-0.09071946533807272,-0.09250677927087568,9.821960002763998,0.0,0.0,0.0,0.0,0.0,0.0,0.0,0.0,0.0
170.8365,169673,170,836500000,imu_link,-0.004633783364711999,0.003701704240049267,-0.0008972960832198967,0.9999820099867733,0.0,0.0,0.0,0.0,0.0,0.0,0.0,0.0,0.0,-0.0003126135730620629,-0.04556424761049068,-0.0011843550569558031,0.0,0.0,0.0,0.0,0.0,0.0,0.0,0.0,0.0,-0.09070845639187862,-0.09259556590628368,9.822087405015067,0.0,0.0,0.0,0.0,0.0,0.0,0.0,0.0,0.0
170.83775,169674,170,837500000,imu_link,-0.004633578160891026,0.003680045388692009,-0.0008976162174904094,0.9999820905918717,0.0,0.0,0.0,0.0,0.0,0.0,0.0,0.0,0.0,-0.00024951565301852886,-0.05020088104069016,-0.0012219139542860092,0.0,0.0,0.0,0.0,0.0,0.0,0.0,0.0,0.0,-0.08830808003134355,-0.09275594883713195,9.821572345631214,0.0,0.0,0.0,0.0,0.0,0.0,0.0,0.0,0.0
170.8385,169675,170,838500000,imu_link,-0.004633369189698048,0.0036565385172108843,-0.0008979410540938235,0.9999821775001231,0.0,0.0,0.0,0.0,0.0,0.0,0.0,0.0,0.0,-0.00020891791017968423,-0.052970061497144845,-0.001244906812488927,0.0,0.0,0.0,0.0,0.0,0.0,0.0,0.0,0.0,-0.08824118226108026,-0.0926632187055341,9.821738820497531,0.0,0.0,0.0,0.0,0.0,0.0,0.0,0.0,0.0
170.8395,169676,170,839500000,imu_link,-0.004633156036329091,0.0036311940501213276,-0.0008982713708934612,0.9999822705445619,0.0,0.0,0.0,0.0,0.0,0.0,0.0,0.0,0.0,-0.00013990595924960906,-0.05755538861813398,-0.0012825636557535383,0.0,0.0,0.0,0.0,0.0,0.0,0.0,0.0,0.0,-0.08802557224985362,-0.092599858394722,9.821519782747256,0.0,0.0,0.0,0.0,0.0,0.0,0.0,0.0,0.0
170.841,169677,170,840500000,imu_link,-0.004632936435745492,0.003604032983086337,-0.0008986070021904037,0.9999823695204305,0.0,0.0,0.0,0.0,0.0,0.0,0.0,0.0,0.0,-9.354629130000648e-05,-0.060276275438556605,-0.0013045152969713536,0.0,0.0,0.0,0.0,0.0,0.0,0.0,0.0,0.0,-0.087673521931057,-0.09280082025781555,9.821596965127778,0.0,0.0,0.0,0.0,0.0,0.0,0.0,0.0,0.0
170.84225,169678,170,841500000,imu_link,-0.004632702326723579,0.0035750648757816935,-0.0008989478863066507,0.9999824742829164,0.0,0.0,0.0,0.0,0.0,0.0,0.0,0.0,0.0,-3.4309974328225244e-05,-0.06389202679498976,-0.0013331540263673987,0.0,0.0,0.0,0.0,0.0,0.0,0.0,0.0,0.0,-0.08744293812285789,-0.09285737804567441,9.821916092401828,0.0,0.0,0.0,0.0,0.0,0.0,0.0,0.0,0.0
170.84225,169679,170,842500000,imu_link,-0.0046324476674962705,0.003544310725821963,-0.0008992941882994027,0.9999825846283774,0.0,0.0,0.0,0.0,0.0,0.0,0.0,0.0,0.0,2.2280880116309398e-05,-0.06745597599565689,-0.001361059428524073,0.0,0.0,0.0,0.0,0.0,0.0,0.0,0.0,0.0,-0.08728988364629421,-0.09288165291771713,9.822058062531427,0.0,0.0,0.0,0.0,0.0,0.0,0.0,0.0,0.0
170.844,169680,170,843500000,imu_link,-0.0046321731376823,0.0035118397672276014,-0.0008996453207267449,0.9999827001462419,0.0,0.0,0.0,0.0,0.0,0.0,0.0,0.0,0.0,7.408897949669077e-05,-0.07088726308920629,-0.0013869299856976716,0.0,0.0,0.0,0.0,0.0,0.0,0.0,0.0,0.0,-0.08710514658980836,-0.09297822983683407,9.821974155502728,0.0,0.0,0.0,0.0,0.0,0.0,0.0,0.0,0.0
170.84475,169681,170,844500000,imu_link,-0.0046318827557683155,0.0034776706807353214,-0.0009000005137458253,0.9999828205863581,0.0,0.0,0.0,0.0,0.0,0.0,0.0,0.0,0.0,0.00011909485557541502,-0.07430229452459987,-0.001411642594338491,0.0,0.0,0.0,0.0,0.0,0.0,0.0,0.0,0.0,-0.08675311273028041,-0.09303741048246417,9.822055224493843,0.0,0.0,0.0,0.0,0.0,0.0,0.0,0.0,0.0
170.84575,169682,170,845500000,imu_link,-0.004631573790105516,0.0034418594345465396,-0.0009003594566933329,0.9999829455949278,0.0,0.0,0.0,0.0,0.0,0.0,0.0,0.0,0.0,0.00016747300870592152,-0.07757406468942019,-0.0014356273152734715,0.0,0.0,0.0,0.0,0.0,0.0,0.0,0.0,0.0,-0.08464189594753392,-0.09294456719016508,9.821549489408113,0.0,0.0,0.0,0.0,0.0,0.0,0.0,0.0,0.0
170.8465,169683,170,846500000,imu_link,-0.004631252016254915,0.0034044275395802757,-0.0009007214455249259,0.999983074896154,0.0,0.0,0.0,0.0,0.0,0.0,0.0,0.0,0.0,0.0002064380880978137,-0.08082700469822902,-0.0014584779972486351,0.0,0.0,0.0,0.0,0.0,0.0,0.0,0.0,0.0,-0.08417842467572646,-0.09295637854545907,9.82203750322186,0.0,0.0,0.0,0.0,0.0,0.0,0.0,0.0,0.0
170.848,169684,170,847500000,imu_link,-0.004630917913368578,0.003365385412227925,-0.0009010863913962328,0.99998320827083,0.0,0.0,0.0,0.0,0.0,0.0,0.0,0.0,0.0,0.00024328283807645095,-0.08406493105447557,-0.0014808268254647345,0.0,0.0,0.0,0.0,0.0,0.0,0.0,0.0,0.0,-0.08372912496314615,-0.09297373785821036,9.822377825088722,0.0,0.0,0.0,0.0,0.0,0.0,0.0,0.0,0.0
170.848,169685,170,848500000,imu_link,-0.004630573445042467,0.0033248020189019663,-0.0009014539497773035,0.9999833452922513,0.0,0.0,0.0,0.0,0.0,0.0,0.0,0.0,0.0,0.0002816044658237762,-0.08788206606358624,-0.0015063286642118172,0.0,0.0,0.0,0.0,0.0,0.0,0.0,0.0,0.0,-0.08687038564808452,-0.09316558350950532,9.822769691399685,0.0,0.0,0.0,0.0,0.0,0.0,0.0,0.0,0.0
170.85,169686,170,849500000,imu_link,-0.004630221981930489,0.003282701254201614,-0.0009018235715755933,0.9999834856791984,0.0,0.0,0.0,0.0,0.0,0.0,0.0,0.0,0.0,0.0003020124246838118,-0.09016050657681447,-0.0015209232348939489,0.0,0.0,0.0,0.0,0.0,0.0,0.0,0.0,0.0,-0.08628463665225866,-0.09318883611918902,9.823156992133612,0.0,0.0,0.0,0.0,0.0,0.0,0.0,0.0,0.0
170.85,169687,170,850500000,imu_link,-0.004629796782947331,0.003239116923316503,-0.0009021963650048432,0.9999836294385148,0.0,0.0,0.0,0.0,0.0,0.0,0.0,0.0,0.0,0.0005141332466423714,-0.09312120502606824,-0.0015403083783532632,0.0,0.0,0.0,0.0,0.0,0.0,0.0,0.0,0.0,-0.08359787626200299,-0.09248084425891231,9.81818578879609,0.0,0.0,0.0,0.0,0.0,0.0,0.0,0.0,0.0
170.852,169688,170,851500000,imu_link,-0.004629329313249266,0.0031941103814871158,-0.0009025708157019091,0.9999837760358431,0.0,0.0,0.0,0.0,0.0,0.0,0.0,0.0,0.0,0.0005396883342387747,-0.09667660791220725,-0.001561561817406224,0.0,0.0,0.0,0.0,0.0,0.0,0.0,0.0,0.0,-0.08021702951224402,-0.09305218513809992,9.822242648095143,0.0,0.0,0.0,0.0,0.0,0.0,0.0,0.0,0.0
170.8525,169689,170,852500000,imu_link,-0.004628837637028476,0.0031477250529673225,-0.0009029459418288017,0.9999839250596718,0.0,0.0,0.0,0.0,0.0,0.0,0.0,0.0,0.0,0.0006249870095308047,-0.09936741418439674,-0.0015748667026776026,0.0,0.0,0.0,0.0,0.0,0.0,0.0,0.0,0.0,-0.08178659836704935,-0.0930213336739172,9.818514008533104,0.0,0.0,0.0,0.0,0.0,0.0,0.0,0.0,0.0
