Time,header.seq,header.stamp.secs,header.stamp.nsecs,header.frame_id,name,position_0,position_1,position_2,position_3,position_4,position_5,position_6,position_7,position_8,position_9,position_10,position_11,position_12,position_13,position_14,position_15,velocity_0,velocity_1,velocity_2,velocity_3,velocity_4,velocity_5,velocity_6,velocity_7,velocity_8,velocity_9,velocity_10,velocity_11,velocity_12,velocity_13,velocity_14,velocity_15,effort_0,effort_1,effort_2,effort_3,effort_4,effort_5,effort_6,effort_7,effort_8,effort_9,effort_10,effort_11,effort_12,effort_13,effort_14,effort_15
1646243400.9286308,7724,1646243400,926953165,,"['FL0', 'FL1', 'FL2', 'FR0', 'FR1', 'FR2', 'RL0', 'RL1', 'RL2', 'RR0', 'RR1', 'RR2', 'FL_foot', 'FR_foot', 'RL_foot', 'RR_foot']",0.10750508308410645,1.027134895324707,-2.1495959758758545,-0.1751435101032257,0.9644269943237305,-2.109687328338623,0.0605584979057312,1.046478033065796,-2.1521666049957275,-0.11740852892398834,1.0125114917755127,-2.1177785396575928,0.0,0.0,0.0,0.0,-0.08155906200408936,-0.002575549529865384,-0.03434066101908684,-0.021462909877300262,-0.0223214291036129,0.10645604133605957,-0.0008585164323449135,0.11246565729379654,-0.006009615492075682,-0.08155906200408936,0.04979395493865013,0.0223214291036129,0.0,0.0,0.0,0.0,-3.41015625,0.28125,7.21484375,2.44921875,0.6015625,4.51171875,-3.48046875,0.2109375,8.31640625,2.734375,0.35546875,6.04296875,29.8,33.2,48.0,35.0
1646243400.9297562,7725,1646243400,929192699,,"['FL0', 'FL1', 'FL2', 'FR0', 'FR1', 'FR2', 'RL0', 'RL1', 'RL2', 'RR0', 'RR1', 'RR2', 'FL_foot', 'FR_foot', 'RL_foot', 'RR_foot']",0.10750508308410645,1.027092695236206,-2.1495537757873535,-0.1751435101032257,0.9644269943237305,-2.109729290008545,0.0605584979057312,1.046478033065796,-2.1521244049072266,-0.11740852892398834,1.0125114917755127,-2.1178207397460938,0.0,0.0,0.0,0.0,-0.024038460105657578,-0.19917581975460052,0.048076923936605453,0.0,-0.0,-0.0,0.09958790242671967,0.01373626384884119,-0.09014423191547394,-0.02833104133605957,0.04550137370824814,-0.10817307978868484,0.0,0.0,0.0,0.0,-2.94921875,0.390625,7.42578125,2.59375,0.49609375,4.7265625,-3.765625,0.42578125,8.31640625,2.84375,0.42578125,6.2890625,30.0,33.2,48.0,35.2
1646243400.9319196,7726,1646243400,931427155,,"['FL0', 'FL1', 'FL2', 'FR0', 'FR1', 'FR2', 'RL0', 'RL1', 'RL2', 'RR0', 'RR1', 'RR2', 'FL_foot', 'FR_foot', 'RL_foot', 'RR_foot']",0.10750508308410645,1.027092695236206,-2.1495537757873535,-0.1751435101032257,0.9643847942352295,-2.109729290008545,0.0605584979057312,1.046436071395874,-2.1519980430603027,-0.11740852892398834,1.0124692916870117,-2.1178207397460938,0.0,0.0,0.0,0.0,0.14852334558963776,-0.13478708267211914,-0.13307005167007446,0.006868131458759308,-0.10645604133605957,0.002575549529865384,0.02833104133605957,-0.0446428582072258,0.1828640103340149,0.019745878875255585,-0.04378434270620346,-0.053228020668029785,0.0,0.0,0.0,0.0,-3.3046875,0.28125,7.28515625,2.87890625,0.49609375,4.7265625,-3.4453125,0.28125,8.2109375,2.8046875,0.42578125,5.96875,30.0,33.4,48.0,35.2
1646243400.934111,7727,1646243400,933700126,,"['FL0', 'FL1', 'FL2', 'FR0', 'FR1', 'FR2', 'RL0', 'RL1', 'RL2', 'RR0', 'RR1', 'RR2', 'FL_foot', 'FR_foot', 'RL_foot', 'RR_foot']",0.10746293514966965,1.027134895324707,-2.1495118141174316,-0.1751435101032257,0.9644269943237305,-2.109729290008545,0.0605584979057312,1.046436071395874,-2.1519980430603027,-0.11745066940784454,1.0124692916870117,-2.1178207397460938,0.0,0.0,0.0,0.0,0.0,-0.0008585164905525744,0.0,0.005151098594069481,-0.01116071455180645,-0.0,0.0446428544819355,-0.0008585164905525744,0.0017170329811051488,-0.013736262917518616,-0.08585164695978165,-0.030906593427062035,0.0,0.0,0.0,0.0,-3.19921875,0.24609375,7.1796875,2.734375,0.63671875,4.62109375,-3.66015625,0.24609375,8.38671875,2.62890625,0.35546875,6.2890625,29.8,33.6,48.0,35.2
1646243400.9363956,7728,1646243400,935941030,,"['FL0', 'FL1', 'FL2', 'FR0', 'FR1', 'FR2', 'RL0', 'RL1', 'RL2', 'RR0', 'RR1', 'RR2', 'FL_foot', 'FR_foot', 'RL_foot', 'RR_foot']",0.10746293514966965,1.027134895324707,-2.1494696140289307,-0.1751435101032257,0.9644269943237305,-2.109729290008545,0.060516357421875,1.046436071395874,-2.151956081390381,-0.11745066940784454,1.0125114917755127,-2.1178207397460938,0.0,0.0,0.0,0.0,0.05151098594069481,-0.01717033050954342,0.0,0.07383241504430771,0.019745878875255585,-0.0,-0.05065247043967247,0.0,0.006009615492075682,0.07039834558963776,0.015453296713531017,-0.0,0.0,0.0,0.0,0.0,-3.41015625,0.24609375,7.109375,2.48828125,0.4609375,4.76171875,-3.4453125,0.24609375,8.28125,2.9140625,0.17578125,6.00390625,29.6,33.6,48.0,35.4
1646243400.9384966,7729,1646243400,938190055,,"['FL0', 'FL1', 'FL2', 'FR0', 'FR1', 'FR2', 'RL0', 'RL1', 'RL2', 'RR0', 'RR1', 'RR2', 'FL_foot', 'FR_foot', 'RL_foot', 'RR_foot']",0.10742079466581345,1.027092695236206,-2.1494274139404297,-0.1751435101032257,0.9644691944122314,-2.109729290008545,0.060516357421875,1.046436071395874,-2.151871681213379,-0.11745066940784454,1.0125114917755127,-2.1178207397460938,0.0,0.0,0.0,0.0,-0.1493818610906601,-0.06181318685412407,0.0,-0.09100273996591568,0.14251373708248138,-0.0,0.02833104133605957,0.0,-0.053228020668029785,-0.007726647891104221,0.005151099059730768,-0.04635988920927048,0.0,0.0,0.0,0.0,-3.234375,0.10546875,7.1796875,2.2734375,0.53125,4.4765625,-3.8359375,0.24609375,8.6015625,2.87890625,0.2109375,6.00390625,29.4,33.8,48.0,35.4
1646243400.9409037,7730,1646243400,940501429,,"['FL0', 'FL1', 'FL2', 'FR0', 'FR1', 'FR2', 'RL0', 'RL1', 'RL2', 'RR0', 'RR1', 'RR2', 'FL_foot', 'FR_foot', 'RL_foot', 'RR_foot']",0.10746293514966965,1.027134895324707,-2.1494274139404297,-0.1751435101032257,0.9644269943237305,-2.109771490097046,0.0604742169380188,1.046436071395874,-2.151787281036377,-0.11745066940784454,1.0125114917755127,-2.1178207397460938,0.0,0.0,0.0,0.0,0.009443680755794048,0.11847527325153351,-0.018028846010565758,0.12877745926380157,0.014594780281186104,-0.1407967060804367,-0.01717032864689827,0.09186126291751862,-0.03777472674846649,0.030906591564416885,0.015453296713531017,0.02317994460463524,0.0,0.0,0.0,0.0,-3.08984375,0.28125,7.1796875,2.44921875,0.63671875,4.796875,-3.8359375,0.140625,8.31640625,2.734375,0.35546875,5.8984375,29.2,33.8,48.0,35.4
1646243400.9432251,7731,1646243400,942778160,,"['FL0', 'FL1', 'FL2', 'FR0', 'FR1', 'FR2', 'RL0', 'RL1', 'RL2', 'RR0', 'RR1', 'RR2', 'FL_foot', 'FR_foot', 'RL_foot', 'RR_foot']",0.10742079466581345,1.027092695236206,-2.1493852138519287,-0.1751856654882431,0.9644269943237305,-2.109771490097046,0.060516357421875,1.046393871307373,-2.1516189575195312,-0.11745066940784454,1.0125114917755127,-2.1177785396575928,0.0,0.0,0.0,0.0,-0.1648351550102234,0.0,0.005151099059730768,0.0008585164323449135,-0.002575549529865384,-0.07211538404226303,0.03863323852419853,-0.015453296713531017,0.11589972674846649,0.024038460105657578,0.02317994460463524,0.13564559817314148,0.0,0.0,0.0,0.0,-3.08984375,0.31640625,7.3203125,2.34375,0.35546875,4.65625,-3.80078125,0.0,8.24609375,2.9140625,0.24609375,5.828125,29.0,33.6,48.0,35.6
1646243400.9456582,7732,1646243400,945052985,,"['FL0', 'FL1', 'FL2', 'FR0', 'FR1', 'FR2', 'RL0', 'RL1', 'RL2', 'RR0', 'RR1', 'RR2', 'FL_foot', 'FR_foot', 'RL_foot', 'RR_foot']",0.10746293514966965,1.027050495147705,-2.1493430137634277,-0.1751856654882431,0.9644269943237305,-2.109771490097046,0.0604742169380188,1.046393871307373,-2.1515767574310303,-0.11745066940784454,1.0124692916870117,-2.1178207397460938,0.0,0.0,0.0,0.0,0.0,-0.16483516991138458,0.02317994460463524,0.048935435712337494,0.048076923936605453,-0.006009615492075682,-0.001717032864689827,0.02833104506134987,0.04292582347989082,0.0334821417927742,-0.13307005167007446,-0.012877747416496277,0.0,0.0,0.0,0.0,-2.84375,0.56640625,7.1796875,2.203125,0.28125,4.62109375,-3.33984375,0.10546875,8.28125,2.8046875,0.17578125,6.078125,29.0,33.4,48.0,35.8
1646243400.9474745,7733,1646243400,947263387,,"['FL0', 'FL1', 'FL2', 'FR0', 'FR1', 'FR2', 'RL0', 'RL1', 'RL2', 'RR0', 'RR1', 'RR2', 'FL_foot', 'FR_foot', 'RL_foot', 'RR_foot']",0.10746293514966965,1.027092695236206,-2.1493430137634277,-0.1752278059720993,0.9643847942352295,-2.109771490097046,0.060516357421875,1.046393871307373,-2.1515345573425293,-0.11745066940784454,1.0125114917755127,-2.1178207397460938,0.0,0.0,0.0,0.0,-0.09271977841854095,0.07640796899795532,0.0,0.04635988920927048,-0.07726648449897766,-0.03434066101908684,0.010302197188138962,0.0,0.019745878875255585,-0.0,0.02747252769768238,-0.07640796899795532,0.0,0.0,0.0,0.0,-3.19921875,0.24609375,7.0,2.09375,0.4609375,4.62109375,-3.4453125,0.140625,8.45703125,2.8046875,0.31640625,6.25390625,29.0,33.2,48.0,35.8
1646243400.9498777,7734,1646243400,949482774,,"['FL0', 'FL1', 'FL2', 'FR0', 'FR1', 'FR2', 'RL0', 'RL1', 'RL2', 'RR0', 'RR1', 'RR2', 'FL_foot', 'FR_foot', 'RL_foot', 'RR_foot']",0.10750508308410645,1.027050495147705,-2.1493430137634277,-0.1752278059720993,0.9644269943237305,-2.109771490097046,0.060516357421875,1.046393871307373,-2.1514923572540283,-0.11749280989170074,1.0125114917755127,-2.1178627014160156,0.0,0.0,0.0,0.0,0.1047390028834343,-0.13478708267211914,-0.04292582347989082,0.10216345638036728,0.11332418024539948,-0.03863324224948883,-0.0,-0.03863324224948883,-0.04635988920927048,-0.11246564984321594,0.0017170329811051488,-0.16912774741649628,0.0,0.0,0.0,0.0,-2.94921875,0.42578125,7.28515625,2.48828125,0.49609375,4.7265625,-3.515625,0.31640625,8.53125,2.984375,0.24609375,6.50390625,28.8,33.0,48.0,36.0
1646243400.9521859,7735,1646243400,951748991,,"['FL0', 'FL1', 'FL2', 'FR0', 'FR1', 'FR2', 'RL0', 'RL1', 'RL2', 'RR0', 'RR1', 'RR2', 'FL_foot', 'FR_foot', 'RL_foot', 'RR_foot']",0.10750508308410645,1.027050495147705,-2.149301052093506,-0.1752699464559555,0.9644269943237305,-2.109771490097046,0.060516357421875,1.046351671218872,-2.1514081954956055,-0.11745066940784454,1.0125534534454346,-2.1178207397460938,0.0,0.0,0.0,0.0,0.12791894376277924,0.0,0.10216346383094788,-0.14337223768234253,0.04035027325153351,-0.0,0.1519574075937271,-0.08756868541240692,0.08671016246080399,0.019745878875255585,0.1296359896659851,-0.0017170329811051488,0.0,0.0,0.0,0.0,-2.984375,0.35546875,6.9296875,2.30859375,0.56640625,4.796875,-3.625,0.28125,8.4921875,2.734375,0.53125,6.11328125,28.6,32.8,48.0,36.0
1646243400.954361,7736,1646243400,954020112,,"['FL0', 'FL1', 'FL2', 'FR0', 'FR1', 'FR2', 'RL0', 'RL1', 'RL2', 'RR0', 'RR1', 'RR2', 'FL_foot', 'FR_foot', 'RL_foot', 'RR_foot']",0.10746293514966965,1.027050495147705,-2.149258852005005,-0.1752699464559555,0.9644269943237305,-2.109729290008545,0.060516357421875,1.046351671218872,-2.1513659954071045,-0.11745066940784454,1.0125114917755127,-2.1178207397460938,0.0,0.0,0.0,0.0,0.0,0.0,0.078125,-0.12534339725971222,0.10989011079072952,0.048076923936605453,0.1047390028834343,-0.1004464328289032,0.020604396238923073,-0.048076920211315155,0.053228020668029785,-0.03262362629175186,0.0,0.0,0.0,0.0,-3.26953125,0.390625,7.0703125,2.44921875,0.53125,4.7265625,-3.48046875,0.17578125,8.3515625,3.125,0.49609375,6.21875,28.2,32.6,48.0,36.0
1646243400.9566796,7737,1646243400,956230639,,"['FL0', 'FL1', 'FL2', 'FR0', 'FR1', 'FR2', 'RL0', 'RL1', 'RL2', 'RR0', 'RR1', 'RR2', 'FL_foot', 'FR_foot', 'RL_foot', 'RR_foot']",0.10746293514966965,1.027050495147705,-2.149258852005005,-0.1752278059720993,0.9644269943237305,-2.109771490097046,0.0604742169380188,1.046309471130371,-2.1514081954956055,-0.11745066940784454,1.0124692916870117,-2.1178207397460938,0.0,0.0,0.0,0.0,-0.019745878875255585,0.09100274741649628,0.07554945349693298,-0.026614010334014893,0.06524725258350372,-0.026614010334014893,-0.006868131458759308,-0.09529533237218857,-0.16826923191547394,0.024896975606679916,-0.07297389954328537,-0.09958790987730026,0.0,0.0,0.0,0.0,-3.3046875,0.2109375,7.0703125,2.44921875,0.42578125,4.7265625,-3.41015625,0.140625,8.24609375,3.08984375,0.28125,6.3984375,28.0,32.6,48.0,36.0
1646243400.9589283,7738,1646243400,958539518,,"['FL0', 'FL1', 'FL2', 'FR0', 'FR1', 'FR2', 'RL0', 'RL1', 'RL2', 'RR0', 'RR1', 'RR2', 'FL_foot', 'FR_foot', 'RL_foot', 'RR_foot']",0.10746293514966965,1.027008295059204,-2.149258852005005,-0.1751856654882431,0.9644269943237305,-2.109771490097046,0.0604742169380188,1.046309471130371,-2.1513659954071045,-0.11745066940784454,1.0124692916870117,-2.1178207397460938,0.0,0.0,0.0,0.0,-0.01459477934986353,-0.04550137370824814,0.014594780281186104,0.05837911739945412,0.04035027325153351,-0.04550137370824814,-0.03434065729379654,0.0,0.0,0.06438872963190079,-0.06353022158145905,-0.02833104506134987,0.0,0.0,0.0,0.0,-3.0546875,0.2109375,6.96484375,2.48828125,0.6015625,5.08203125,-3.58984375,0.28125,8.24609375,2.984375,0.24609375,6.2890625,27.8,32.4,48.0,36.0
1646243400.9611886,7739,1646243400,960799327,,"['FL0', 'FL1', 'FL2', 'FR0', 'FR1', 'FR2', 'RL0', 'RL1', 'RL2', 'RR0', 'RR1', 'RR2', 'FL_foot', 'FR_foot', 'RL_foot', 'RR_foot']",0.10746293514966965,1.027008295059204,-2.149258852005005,-0.1752278059720993,0.9643847942352295,-2.109771490097046,0.0604742169380188,1.0462675094604492,-2.1513659954071045,-0.11745066940784454,1.0124692916870117,-2.1178207397460938,0.0,0.0,0.0,0.0,-0.042067304253578186,0.04893543943762779,-0.12105082720518112,0.0,-0.03949175775051117,-0.002575549529865384,-0.06438872963190079,-0.0017170329811051488,-0.005151099059730768,0.06009615212678909,-0.06181318685412407,-0.025755494832992554,0.0,0.0,0.0,0.0,-3.234375,0.2109375,7.25,2.5234375,0.31640625,4.76171875,-3.4453125,0.17578125,8.17578125,2.734375,0.24609375,6.18359375,27.6,32.4,47.8,36.0
1646243401.0014918,7740,1646243400,962996916,,"['FL0', 'FL1', 'FL2', 'FR0', 'FR1', 'FR2', 'RL0', 'RL1', 'RL2', 'RR0', 'RR1', 'RR2', 'FL_foot', 'FR_foot', 'RL_foot', 'RR_foot']",0.10746293514966965,1.0269663333892822,-2.149216651916504,-0.1752278059720993,0.9644269943237305,-2.109771490097046,0.060516357421875,1.0462675094604492,-2.1513237953186035,-0.11745066940784454,1.0124692916870117,-2.1177785396575928,0.0,0.0,0.0,0.0,0.0,-0.059237636625766754,0.0008585164905525744,-0.04120878875255585,0.10302197933197021,-0.030906593427062035,0.025755492970347404,0.12362637370824814,0.030906593427062035,0.02833104133605957,-0.0558035708963871,0.06009615585207939,0.0,0.0,0.0,0.0,-3.125,0.24609375,6.9296875,2.55859375,0.56640625,4.9765625,-3.6953125,0.24609375,8.13671875,2.984375,0.17578125,6.11328125,27.6,32.6,47.6,36.0
1646243401.0015452,7741,1646243400,965207080,,"['FL0', 'FL1', 'FL2', 'FR0', 'FR1', 'FR2', 'RL0', 'RL1', 'RL2', 'RR0', 'RR1', 'RR2', 'FL_foot', 'FR_foot', 'RL_foot', 'RR_foot']",0.10750508308410645,1.0269663333892822,-2.149216651916504,-0.1751856654882431,0.9643847942352295,-2.109729290008545,0.060516357421875,1.0462253093719482,-2.1513659954071045,-0.11745066940784454,1.0124692916870117,-2.1178207397460938,0.0,0.0,0.0,0.0,0.10302197188138962,-0.05065247416496277,-0.16826923191547394,0.0,-0.07554945349693298,0.07383241504430771,-0.0,-0.07984203100204468,-0.0008585164905525744,-0.0,-0.08499313145875931,-0.07640796899795532,0.0,0.0,0.0,0.0,-3.08984375,0.31640625,7.03515625,2.37890625,0.63671875,5.2578125,-3.41015625,0.17578125,8.1015625,2.984375,0.24609375,6.21875,27.8,32.8,47.4,36.2
1646243401.001569,7742,1646243400,967492395,,"['FL0', 'FL1', 'FL2', 'FR0', 'FR1', 'FR2', 'RL0', 'RL1', 'RL2', 'RR0', 'RR1', 'RR2', 'FL_foot', 'FR_foot', 'RL_foot', 'RR_foot']",0.10746293514966965,1.0269663333892822,-2.149174690246582,-0.1751856654882431,0.9644269943237305,-2.109771490097046,0.060516357421875,1.0462675094604492,-2.1513237953186035,-0.11745066940784454,1.0124692916870117,-2.1178207397460938,0.0,0.0,0.0,0.0,-0.12105081975460052,0.012877747416496277,-0.11761675775051117,-0.024038460105657578,0.007726648356765509,-0.012019230984151363,-0.025755492970347404,0.0034340659622102976,0.048076923936605453,-0.0,-0.0935782939195633,-0.06095467135310173,0.0,0.0,0.0,0.0,-2.984375,0.390625,6.89453125,2.30859375,0.63671875,4.83203125,-3.234375,0.03515625,8.2109375,2.9140625,0.35546875,6.359375,27.6,32.8,47.2,36.2
1646243401.0015821,7743,1646243400,969759582,,"['FL0', 'FL1', 'FL2', 'FR0', 'FR1', 'FR2', 'RL0', 'RL1', 'RL2', 'RR0', 'RR1', 'RR2', 'FL_foot', 'FR_foot', 'RL_foot', 'RR_foot']",0.10750508308410645,1.0269241333007812,-2.149132490158081,-0.1751856654882431,0.9643847942352295,-2.109729290008545,0.060516357421875,1.0462675094604492,-2.1513237953186035,-0.11745066940784454,1.0124692916870117,-2.1177785396575928,0.0,0.0,0.0,0.0,0.0,-0.06610576808452606,0.05065247416496277,0.048935435712337494,-0.1339285671710968,0.0558035708963871,-0.11761675029993057,0.12877747416496277,0.006009615492075682,-0.0,-0.15968406200408936,0.0008585164905525744,0.0,0.0,0.0,0.0,-2.8046875,0.24609375,6.859375,2.44921875,0.4609375,5.22265625,-3.41015625,0.390625,8.17578125,2.8046875,0.2109375,6.50390625,27.4,33.0,47.0,36.4
1646243401.0015965,7744,1646243400,972006690,,"['FL0', 'FL1', 'FL2', 'FR0', 'FR1', 'FR2', 'RL0', 'RL1', 'RL2', 'RR0', 'RR1', 'RR2', 'FL_foot', 'FR_foot', 'RL_foot', 'RR_foot']",0.10750508308410645,1.0269241333007812,-2.149174690246582,-0.1751856654882431,0.9644269943237305,-2.109729290008545,0.0605584979057312,1.0462253093719482,-2.1513237953186035,-0.11740852892398834,1.0125114917755127,-2.1177785396575928,0.0,0.0,0.0,0.0,-0.10645604133605957,-0.0017170329811051488,-0.06782279908657074,0.003434065729379654,0.07984203100204468,0.06953983753919601,-0.0,0.0,0.0,0.15710850059986115,0.09615384787321091,0.036916207522153854,0.0,0.0,0.0,0.0,-2.87890625,0.24609375,6.6796875,2.55859375,0.8515625,5.29296875,-3.375,0.2109375,8.28125,2.94921875,0.35546875,6.609375,27.2,33.0,47.0,36.4
1646243401.0016873,7745,1646243400,974217216,,"['FL0', 'FL1', 'FL2', 'FR0', 'FR1', 'FR2', 'RL0', 'RL1', 'RL2', 'RR0', 'RR1', 'RR2', 'FL_foot', 'FR_foot', 'RL_foot', 'RR_foot']",0.10754722356796265,1.0269241333007812,-2.149174690246582,-0.1751856654882431,0.9643847942352295,-2.109729290008545,0.0605584979057312,1.0462253093719482,-2.1513237953186035,-0.11745066940784454,1.0124692916870117,-2.1177785396575928,0.0,0.0,0.0,0.0,0.003434065729379654,0.009443681687116623,-0.08070054650306702,0.010302197188138962,-0.1339285671710968,0.1073145642876625,0.030906591564416885,0.020604396238923073,-0.01373626384884119,-0.03262362629175186,-0.15539148449897766,0.010302198119461536,0.0,0.0,0.0,0.0,-2.84375,0.390625,6.7890625,2.44921875,0.390625,4.9375,-3.19921875,0.0703125,8.38671875,3.125,0.31640625,6.7890625,27.0,33.0,47.0,36.4
1646243401.0017126,7746,1646243400,976434333,,"['FL0', 'FL1', 'FL2', 'FR0', 'FR1', 'FR2', 'RL0', 'RL1', 'RL2', 'RR0', 'RR1', 'RR2', 'FL_foot', 'FR_foot', 'RL_foot', 'RR_foot']",0.10754722356796265,1.0269241333007812,-2.149132490158081,-0.1751856654882431,0.9644269943237305,-2.109729290008545,0.0605584979057312,1.0462253093719482,-2.1513237953186035,-0.11745066940784454,1.0125114917755127,-2.1177785396575928,0.0,0.0,0.0,0.0,0.0,0.0,0.06524725258350372,0.0,0.018028846010565758,0.10473901033401489,-0.06181318312883377,0.06353022158145905,0.03863324224948883,-0.03863323852419853,0.06868132203817368,-0.06009615585207939,0.0,0.0,0.0,0.0,-2.69921875,0.42578125,6.57421875,2.6640625,0.49609375,5.01171875,-3.08984375,0.390625,8.03125,3.125,0.2109375,6.6796875,26.6,33.0,47.0,36.2
1646243401.0017378,7747,1646243400,978625333,,"['FL0', 'FL1', 'FL2', 'FR0', 'FR1', 'FR2', 'RL0', 'RL1', 'RL2', 'RR0', 'RR1', 'RR2', 'FL_foot', 'FR_foot', 'RL_foot', 'RR_foot']",0.10754722356796265,1.0269241333007812,-2.149174690246582,-0.1751856654882431,0.9644269943237305,-2.109729290008545,0.0605584979057312,1.0462253093719482,-2.1513237953186035,-0.11745066940784454,1.0125114917755127,-2.1177785396575928,0.0,0.0,0.0,0.0,0.012019230052828789,0.07640796899795532,-0.01373626384884119,0.0,0.053228020668029785,0.06953983753919601,-0.09872938692569733,0.01631181314587593,0.012019230984151363,-0.11675823479890823,0.012019230984151363,-0.0,0.0,0.0,0.0,0.0,-2.84375,0.24609375,6.71484375,2.5234375,0.74609375,5.29296875,-3.125,0.35546875,7.9609375,3.01953125,0.53125,6.50390625,26.6,33.0,47.0,36.2
1646243401.00177,7748,1646243400,980895601,,"['FL0', 'FL1', 'FL2', 'FR0', 'FR1', 'FR2', 'RL0', 'RL1', 'RL2', 'RR0', 'RR1', 'RR2', 'FL_foot', 'FR_foot', 'RL_foot', 'RR_foot']",0.10754722356796265,1.0269241333007812,-2.149132490158081,-0.1751435101032257,0.9644269943237305,-2.109729290008545,0.06064283847808838,1.0462675094604492,-2.1513237953186035,-0.11745066940784454,1.0125114917755127,-2.1177785396575928,0.0,0.0,0.0,0.0,-0.015453295782208443,0.0223214291036129,0.015453296713531017,0.04550136998295784,0.05494505539536476,0.002575549529865384,0.13221153616905212,0.1382211595773697,0.019745878875255585,-0.0781249925494194,0.02146291173994541,0.0034340659622102976,0.0,0.0,0.0,0.0,-2.84375,0.390625,6.89453125,2.734375,0.63671875,5.1171875,-3.16015625,0.24609375,7.9609375,3.08984375,0.390625,6.7890625,26.6,33.0,47.0,36.0
1646243401.0019078,7749,1646243400,983182672,,"['FL0', 'FL1', 'FL2', 'FR0', 'FR1', 'FR2', 'RL0', 'RL1', 'RL2', 'RR0', 'RR1', 'RR2', 'FL_foot', 'FR_foot', 'RL_foot', 'RR_foot']",0.10754722356796265,1.0269241333007812,-2.149132490158081,-0.1751435101032257,0.9644269943237305,-2.109771490097046,0.06064283847808838,1.0462253093719482,-2.1513659954071045,-0.11745066940784454,1.0125114917755127,-2.1177785396575928,0.0,0.0,0.0,0.0,-0.054086536169052124,0.018028846010565758,0.041208792477846146,0.012877746485173702,0.030906593427062035,-0.15710851550102234,0.0025755492970347404,0.0,-0.06953983753919601,-0.1742788404226303,-0.0,-0.012877747416496277,0.0,0.0,0.0,0.0,-2.69921875,0.390625,6.9296875,2.6640625,0.6015625,5.47265625,-3.234375,0.4609375,7.8203125,3.16015625,0.35546875,6.64453125,26.8,33.2,47.0,36.0
1646243401.0019674,7750,1646243400,985429582,,"['FL0', 'FL1', 'FL2', 'FR0', 'FR1', 'FR2', 'RL0', 'RL1', 'RL2', 'RR0', 'RR1', 'RR2', 'FL_foot', 'FR_foot', 'RL_foot', 'RR_foot']",0.10758936405181885,1.0269241333007812,-2.149132490158081,-0.1751435101032257,0.9644269943237305,-2.109729290008545,0.06064283847808838,1.0461831092834473,-2.1513237953186035,-0.11736638098955154,1.0125114917755127,-2.1177785396575928,0.0,0.0,0.0,0.0,0.12791894376277924,0.005151099059730768,0.0017170329811051488,0.09529532492160797,0.004292582627385855,0.01631181314587593,-0.02232142724096775,-0.10559752583503723,0.036916207522153854,0.08585163950920105,0.024038461968302727,-0.03176511079072952,0.0,0.0,0.0,0.0,-2.87890625,0.390625,6.6796875,2.8046875,0.53125,5.33203125,-3.0546875,0.31640625,7.60546875,3.125,0.42578125,6.50390625,26.8,33.4,46.8,36.0
1646243401.0020666,7751,1646243400,987654123,,"['FL0', 'FL1', 'FL2', 'FR0', 'FR1', 'FR2', 'RL0', 'RL1', 'RL2', 'RR0', 'RR1', 'RR2', 'FL_foot', 'FR_foot', 'RL_foot', 'RR_foot']",0.10758936405181885,1.0268819332122803,-2.149132490158081,-0.1751435101032257,0.9644269943237305,-2.109771490097046,0.0606006383895874,1.0462253093719482,-2.1513659954071045,-0.11740852892398834,1.0125114917755127,-2.117736339569092,0.0,0.0,0.0,0.0,0.03434065729379654,-0.1519574224948883,0.0,-0.10216345638036728,0.06353022158145905,-0.15453296899795532,-0.16140109300613403,-0.0008585164905525744,-0.06868132203817368,0.015453295782208443,-0.007726648356765509,0.09701236337423325,0.0,0.0,0.0,0.0,-2.76953125,0.390625,6.50390625,2.69921875,0.49609375,5.4375,-3.125,0.35546875,7.85546875,3.19921875,0.28125,6.50390625,27.0,33.6,46.6,36.2
1646243401.0020897,7752,1646243400,989901089,,"['FL0', 'FL1', 'FL2', 'FR0', 'FR1', 'FR2', 'RL0', 'RL1', 'RL2', 'RR0', 'RR1', 'RR2', 'FL_foot', 'FR_foot', 'RL_foot', 'RR_foot']",0.10758936405181885,1.0269241333007812,-2.149174690246582,-0.1751013696193695,0.9644269943237305,-2.109729290008545,0.06064283847808838,1.0461831092834473,-2.1513659954071045,-0.11740852892398834,1.0125114917755127,-2.117736339569092,0.0,0.0,0.0,0.0,0.0,0.012019230984151363,-0.002575549529865384,0.04550136998295784,-0.0,-0.0,0.01631181314587593,-0.05494505539536476,0.08327610045671463,-0.11332416534423828,-0.0,0.058379121124744415,0.0,0.0,0.0,0.0,-2.734375,0.42578125,6.359375,2.76953125,0.42578125,5.54296875,-3.01953125,0.28125,7.60546875,3.125,0.31640625,6.71484375,27.0,33.6,46.4,36.4
1646243401.002479,7753,1646243400,992144810,,"['FL0', 'FL1', 'FL2', 'FR0', 'FR1', 'FR2', 'RL0', 'RL1', 'RL2', 'RR0', 'RR1', 'RR2', 'FL_foot', 'FR_foot', 'RL_foot', 'RR_foot']",0.10763150453567505,1.0269241333007812,-2.149174690246582,-0.1751435101032257,0.9644269943237305,-2.109729290008545,0.06064283847808838,1.0462253093719482,-2.1513237953186035,-0.11740852892398834,1.0125114917755127,-2.117736339569092,0.0,0.0,0.0,0.0,0.03605768829584122,0.0017170329811051488,-0.09787087887525558,-0.03605768829584122,0.04893543943762779,0.007726648356765509,0.006009615026414394,0.05666209012269974,0.05151098966598511,-0.07211537659168243,0.002575549529865384,0.012877747416496277,0.0,0.0,0.0,0.0,-2.76953125,0.35546875,6.32421875,2.8046875,0.53125,5.61328125,-3.01953125,0.140625,7.92578125,3.16015625,0.49609375,6.7890625,27.0,33.6,46.2,36.6
1646243401.0025024,7754,1646243400,994461084,,"['FL0', 'FL1', 'FL2', 'FR0', 'FR1', 'FR2', 'RL0', 'RL1', 'RL2', 'RR0', 'RR1', 'RR2', 'FL_foot', 'FR_foot', 'RL_foot', 'RR_foot']",0.10763150453567505,1.0269241333007812,-2.149216651916504,-0.1751013696193695,0.9644269943237305,-2.109687328338623,0.06068497896194458,1.0461831092834473,-2.1513659954071045,-0.11736638098955154,1.0125114917755127,-2.117736339569092,0.0,0.0,0.0,0.0,-0.004292582161724567,0.0,-0.13478708267211914,0.05666208267211914,0.059237636625766754,0.15796703100204468,0.10559751838445663,-0.07898351550102234,0.0,0.06610576808452606,-0.0,-0.09443681687116623,0.0,0.0,0.0,0.0,-2.69921875,0.28125,6.50390625,2.62890625,0.53125,5.7578125,-3.08984375,0.0,7.8203125,3.19921875,0.2109375,6.64453125,27.0,33.4,46.2,36.8
1646243401.0025263,7755,1646243400,996741195,,"['FL0', 'FL1', 'FL2', 'FR0', 'FR1', 'FR2', 'RL0', 'RL1', 'RL2', 'RR0', 'RR1', 'RR2', 'FL_foot', 'FR_foot', 'RL_foot', 'RR_foot']",0.10767365247011185,1.0269241333007812,-2.149132490158081,-0.1751013696193695,0.9644269943237305,-2.109729290008545,0.06068497896194458,1.0462253093719482,-2.1513659954071045,-0.11736638098955154,1.0125114917755127,-2.117736339569092,0.0,0.0,0.0,0.0,-0.015453295782208443,0.0017170329811051488,0.10817307978868484,0.001717032864689827,0.01717033050954342,-0.019745878875255585,-0.048076920211315155,-0.014594780281186104,-0.019745878875255585,0.0025755492970347404,0.048076923936605453,-0.06181318685412407,0.0,0.0,0.0,0.0,-2.44921875,0.390625,6.21875,2.69921875,0.7109375,5.61328125,-2.9140625,0.2109375,7.53515625,3.234375,0.390625,6.859375,27.0,33.4,46.2,37.0
1646243401.0025518,7756,1646243400,998963676,,"['FL0', 'FL1', 'FL2', 'FR0', 'FR1', 'FR2', 'RL0', 'RL1', 'RL2', 'RR0', 'RR1', 'RR2', 'FL_foot', 'FR_foot', 'RL_foot', 'RR_foot']",0.10771579295396805,1.0269241333007812,-2.149216651916504,-0.1750170886516571,0.9644269943237305,-2.109729290008545,0.06072711944580078,1.0462253093719482,-2.1513659954071045,-0.11732424050569534,1.0125114917755127,-2.11769437789917,0.0,0.0,0.0,0.0,-0.0669642835855484,0.0223214291036129,-0.12190934270620346,0.16826921701431274,-0.030906593427062035,-0.009443681687116623,-0.0,0.09271977841854095,0.02146291173994541,0.09872938692569733,-0.0017170329811051488,0.06009615585207939,0.0,0.0,0.0,0.0,-2.44921875,0.31640625,6.32421875,3.0546875,0.6015625,5.578125,-2.984375,0.0703125,7.46484375,3.3046875,0.2109375,7.03515625,27.0,33.4,46.2,37.0
1646243401.0025928,7757,1646243401,1169971,,"['FL0', 'FL1', 'FL2', 'FR0', 'FR1', 'FR2', 'RL0', 'RL1', 'RL2', 'RR0', 'RR1', 'RR2', 'FL_foot', 'FR_foot', 'RL_foot', 'RR_foot']",0.10771579295396805,1.0269241333007812,-2.149174690246582,-0.1750170886516571,0.9644269943237305,-2.109687328338623,0.06076925992965698,1.0461831092834473,-2.1513659954071045,-0.11732424050569534,1.0125114917755127,-2.11769437789917,0.0,0.0,0.0,0.0,-0.10731455683708191,0.07640796899795532,-0.02747252769768238,0.03519917279481888,-0.04893543943762779,0.15281593799591064,0.0008585164323449135,-0.16569368541240692,0.05666209012269974,0.03949175775051117,-0.0,0.07640796899795532,0.0,0.0,0.0,0.0,-2.62890625,0.31640625,6.50390625,2.9140625,0.6015625,6.18359375,-2.69921875,0.0703125,7.42578125,3.16015625,0.4609375,6.71484375,27.0,33.6,46.2,37.0
1646243401.0037208,7758,1646243401,3366256,,"['FL0', 'FL1', 'FL2', 'FR0', 'FR1', 'FR2', 'RL0', 'RL1', 'RL2', 'RR0', 'RR1', 'RR2', 'FL_foot', 'FR_foot', 'RL_foot', 'RR_foot']",0.10775793343782425,1.0269241333007812,-2.149174690246582,-0.1749749481678009,0.9644269943237305,-2.109729290008545,0.060811400413513184,1.0461831092834473,-2.1514081954956055,-0.11732424050569534,1.0125114917755127,-2.11769437789917,0.0,0.0,0.0,0.0,-0.024038460105657578,0.01373626384884119,0.020604396238923073,0.07554944604635239,-0.06009615585207939,-0.10473901033401489,0.0781249925494194,-0.036057692021131516,0.03949175775051117,0.05065247043967247,-0.0,0.009443681687116623,0.0,0.0,0.0,0.0,-2.76953125,0.35546875,6.43359375,2.84375,0.671875,5.79296875,-2.94921875,0.28125,7.5,3.19921875,0.31640625,7.03515625,27.0,33.8,46.2,37.0
1646243401.0435286,7759,1646243401,5588701,,"['FL0', 'FL1', 'FL2', 'FR0', 'FR1', 'FR2', 'RL0', 'RL1', 'RL2', 'RR0', 'RR1', 'RR2', 'FL_foot', 'FR_foot', 'RL_foot', 'RR_foot']",0.10780007392168045,1.0268819332122803,-2.149174690246582,-0.1749749481678009,0.9644269943237305,-2.109687328338623,0.060811400413513184,1.0462253093719482,-2.1514501571655273,-0.11732424050569534,1.0125114917755127,-2.11769437789917,0.0,0.0,0.0,0.0,0.14337223768234253,-0.1253434121608734,0.030906593427062035,0.01631181314587593,-0.0,-0.0017170329811051488,0.004292582161724567,0.1073145642876625,-0.030906593427062035,0.006009615026414394,0.002575549529865384,-0.0,0.0,0.0,0.0,0.0,-2.62890625,0.31640625,6.078125,2.984375,0.56640625,5.86328125,-2.84375,0.31640625,7.35546875,3.33984375,0.2109375,6.9296875,27.0,34.0,46.0,36.8
1646243401.0435488,7760,1646243401,7843851,,"['FL0', 'FL1', 'FL2', 'FR0', 'FR1', 'FR2', 'RL0', 'RL1', 'RL2', 'RR0', 'RR1', 'RR2', 'FL_foot', 'FR_foot', 'RL_foot', 'RR_foot']",0.10784222185611725,1.0269241333007812,-2.149216651916504,-0.1749749481678009,0.9644269943237305,-2.109687328338623,0.060811400413513184,1.0461831092834473,-2.1514501571655273,-0.11728210002183914,1.0125114917755127,-2.11769437789917,0.0,0.0,0.0,0.0,0.0,0.0558035708963871,-0.078125,-0.05752060189843178,-0.06953983753919601,0.009443681687116623,-0.0,0.03777472674846649,-0.012019230984151363,0.005151098594069481,-0.006009615492075682,-0.12105082720518112,0.0,0.0,0.0,0.0,-2.62890625,0.17578125,6.078125,3.19921875,0.74609375,6.078125,-2.734375,0.24609375,7.390625,3.4453125,0.4609375,7.0703125,27.0,34.0,46.0,36.8
1646243401.0435698,7761,1646243401,10199340,,"['FL0', 'FL1', 'FL2', 'FR0', 'FR1', 'FR2', 'RL0', 'RL1', 'RL2', 'RR0', 'RR1', 'RR2', 'FL_foot', 'FR_foot', 'RL_foot', 'RR_foot']",0.10788436233997345,1.0269241333007812,-2.149216651916504,-0.1749749481678009,0.9644269943237305,-2.109645128250122,0.060811400413513184,1.0461831092834473,-2.1514501571655273,-0.11723995953798294,1.0125114917755127,-2.117652177810669,0.0,0.0,0.0,0.0,-0.04378433898091316,0.053228020668029785,-0.0626717060804367,-0.07383241504430771,0.048076923936605453,0.16912774741649628,-0.0,-0.03262362629175186,0.042067307978868484,0.01717032864689827,-0.01373626384884119,-0.030906593427062035,0.0,0.0,0.0,0.0,-2.34375,0.390625,6.18359375,3.01953125,0.4609375,5.86328125,-2.734375,0.17578125,7.0,3.4453125,0.140625,7.0703125,27.0,34.2,46.0,36.8
1646243401.0435803,7762,1646243401,12400724,,"['FL0', 'FL1', 'FL2', 'FR0', 'FR1', 'FR2', 'RL0', 'RL1', 'RL2', 'RR0', 'RR1', 'RR2', 'FL_foot', 'FR_foot', 'RL_foot', 'RR_foot']",0.10792650282382965,1.0269241333007812,-2.149174690246582,-0.1749328076839447,0.9644269943237305,-2.109687328338623,0.060853540897369385,1.0462253093719482,-2.1514501571655273,-0.11719781160354614,1.0125114917755127,-2.117609977722168,0.0,0.0,0.0,0.0,-0.03863323852419853,0.0008585164905525744,0.1339285671710968,0.01631181314587593,-0.0892857164144516,-0.0,0.024038460105657578,0.20690247416496277,0.0669642835855484,0.015453295782208443,-0.0034340659622102976,0.07726648449897766,0.0,0.0,0.0,0.0,-2.5234375,0.390625,6.11328125,3.19921875,0.63671875,6.00390625,-2.94921875,0.2109375,7.14453125,3.4453125,0.28125,7.21484375,27.2,34.4,46.0,36.8
1646243401.04359,7763,1646243401,14656614,,"['FL0', 'FL1', 'FL2', 'FR0', 'FR1', 'FR2', 'RL0', 'RL1', 'RL2', 'RR0', 'RR1', 'RR2', 'FL_foot', 'FR_foot', 'RL_foot', 'RR_foot']",0.10801078379154205,1.0269241333007812,-2.149216651916504,-0.1748906672000885,0.9644269943237305,-2.109687328338623,0.060853540897369385,1.0461831092834473,-2.1514923572540283,-0.11719781160354614,1.0125534534454346,-2.117652177810669,0.0,0.0,0.0,0.0,0.2120535522699356,0.0,-0.04035027325153351,0.03777472302317619,-0.08070054650306702,-0.041208792477846146,-0.048076920211315155,0.0,-0.10989011079072952,-0.0,0.13135302066802979,-0.0017170329811051488,0.0,0.0,0.0,0.0,-2.4140625,0.35546875,5.86328125,3.3046875,0.671875,6.04296875,-2.59375,0.17578125,7.25,3.515625,0.53125,7.25,27.4,34.4,46.0,36.8
1646243401.043598,7764,1646243401,16919200,,"['FL0', 'FL1', 'FL2', 'FR0', 'FR1', 'FR2', 'RL0', 'RL1', 'RL2', 'RR0', 'RR1', 'RR2', 'FL_foot', 'FR_foot', 'RL_foot', 'RR_foot']",0.10801078379154205,1.0269241333007812,-2.149216651916504,-0.1748485267162323,0.9644269943237305,-2.109645128250122,0.06093782186508179,1.0462253093719482,-2.1515345573425293,-0.11719781160354614,1.0125114917755127,-2.117609977722168,0.0,0.0,0.0,0.0,-0.05666208267211914,0.08499313145875931,0.0,0.06181318312883377,-0.010302198119461536,0.03262362629175186,0.0669642835855484,0.15625,-0.053228020668029785,-0.031765107065439224,-0.0,0.0008585164905525744,0.0,0.0,0.0,0.0,-2.4140625,0.24609375,6.00390625,3.19921875,0.49609375,6.32421875,-2.48828125,0.35546875,7.14453125,3.73046875,0.35546875,7.21484375,27.6,34.6,46.0,37.0
1646243401.0436049,7765,1646243401,19182029,,"['FL0', 'FL1', 'FL2', 'FR0', 'FR1', 'FR2', 'RL0', 'RL1', 'RL2', 'RR0', 'RR1', 'RR2', 'FL_foot', 'FR_foot', 'RL_foot', 'RR_foot']",0.10801078379154205,1.0268819332122803,-2.149216651916504,-0.1748485267162323,0.9644691944122314,-2.109645128250122,0.06093782186508179,1.0461831092834473,-2.1515345573425293,-0.11719781160354614,1.0125534534454346,-2.117609977722168,0.0,0.0,0.0,0.0,-0.06353021413087845,-0.0626717060804367,0.0,-0.020604394376277924,0.13307005167007446,-0.04635988920927048,-0.0025755492970347404,0.005151099059730768,0.06009615585207939,-0.13650411367416382,0.13307005167007446,-0.01717033050954342,0.0,0.0,0.0,0.0,-2.30859375,0.2109375,6.18359375,3.375,0.56640625,6.18359375,-2.59375,0.03515625,7.0,3.73046875,0.140625,7.25,27.8,34.8,46.0,37.0
1646243401.0436206,7766,1646243401,21492714,,"['FL0', 'FL1', 'FL2', 'FR0', 'FR1', 'FR2', 'RL0', 'RL1', 'RL2', 'RR0', 'RR1', 'RR2', 'FL_foot', 'FR_foot', 'RL_foot', 'RR_foot']",0.10805293172597885,1.0268819332122803,-2.149258852005005,-0.1748063713312149,0.9644691944122314,-2.109602928161621,0.06093782186508179,1.0461831092834473,-2.1515767574310303,-0.11715567111968994,1.0125114917755127,-2.117609977722168,0.0,0.0,0.0,0.0,0.06095466762781143,-0.1227678582072258,-0.16826923191547394,-0.018887361511588097,0.06782279908657074,0.15625,-0.0,0.0,-0.036916207522153854,0.001717032864689827,-0.019745878875255585,-0.030906593427062035,0.0,0.0,0.0,0.0,-2.5234375,0.42578125,6.04296875,3.3046875,0.63671875,6.04296875,-2.62890625,0.10546875,6.9296875,3.73046875,0.390625,7.28515625,28.0,35.0,46.0,37.0
1646243401.0436554,7767,1646243401,23788979,,"['FL0', 'FL1', 'FL2', 'FR0', 'FR1', 'FR2', 'RL0', 'RL1', 'RL2', 'RR0', 'RR1', 'RR2', 'FL_foot', 'FR_foot', 'RL_foot', 'RR_foot']",0.10805293172597885,1.0269241333007812,-2.149216651916504,-0.1747642308473587,0.9644269943237305,-2.109602928161621,0.06097996234893799,1.0461831092834473,-2.1515767574310303,-0.11711353063583374,1.0125114917755127,-2.117567777633667,0.0,0.0,0.0,0.0,-0.06095466762781143,0.03863324224948883,0.10473901033401489,0.11847526580095291,-0.042067307978868484,0.036916207522153854,0.13478708267211914,0.0,0.0,-0.09872938692569733,-0.0,-0.053228020668029785,0.0,0.0,0.0,0.0,-2.59375,0.28125,5.72265625,3.19921875,0.53125,6.18359375,-2.734375,0.10546875,6.96484375,3.9453125,0.671875,7.5,28.0,35.0,46.0,37.0
1646243401.0436628,7768,1646243401,26058346,,"['FL0', 'FL1', 'FL2', 'FR0', 'FR1', 'FR2', 'RL0', 'RL1', 'RL2', 'RR0', 'RR1', 'RR2', 'FL_foot', 'FR_foot', 'RL_foot', 'RR_foot']",0.10809507220983505,1.0269241333007812,-2.149258852005005,-0.1747220903635025,0.9644691944122314,-2.109602928161621,0.06093782186508179,1.0461409091949463,-2.1516189575195312,-0.11707139015197754,1.0125114917755127,-2.117483615875244,0.0,0.0,0.0,0.0,0.0025755492970347404,0.057520605623722076,-0.0017170329811051488,0.08413460850715637,0.030048077926039696,0.03949175775051117,-0.0,-0.16826923191547394,-0.15367445349693298,-0.012019230052828789,0.020604396238923073,0.15539148449897766,0.0,0.0,0.0,0.0,-2.48828125,0.24609375,5.93359375,3.48046875,0.53125,6.359375,-2.734375,0.2109375,6.89453125,3.87109375,0.10546875,7.1796875,28.0,35.2,46.2,37.0
1646243401.0437016,7769,1646243401,28247292,,"['FL0', 'FL1', 'FL2', 'FR0', 'FR1', 'FR2', 'RL0', 'RL1', 'RL2', 'RR0', 'RR1', 'RR2', 'FL_foot', 'FR_foot', 'RL_foot', 'RR_foot']",0.10809507220983505,1.0268819332122803,-2.149258852005005,-0.1747220903635025,0.9644269943237305,-2.109602928161621,0.06097996234893799,1.0461831092834473,-2.1516189575195312,-0.11702924221754074,1.0124692916870117,-2.117525577545166,0.0,0.0,0.0,0.0,-0.09271977841854095,-0.16826923191547394,-0.012019230984151363,-0.10302197188138962,-0.09787087887525558,-0.07984203100204468,0.042925819754600525,0.06009615585207939,-0.007726648356765509,0.04550136998295784,-0.10388049483299255,-0.10989011079072952,0.0,0.0,0.0,0.0,-2.34375,0.31640625,5.6875,3.33984375,0.7109375,6.43359375,-2.55859375,0.0703125,6.89453125,3.765625,0.390625,7.3203125,28.0,35.0,46.4,37.0
1646243401.0437102,7770,1646243401,30466976,,"['FL0', 'FL1', 'FL2', 'FR0', 'FR1', 'FR2', 'RL0', 'RL1', 'RL2', 'RR0', 'RR1', 'RR2', 'FL_foot', 'FR_foot', 'RL_foot', 'RR_foot']",0.10813721269369125,1.0269241333007812,-2.149258852005005,-0.1746799498796463,0.9644269943237305,-2.109518527984619,0.06097996234893799,1.0461831092834473,-2.151660919189453,-0.11702924221754074,1.0124692916870117,-2.117483615875244,0.0,0.0,0.0,0.0,0.04979395121335983,0.05151098966598511,0.006009615492075682,-0.03863323852419853,-0.15024039149284363,0.16998626291751862,0.001717032864689827,0.01717033050954342,-0.08327610045671463,-0.06009615212678909,-0.12877747416496277,0.01631181314587593,0.0,0.0,0.0,0.0,-2.37890625,0.42578125,5.93359375,3.4453125,0.81640625,6.078125,-2.48828125,0.24609375,7.0,3.91015625,0.390625,7.28515625,28.0,34.8,46.4,37.0
1646243401.0437605,7771,1646243401,32672522,,"['FL0', 'FL1', 'FL2', 'FR0', 'FR1', 'FR2', 'RL0', 'RL1', 'RL2', 'RR0', 'RR1', 'RR2', 'FL_foot', 'FR_foot', 'RL_foot', 'RR_foot']",0.10813721269369125,1.0269241333007812,-2.1493430137634277,-0.1746378093957901,0.9644269943237305,-2.10956072807312,0.06097996234893799,1.0461831092834473,-2.151660919189453,-0.11694496124982834,1.0124692916870117,-2.117441415786743,0.0,0.0,0.0,0.0,-0.02833104133605957,0.0008585164905525744,-0.1382211595773697,0.05666208267211914,0.005151099059730768,-0.0,-0.0,0.01631181314587593,-0.03519917652010918,0.07984203100204468,-0.09615384787321091,0.07297389954328537,0.0,0.0,0.0,0.0,-2.34375,0.42578125,5.7578125,3.375,0.6015625,6.1484375,-2.48828125,0.28125,6.9296875,4.015625,0.35546875,7.5,28.0,34.4,46.6,36.8
1646243401.0437887,7772,1646243401,34799557,,"['FL0', 'FL1', 'FL2', 'FR0', 'FR1', 'FR2', 'RL0', 'RL1', 'RL2', 'RR0', 'RR1', 'RR2', 'FL_foot', 'FR_foot', 'RL_foot', 'RR_foot']",0.10817935317754745,1.0269241333007812,-2.1493430137634277,-0.1746378093957901,0.9644269943237305,-2.10956072807312,0.06097996234893799,1.0461409091949463,-2.151660919189453,-0.11690282076597214,1.0124692916870117,-2.1173572540283203,0.0,0.0,0.0,0.0,0.03949175775051117,0.0,0.01116071455180645,-0.019745878875255585,-0.005151099059730768,-0.0,-0.0,-0.13221153616905212,-0.01373626384884119,0.07211537659168243,-0.03949175775051117,0.10388049483299255,0.0,0.0,0.0,0.0,-2.37890625,0.28125,5.6484375,3.375,0.63671875,6.609375,-2.62890625,0.28125,6.50390625,3.98046875,0.10546875,7.35546875,28.0,34.2,46.8,36.6
1646243401.0437973,7773,1646243401,36953679,,"['FL0', 'FL1', 'FL2', 'FR0', 'FR1', 'FR2', 'RL0', 'RL1', 'RL2', 'RR0', 'RR1', 'RR2', 'FL_foot', 'FR_foot', 'RL_foot', 'RR_foot']",0.10817935317754745,1.0269241333007812,-2.1493430137634277,-0.1745535284280777,0.9644269943237305,-2.1094765663146973,0.06102210283279419,1.0461831092834473,-2.151703119277954,-0.11690282076597214,1.0124692916870117,-2.1173572540283203,0.0,0.0,0.0,0.0,-0.048076920211315155,0.053228020668029785,-0.00858516525477171,0.0008585164323449135,-0.05065247416496277,0.0558035708963871,0.006868131458759308,0.0008585164905525744,-0.004292582627385855,0.05837911739945412,-0.047218408435583115,-0.0626717060804367,0.0,0.0,0.0,0.0,-2.44921875,0.53125,5.54296875,3.48046875,0.671875,6.3984375,-2.55859375,0.35546875,6.71484375,3.98046875,0.24609375,7.85546875,28.0,34.2,46.6,36.4
1646243401.0440574,7774,1646243401,39077416,,"['FL0', 'FL1', 'FL2', 'FR0', 'FR1', 'FR2', 'RL0', 'RL1', 'RL2', 'RR0', 'RR1', 'RR2', 'FL_foot', 'FR_foot', 'RL_foot', 'RR_foot']",0.10826364159584045,1.0269241333007812,-2.1493430137634277,-0.1745535284280777,0.9644269943237305,-2.1094765663146973,0.06102210283279419,1.0461831092834473,-2.151703119277954,-0.11690282076597214,1.0124692916870117,-2.1172728538513184,0.0,0.0,0.0,0.0,0.17256180942058563,0.0,0.03863324224948883,-0.08499312400817871,-0.07211538404226303,-0.03863324224948883,-0.01459477934986353,0.0,-0.0223214291036129,-0.0,-0.0034340659622102976,0.042067307978868484,0.0,0.0,0.0,0.0,-2.23828125,0.42578125,5.61328125,3.58984375,0.4609375,6.2890625,-2.62890625,0.03515625,6.75390625,4.015625,0.24609375,7.5,28.0,34.4,46.4,36.2
1646243401.044069,7775,1646243401,41199105,,"['FL0', 'FL1', 'FL2', 'FR0', 'FR1', 'FR2', 'RL0', 'RL1', 'RL2', 'RR0', 'RR1', 'RR2', 'FL_foot', 'FR_foot', 'RL_foot', 'RR_foot']",0.10826364159584045,1.0269241333007812,-2.1493852138519287,-0.1744692325592041,0.9644269943237305,-2.1094765663146973,0.06102210283279419,1.0461831092834473,-2.151703119277954,-0.11686067283153534,1.0124692916870117,-2.1171884536743164,0.0,0.0,0.0,0.0,-0.006868131458759308,0.0,-0.048076923936605453,0.16912773251533508,-0.03176511079072952,0.0008585164905525744,-0.12105081975460052,0.0669642835855484,0.0,0.09271977841854095,0.0626717060804367,0.08241758495569229,0.0,0.0,0.0,0.0,-2.44921875,0.42578125,5.72265625,3.515625,0.4609375,6.359375,-2.4140625,0.24609375,6.9296875,3.98046875,0.4609375,7.5703125,28.0,34.4,46.6,36.2
1646243401.0440803,7776,1646243401,43360683,,"['FL0', 'FL1', 'FL2', 'FR0', 'FR1', 'FR2', 'RL0', 'RL1', 'RL2', 'RR0', 'RR1', 'RR2', 'FL_foot', 'FR_foot', 'RL_foot', 'RR_foot']",0.10830578207969666,1.0269241333007812,-2.1493852138519287,-0.1744692325592041,0.9644269943237305,-2.1094765663146973,0.06102210283279419,1.0461831092834473,-2.151703119277954,-0.11686067283153534,1.0124270915985107,-2.1171464920043945,0.0,0.0,0.0,0.0,0.018887361511588097,-0.02317994460463524,0.0,0.024896975606679916,-0.0,-0.0626717060804367,-0.021462909877300262,0.014594780281186104,0.07039835304021835,0.003434065729379654,-0.0008585164905525744,-0.04635988920927048,0.0,0.0,0.0,0.0,-2.48828125,0.35546875,5.578125,3.41015625,0.7109375,6.359375,-2.6640625,0.2109375,6.75390625,4.0859375,0.17578125,7.640625,28.0,34.4,46.6,36.4
1646243401.04572,7777,1646243401,45531472,,"['FL0', 'FL1', 'FL2', 'FR0', 'FR1', 'FR2', 'RL0', 'RL1', 'RL2', 'RR0', 'RR1', 'RR2', 'FL_foot', 'FR_foot', 'RL_foot', 'RR_foot']",0.10834792256355286,1.0269241333007812,-2.1493852138519287,-0.1744270920753479,0.9644269943237305,-2.1094343662261963,0.06102210283279419,1.0461831092834473,-2.151703119277954,-0.11686067283153534,1.0123848915100098,-2.1169776916503906,0.0,0.0,0.0,0.0,0.012019230052828789,-0.0034340659622102976,0.0,0.012877746485173702,-0.02747252769768238,0.1253434121608734,-0.0,0.0223214291036129,0.04035027325153351,-0.1004464253783226,-0.03434066101908684,0.20175138115882874,0.0,0.0,0.0,0.0,-2.203125,0.28125,5.29296875,3.58984375,0.74609375,6.57421875,-2.55859375,0.0,6.50390625,4.015625,0.2109375,7.7109375,28.0,34.4,46.6,36.6
1646243401.0848553,7778,1646243401,47731304,,"['FL0', 'FL1', 'FL2', 'FR0', 'FR1', 'FR2', 'RL0', 'RL1', 'RL2', 'RR0', 'RR1', 'RR2', 'FL_foot', 'FR_foot', 'RL_foot', 'RR_foot']",0.10839007049798965,1.0269241333007812,-2.1493852138519287,-0.1744270920753479,0.9644269943237305,-2.1093502044677734,0.06106424331665039,1.0461831092834473,-2.151745319366455,-0.11681853234767914,1.012342929840088,-2.116851329803467,0.0,0.0,0.0,0.0,0.005151098594069481,0.0,0.07125686854124069,-0.09014422446489334,-0.0,0.05408653989434242,0.008585164323449135,0.0017170329811051488,-0.06524725258350372,0.008585164323449135,-0.01717033050954342,0.036916207522153854,0.0,0.0,0.0,0.0,-2.34375,0.28125,5.3671875,3.80078125,0.56640625,6.609375,-2.62890625,0.24609375,6.96484375,4.05078125,0.0,7.78125,28.2,34.2,46.8,36.8
1646243401.0848756,7779,1646243401,49866497,,"['FL0', 'FL1', 'FL2', 'FR0', 'FR1', 'FR2', 'RL0', 'RL1', 'RL2', 'RR0', 'RR1', 'RR2', 'FL_foot', 'FR_foot', 'RL_foot', 'RR_foot']",0.10843221098184586,1.0269241333007812,-2.1494274139404297,-0.1743849515914917,0.9644269943237305,-2.1093502044677734,0.06106424331665039,1.0461409091949463,-2.151745319366455,-0.11681853234767914,1.012300729751587,-2.116724967956543,0.0,0.0,0.0,0.0,0.06782279908657074,0.0,-0.09100274741649628,0.0008585164323449135,0.048076923936605453,-0.048076923936605453,-0.0446428544819355,-0.1717032939195633,-0.006009615492075682,0.01631181314587593,-0.02833104506134987,0.14423076808452606,0.0,0.0,0.0,0.0,-2.30859375,0.390625,5.33203125,3.58984375,0.31640625,6.46875,-2.62890625,0.17578125,6.5390625,3.91015625,0.28125,7.78125,28.4,34.0,47.0,37.0
1646243401.0848954,7780,1646243401,52017179,,"['FL0', 'FL1', 'FL2', 'FR0', 'FR1', 'FR2', 'RL0', 'RL1', 'RL2', 'RR0', 'RR1', 'RR2', 'FL_foot', 'FR_foot', 'RL_foot', 'RR_foot']",0.10847435146570206,1.0269663333892822,-2.1494274139404297,-0.1743428111076355,0.9644269943237305,-2.1093502044677734,0.06106424331665039,1.0461831092834473,-2.151745319366455,-0.11681853234767914,1.012258529663086,-2.116598606109619,0.0,0.0,0.0,0.0,0.1519574075937271,0.136504128575325,0.020604396238923073,0.005151098594069481,0.03434066101908684,-0.15625,-0.04550136998295784,0.08842720091342926,-0.10817307978868484,-0.03519917279481888,-0.059237636625766754,0.18801511824131012,0.0,0.0,0.0,0.0,-2.2734375,0.24609375,5.61328125,3.5546875,0.671875,6.32421875,-2.5234375,0.17578125,6.96484375,4.15625,0.42578125,7.74609375,28.4,34.0,47.0,37.0
1646243401.084914,7781,1646243401,54153707,,"['FL0', 'FL1', 'FL2', 'FR0', 'FR1', 'FR2', 'RL0', 'RL1', 'RL2', 'RR0', 'RR1', 'RR2', 'FL_foot', 'FR_foot', 'RL_foot', 'RR_foot']",0.10843221098184586,1.0269663333892822,-2.1494696140289307,-0.1743006706237793,0.9644269943237305,-2.1092658042907715,0.06106424331665039,1.0461831092834473,-2.151745319366455,-0.11681853234767914,1.012216329574585,-2.116514205932617,0.0,0.0,0.0,0.0,0.0,0.13478708267211914,0.0,0.024038460105657578,0.05065247416496277,0.08155906945466995,0.01459477934986353,0.019745878875255585,-0.01631181314587593,-0.0935782939195633,-0.0017170329811051488,0.01717033050954342,0.0,0.0,0.0,0.0,-2.05859375,0.35546875,5.4375,3.58984375,0.6015625,6.32421875,-2.59375,0.4609375,6.82421875,4.15625,0.49609375,7.78125,28.4,34.0,47.0,37.0
1646243401.084922,7782,1646243401,56341819,,"['FL0', 'FL1', 'FL2', 'FR0', 'FR1', 'FR2', 'RL0', 'RL1', 'RL2', 'RR0', 'RR1', 'RR2', 'FL_foot', 'FR_foot', 'RL_foot', 'RR_foot']",0.10847435146570206,1.0269241333007812,-2.1494696140289307,-0.1743006706237793,0.9644269943237305,-2.1092658042907715,0.06106424331665039,1.0461409091949463,-2.151745319366455,-0.11673425137996674,1.012132167816162,-2.1163878440856934,0.0,0.0,0.0,0.0,0.10302197188138962,-0.0334821417927742,0.0,-0.021462909877300262,0.05065247416496277,0.0008585164905525744,-0.0008585164323449135,-0.12791895866394043,0.0,0.10731455683708191,-0.05408653989434242,0.048076923936605453,0.0,0.0,0.0,0.0,-2.16796875,0.53125,5.47265625,3.58984375,0.49609375,6.1484375,-2.62890625,0.17578125,6.71484375,4.15625,0.35546875,7.890625,28.2,34.0,47.0,37.0
1646243401.0849617,7783,1646243401,58513225,,"['FL0', 'FL1', 'FL2', 'FR0', 'FR1', 'FR2', 'RL0', 'RL1', 'RL2', 'RR0', 'RR1', 'RR2', 'FL_foot', 'FR_foot', 'RL_foot', 'RR_foot']",0.10847435146570206,1.0269241333007812,-2.1494696140289307,-0.1742585301399231,0.9644269943237305,-2.1092236042022705,0.06106424331665039,1.0461409091949463,-2.151703119277954,-0.11673425137996674,1.0120477676391602,-2.1162614822387695,0.0,0.0,0.0,0.0,0.02918955869972706,-0.009443681687116623,-0.078125,0.08756867796182632,0.10645604133605957,0.007726648356765509,-0.019745878875255585,-0.10388049483299255,0.1674107164144516,0.06524725258350372,-0.05666209012269974,0.05666209012269974,0.0,0.0,0.0,0.0,-2.4140625,0.390625,5.33203125,3.4453125,0.6015625,6.5390625,-2.6640625,0.31640625,6.609375,4.15625,0.35546875,7.78125,27.8,33.8,47.0,37.0
1646243401.0849726,7784,1646243401,60731036,,"['FL0', 'FL1', 'FL2', 'FR0', 'FR1', 'FR2', 'RL0', 'RL1', 'RL2', 'RR0', 'RR1', 'RR2', 'FL_foot', 'FR_foot', 'RL_foot', 'RR_foot']",0.10843221098184586,1.0269241333007812,-2.1494696140289307,-0.1742163896560669,0.9643847942352295,-2.1091394424438477,0.06106424331665039,1.0461831092834473,-2.151745319366455,-0.11673425137996674,1.0119636058807373,-2.1161351203918457,0.0,0.0,0.0,0.0,-0.1674107015132904,0.0,0.06009615585207939,0.006009615026414394,-0.0034340659622102976,0.08585164695978165,-0.07640796154737473,0.04035027325153351,0.03262362629175186,0.10302197188138962,-0.005151099059730768,0.0017170329811051488,0.0,0.0,0.0,0.0,-2.30859375,0.390625,5.3671875,3.625,0.7109375,6.5390625,-2.4140625,0.17578125,6.50390625,3.98046875,0.35546875,7.74609375,27.4,33.6,47.0,37.0
1646243401.0849886,7785,1646243401,62855269,,"['FL0', 'FL1', 'FL2', 'FR0', 'FR1', 'FR2', 'RL0', 'RL1', 'RL2', 'RR0', 'RR1', 'RR2', 'FL_foot', 'FR_foot', 'RL_foot', 'RR_foot']",0.10847435146570206,1.0269241333007812,-2.1494696140289307,-0.1741742491722107,0.9643847942352295,-2.1090972423553467,0.06106424331665039,1.0461409091949463,-2.151745319366455,-0.11677639186382294,1.0119214057922363,-2.1160507202148438,0.0,0.0,0.0,0.0,0.06095466762781143,0.019745878875255585,0.024896977469325066,0.10731455683708191,0.0034340659622102976,0.13564559817314148,-0.1004464253783226,-0.12620192766189575,0.0017170329811051488,-0.13907966017723083,-0.03176511079072952,0.07125686854124069,0.0,0.0,0.0,0.0,-1.98828125,0.42578125,5.47265625,3.6953125,0.56640625,6.46875,-2.62890625,0.31640625,6.50390625,4.05078125,0.31640625,7.7109375,27.2,33.4,47.0,37.0
1646243401.0849974,7786,1646243401,65001642,,"['FL0', 'FL1', 'FL2', 'FR0', 'FR1', 'FR2', 'RL0', 'RL1', 'RL2', 'RR0', 'RR1', 'RR2', 'FL_foot', 'FR_foot', 'RL_foot', 'RR_foot']",0.10843221098184586,1.0269241333007812,-2.1495118141174316,-0.1741320937871933,0.9643847942352295,-2.108970880508423,0.06110638380050659,1.0461831092834473,-2.151787281036377,-0.11673425137996674,1.0117950439453125,-2.1160085201263428,0.0,0.0,0.0,0.0,-0.1674107015132904,-0.0008585164905525744,-0.07640796899795532,-0.048076920211315155,-0.024038461968302727,0.11675824224948883,0.030906591564416885,0.042067307978868484,-0.005151099059730768,-0.030048076063394547,0.042067307978868484,-0.12019231170415878,0.0,0.0,0.0,0.0,-2.16796875,0.35546875,5.40234375,3.58984375,0.49609375,6.3984375,-2.48828125,0.2109375,6.43359375,4.2265625,0.2109375,7.92578125,27.2,33.2,47.0,37.0
1646243401.0850053,7787,1646243401,67166536,,"['FL0', 'FL1', 'FL2', 'FR0', 'FR1', 'FR2', 'RL0', 'RL1', 'RL2', 'RR0', 'RR1', 'RR2', 'FL_foot', 'FR_foot', 'RL_foot', 'RR_foot']",0.10847435146570206,1.0269241333007812,-2.1494696140289307,-0.1740478128194809,0.9643428325653076,-2.108970880508423,0.06110638380050659,1.0461831092834473,-2.151787281036377,-0.11669210344552994,1.0116684436798096,-2.115882158279419,0.0,0.0,0.0,0.0,-0.005151098594069481,0.0,0.04635988920927048,0.1519574075937271,-0.10989011079072952,-0.13564559817314148,0.025755492970347404,0.05408653989434242,-0.053228020668029785,0.13478708267211914,-0.15367445349693298,0.08413461595773697,0.0,0.0,0.0,0.0,-2.23828125,0.31640625,5.4375,3.48046875,0.4609375,6.32421875,-2.4140625,0.35546875,6.82421875,4.30078125,0.24609375,7.74609375,27.2,33.2,47.0,37.2
1646243401.085079,7788,1646243401,69334898,,"['FL0', 'FL1', 'FL2', 'FR0', 'FR1', 'FR2', 'RL0', 'RL1', 'RL2', 'RR0', 'RR1', 'RR2', 'FL_foot', 'FR_foot', 'RL_foot', 'RR_foot']",0.10847435146570206,1.0269241333007812,-2.1494696140289307,-0.1740478128194809,0.9643428325653076,-2.108928680419922,0.06110638380050659,1.0461409091949463,-2.151787281036377,-0.11673425137996674,1.0115842819213867,-2.115797996520996,0.0,0.0,0.0,0.0,-0.11675823479890823,0.002575549529865384,0.10989011079072952,0.0,0.012019230984151363,0.048076923936605453,0.020604394376277924,-0.030048077926039696,-0.07898351550102234,-0.030048076063394547,-0.07125686854124069,0.006009615492075682,0.0,0.0,0.0,0.0,-2.30859375,0.28125,5.61328125,3.5546875,0.74609375,6.3984375,-2.48828125,0.17578125,6.7890625,4.05078125,0.31640625,7.67578125,27.4,33.2,47.0,37.2
1646243401.0850918,7789,1646243401,71523831,,"['FL0', 'FL1', 'FL2', 'FR0', 'FR1', 'FR2', 'RL0', 'RL1', 'RL2', 'RR0', 'RR1', 'RR2', 'FL_foot', 'FR_foot', 'RL_foot', 'RR_foot']",0.10847435146570206,1.0269241333007812,-2.1495118141174316,-0.1740056723356247,0.9643006324768066,-2.108928680419922,0.06110638380050659,1.0461831092834473,-2.151787281036377,-0.11669210344552994,1.0114998817443848,-2.115713596343994,0.0,0.0,0.0,0.0,-0.09787087142467499,-0.006868131924420595,-0.03434066101908684,-0.006009615026414394,-0.04979395493865013,-0.0,0.04378433898091316,0.030048077926039696,-0.03519917652010918,0.08155906200408936,-0.1004464328289032,-0.12105082720518112,0.0,0.0,0.0,0.0,-2.23828125,0.2109375,5.3671875,3.625,0.35546875,6.2890625,-2.76953125,0.0,6.859375,4.19140625,0.24609375,7.74609375,27.6,33.4,47.0,37.2
1646243401.0851,7790,1646243401,73803635,,"['FL0', 'FL1', 'FL2', 'FR0', 'FR1', 'FR2', 'RL0', 'RL1', 'RL2', 'RR0', 'RR1', 'RR2', 'FL_foot', 'FR_foot', 'RL_foot', 'RR_foot']",0.10847435146570206,1.0268819332122803,-2.1495118141174316,-0.1739635318517685,0.9642584323883057,-2.108886480331421,0.06110638380050659,1.0461409091949463,-2.151787281036377,-0.11673425137996674,1.011415719985962,-2.1154606342315674,0.0,0.0,0.0,0.0,-0.1519574075937271,-0.08585164695978165,-0.05494505539536476,0.03605768829584122,0.10817307978868484,-0.0,0.0008585164323449135,0.06009615585207939,-0.006868131924420595,-0.06267169862985611,0.06095467135310173,0.04292582347989082,0.0,0.0,0.0,0.0,-2.30859375,0.2109375,5.47265625,3.6953125,0.28125,6.359375,-2.59375,0.0703125,6.75390625,4.265625,0.24609375,7.78125,27.8,33.4,47.0,37.2
1646243401.0851095,7791,1646243401,75930532,,"['FL0', 'FL1', 'FL2', 'FR0', 'FR1', 'FR2', 'RL0', 'RL1', 'RL2', 'RR0', 'RR1', 'RR2', 'FL_foot', 'FR_foot', 'RL_foot', 'RR_foot']",0.10847435146570206,1.0269241333007812,-2.1495118141174316,-0.1739635318517685,0.9641740322113037,-2.10884428024292,0.06110638380050659,1.0460989475250244,-2.151787281036377,-0.11673425137996674,1.01133131980896,-2.1153342723846436,0.0,0.0,0.0,0.0,-0.07554944604635239,0.01631181314587593,-0.03863324224948883,-0.012019230052828789,-0.09100274741649628,-0.06181318685412407,0.004292582161724567,-0.13135302066802979,-0.010302198119461536,0.06953983008861542,-0.006868131924420595,-0.02747252769768238,0.0,0.0,0.0,0.0,-2.23828125,0.28125,5.6875,3.625,0.81640625,6.5390625,-2.62890625,0.31640625,6.57421875,4.015625,0.03515625,7.46484375,27.8,33.6,47.2,37.4
1646243401.0851173,7792,1646243401,78076444,,"['FL0', 'FL1', 'FL2', 'FR0', 'FR1', 'FR2', 'RL0', 'RL1', 'RL2', 'RR0', 'RR1', 'RR2', 'FL_foot', 'FR_foot', 'RL_foot', 'RR_foot']",0.10847435146570206,1.0269241333007812,-2.1495118141174316,-0.1738792508840561,0.9641740322113037,-2.108760118484497,0.06110638380050659,1.0460989475250244,-2.151787281036377,-0.11677639186382294,1.011247158050537,-2.1152079105377197,0.0,0.0,0.0,0.0,-0.08756867796182632,0.0034340659622102976,-0.07211538404226303,0.012019230052828789,0.10130494832992554,0.09186126291751862,0.012877746485173702,-0.14337225258350372,-0.0008585164905525744,-0.13135302066802979,-0.17599588632583618,0.04635988920927048,0.0,0.0,0.0,0.0,-2.34375,0.4609375,5.72265625,3.5546875,0.63671875,6.359375,-2.5234375,0.10546875,6.75390625,3.87109375,0.390625,7.640625,28.0,33.4,47.2,37.2
1646243401.0851269,7793,1646243401,80211405,,"['FL0', 'FL1', 'FL2', 'FR0', 'FR1', 'FR2', 'RL0', 'RL1', 'RL2', 'RR0', 'RR1', 'RR2', 'FL_foot', 'FR_foot', 'RL_foot', 'RR_foot']",0.10847435146570206,1.0269241333007812,-2.1494696140289307,-0.1738371104001999,0.9641320705413818,-2.108760118484497,0.06114852428436279,1.0460989475250244,-2.151787281036377,-0.11673425137996674,1.011247158050537,-2.1151235103607178,0.0,0.0,0.0,0.0,-0.001717032864689827,0.0,0.052369505167007446,0.01717032864689827,0.029189560562372208,-0.12019231170415878,0.17685438692569733,-0.06610576808452606,0.0,0.001717032864689827,-0.010302198119461536,0.002575549529865384,0.0,0.0,0.0,0.0,-2.34375,0.390625,5.61328125,3.48046875,0.4609375,6.57421875,-2.44921875,0.390625,6.57421875,4.05078125,0.2109375,7.5,28.0,33.4,47.2,37.2
1646243401.0851612,7794,1646243401,82356775,,"['FL0', 'FL1', 'FL2', 'FR0', 'FR1', 'FR2', 'RL0', 'RL1', 'RL2', 'RR0', 'RR1', 'RR2', 'FL_foot', 'FR_foot', 'RL_foot', 'RR_foot']",0.10847435146570206,1.0269241333007812,-2.1494696140289307,-0.1737949550151825,0.9641320705413818,-2.108675718307495,0.06106424331665039,1.0461409091949463,-2.151787281036377,-0.11673425137996674,1.011247158050537,-2.115039348602295,0.0,0.0,0.0,0.0,0.0,0.0,0.08070054650306702,0.053228020668029785,0.12620192766189575,-0.04378434270620346,-0.12190933525562286,0.1519574224948883,-0.057520605623722076,-0.0,0.025755494832992554,0.10817307978868484,0.0,0.0,0.0,0.0,-1.953125,0.390625,5.54296875,3.58984375,0.81640625,6.43359375,-2.5234375,0.2109375,6.859375,4.015625,0.35546875,7.53515625,28.0,33.2,47.2,37.2
1646243401.0852144,7795,1646243401,84654248,,"['FL0', 'FL1', 'FL2', 'FR0', 'FR1', 'FR2', 'RL0', 'RL1', 'RL2', 'RR0', 'RR1', 'RR2', 'FL_foot', 'FR_foot', 'RL_foot', 'RR_foot']",0.10847435146570206,1.0269241333007812,-2.1494696140289307,-0.1737949550151825,0.9640898704528809,-2.108675718307495,0.06106424331665039,1.0461409091949463,-2.151787281036377,-0.11673425137996674,1.0112049579620361,-2.114997148513794,0.0,0.0,0.0,0.0,0.0,0.06009615585207939,0.03949175775051117,0.005151098594069481,-0.0008585164905525744,-0.1073145642876625,-0.03262362629175186,0.06353022158145905,-0.047218408435583115,0.0025755492970347404,-0.00858516525477171,-0.04035027325153351,0.0,0.0,0.0,0.0,-2.4140625,0.31640625,5.79296875,3.5546875,0.81640625,6.32421875,-2.37890625,-0.140625,6.75390625,3.91015625,0.28125,7.46484375,28.0,33.2,47.2,37.2
1646243401.0869462,7796,1646243401,86791199,,"['FL0', 'FL1', 'FL2', 'FR0', 'FR1', 'FR2', 'RL0', 'RL1', 'RL2', 'RR0', 'RR1', 'RR2', 'FL_foot', 'FR_foot', 'RL_foot', 'RR_foot']",0.10847435146570206,1.0269241333007812,-2.1494696140289307,-0.1737949550151825,0.9640476703643799,-2.108633518218994,0.06106424331665039,1.0460989475250244,-2.151787281036377,-0.11677639186382294,1.0111627578735352,-2.11487078666687,0.0,0.0,0.0,0.0,-0.004292582161724567,0.0,0.09271977841854095,0.021462909877300262,-0.07211538404226303,-0.048076923936605453,-0.015453295782208443,-0.08413461595773697,-0.059237636625766754,-0.10559751838445663,-0.04893543943762779,-0.042067307978868484,0.0,0.0,0.0,0.0,-2.34375,0.390625,5.6484375,3.515625,0.49609375,6.43359375,-2.76953125,0.140625,6.859375,3.80078125,0.35546875,7.53515625,28.0,32.8,47.0,37.0
