Time,header.seq,header.stamp.secs,header.stamp.nsecs,header.frame_id,name,position_0,position_1,position_2,position_3,position_4,position_5,position_6,position_7,position_8,position_9,position_10,position_11,position_12,position_13,position_14,position_15,velocity_0,velocity_1,velocity_2,velocity_3,velocity_4,velocity_5,velocity_6,velocity_7,velocity_8,velocity_9,velocity_10,velocity_11,velocity_12,velocity_13,velocity_14,velocity_15,effort_0,effort_1,effort_2,effort_3,effort_4,effort_5,effort_6,effort_7,effort_8,effort_9,effort_10,effort_11,effort_12,effort_13,effort_14,effort_15
1646244223.488584,4796,1646244223,487664247,,"['FL0', 'FL1', 'FL2', 'FR0', 'FR1', 'FR2', 'RL0', 'RL1', 'RL2', 'RR0', 'RR1', 'RR2', 'FL_foot', 'FR_foot', 'RL_foot', 'RR_foot']",0.08828818053007126,1.0001637935638428,-2.2479140758514404,-0.22175292670726776,0.9349274635314941,-2.15789794921875,0.03856021165847778,1.0295791625976562,-2.2397806644439697,-0.1641022264957428,0.9750468730926514,-2.1593730449676514,0.0,0.0,0.0,0.0,0.018887361511588097,0.1450892835855484,-0.13049450516700745,0.05494505167007446,-0.08842720091342926,0.019745878875255585,-0.06009615212678909,0.08842720091342926,-0.036916207522153854,0.13736262917518616,0.057520605623722076,-0.17342032492160797,0.0,0.0,0.0,0.0,-1.8828125,1.06640625,7.14453125,2.87890625,0.53125,5.046875,-3.515625,1.3125,9.1328125,3.234375,0.56640625,7.28515625,31.2,29.8,55.0,35.8
1646244223.4904566,4797,1646244223,489965861,,"['FL0', 'FL1', 'FL2', 'FR0', 'FR1', 'FR2', 'RL0', 'RL1', 'RL2', 'RR0', 'RR1', 'RR2', 'FL_foot', 'FR_foot', 'RL_foot', 'RR_foot']",0.08841460198163986,1.0002479553222656,-2.2479140758514404,-0.22171078622341156,0.9347589015960693,-2.15789794921875,0.03851807117462158,1.02970552444458,-2.2397806644439697,-0.164144366979599,0.9749205112457275,-2.1593308448791504,0.0,0.0,0.0,0.0,0.09014422446489334,0.10559752583503723,-0.07039835304021835,0.06438872963190079,-0.0223214291036129,0.06009615585207939,-0.001717032864689827,0.09186126291751862,-0.09701236337423325,-0.0,-0.014594780281186104,-0.06009615585207939,0.0,0.0,0.0,0.0,-2.1328125,1.20703125,7.109375,3.08984375,0.42578125,4.8671875,-3.5546875,1.02734375,9.0625,3.3046875,0.6015625,7.14453125,31.0,29.8,55.0,35.6
1646244223.4927151,4798,1646244223,492225119,,"['FL0', 'FL1', 'FL2', 'FR0', 'FR1', 'FR2', 'RL0', 'RL1', 'RL2', 'RR0', 'RR1', 'RR2', 'FL_foot', 'FR_foot', 'RL_foot', 'RR_foot']",0.08849889039993286,1.0002901554107666,-2.2478718757629395,-0.22171078622341156,0.9345059394836426,-2.15789794921875,0.03847593069076538,1.029831886291504,-2.2397806644439697,-0.1642286479473114,0.9748361110687256,-2.1593308448791504,0.0,0.0,0.0,0.0,-0.025755492970347404,0.01116071455180645,-0.030048077926039696,-0.09615384042263031,-0.19831730425357819,0.07898351550102234,-0.003434065729379654,0.0446428582072258,-0.12448488920927048,-0.16998624801635742,0.07640796899795532,-0.08585164695978165,0.0,0.0,0.0,0.0,-2.09375,1.27734375,7.14453125,3.16015625,0.53125,4.796875,-3.66015625,1.27734375,9.27734375,3.3046875,0.56640625,7.3203125,31.0,29.8,55.0,35.6
1646244223.4946713,4799,1646244223,494482999,,"['FL0', 'FL1', 'FL2', 'FR0', 'FR1', 'FR2', 'RL0', 'RL1', 'RL2', 'RR0', 'RR1', 'RR2', 'FL_foot', 'FR_foot', 'RL_foot', 'RR_foot']",0.08862531930208206,1.0003743171691895,-2.2478718757629395,-0.22162650525569916,0.9342532157897949,-2.15789794921875,0.03847593069076538,1.0300004482269287,-2.2397384643554688,-0.1642286479473114,0.9746253490447998,-2.1593308448791504,0.0,0.0,0.0,0.0,-0.024038460105657578,0.08070054650306702,-0.0008585164905525744,0.003434065729379654,-0.09014423191547394,0.12620192766189575,0.0558035671710968,-0.058379121124744415,0.11504121124744415,-0.05837911739945412,-0.0669642835855484,-0.06438873708248138,0.0,0.0,0.0,0.0,-1.77734375,1.34765625,7.25,3.01953125,0.671875,4.796875,-3.6953125,1.34765625,9.2421875,3.19921875,0.7109375,7.14453125,31.0,29.8,55.0,35.6
1646244223.4968376,4800,1646244223,496622920,,"['FL0', 'FL1', 'FL2', 'FR0', 'FR1', 'FR2', 'RL0', 'RL1', 'RL2', 'RR0', 'RR1', 'RR2', 'FL_foot', 'FR_foot', 'RL_foot', 'RR_foot']",0.08866745978593826,1.0003743171691895,-2.2478718757629395,-0.22162650525569916,0.934084415435791,-2.157940149307251,0.03843379020690918,1.0301268100738525,-2.2397806644439697,-0.1642286479473114,0.974498987197876,-2.1593308448791504,0.0,0.0,0.0,0.0,-0.12877745926380157,0.006009615492075682,0.01631181314587593,-0.06267169862985611,-0.1871565878391266,-0.14852334558963776,-0.0,0.00858516525477171,-0.09529533237218857,-0.0,-0.04635988920927048,-0.1493818759918213,0.0,0.0,0.0,0.0,-2.1328125,1.6328125,7.109375,3.33984375,0.49609375,5.1875,-3.66015625,1.3828125,9.3828125,3.08984375,0.56640625,7.25,30.8,30.0,55.2,35.4
1646244223.4989426,4801,1646244223,498753460,,"['FL0', 'FL1', 'FL2', 'FR0', 'FR1', 'FR2', 'RL0', 'RL1', 'RL2', 'RR0', 'RR1', 'RR2', 'FL_foot', 'FR_foot', 'RL_foot', 'RR_foot']",0.08879388868808746,1.0003743171691895,-2.2478718757629395,-0.22158436477184296,0.9340002536773682,-2.15789794921875,0.03839164972305298,1.0302534103393555,-2.2397384643554688,-0.1642707884311676,0.9743726253509521,-2.1592888832092285,0.0,0.0,0.0,0.0,0.011160713620483875,-0.1382211595773697,-0.06095467135310173,-0.048076920211315155,0.03176511079072952,0.11675824224948883,-0.13221153616905212,0.13049450516700745,0.04893543943762779,-0.007726647891104221,-0.036916207522153854,0.025755494832992554,0.0,0.0,0.0,0.0,-2.05859375,1.3828125,7.109375,2.984375,0.49609375,4.7265625,-3.66015625,1.3828125,9.55859375,3.19921875,0.49609375,7.109375,30.6,30.0,55.4,35.4
1646244223.5012145,4802,1646244223,500960617,,"['FL0', 'FL1', 'FL2', 'FR0', 'FR1', 'FR2', 'RL0', 'RL1', 'RL2', 'RR0', 'RR1', 'RR2', 'FL_foot', 'FR_foot', 'RL_foot', 'RR_foot']",0.08887816965579987,1.0004165172576904,-2.2478718757629395,-0.22150008380413055,0.9339580535888672,-2.15789794921875,0.03834950923919678,1.0303375720977783,-2.2397384643554688,-0.1642707884311676,0.9742040634155273,-2.1592888832092285,0.0,0.0,0.0,0.0,0.03605768829584122,-0.11332418024539948,-0.0008585164905525744,0.13564559817314148,0.047218408435583115,0.1270604431629181,-0.06353021413087845,0.018887363374233246,0.08241758495569229,0.15109889209270477,-0.11933378875255585,0.006009615492075682,0.0,0.0,0.0,0.0,-2.0234375,1.3828125,7.0703125,3.26953125,0.49609375,4.7265625,-3.625,1.27734375,9.16796875,3.08984375,0.4609375,7.46484375,30.4,30.0,55.6,35.4
1646244223.5033011,4803,1646244223,503086709,,"['FL0', 'FL1', 'FL2', 'FR0', 'FR1', 'FR2', 'RL0', 'RL1', 'RL2', 'RR0', 'RR1', 'RR2', 'FL_foot', 'FR_foot', 'RL_foot', 'RR_foot']",0.08892031013965607,1.0005009174346924,-2.2478718757629395,-0.22145792841911316,0.9339580535888672,-2.157940149307251,0.03834950923919678,1.0304219722747803,-2.2397806644439697,-0.164312943816185,0.9740777015686035,-2.1592888832092285,0.0,0.0,0.0,0.0,0.003434065729379654,0.14337225258350372,-0.03434066101908684,0.03863323852419853,0.010302198119461536,-0.0008585164905525744,-0.0,0.014594780281186104,-0.09186126291751862,-0.0,0.03176511079072952,0.06009615585207939,0.0,0.0,0.0,0.0,-2.0234375,1.3828125,7.14453125,3.125,0.42578125,4.796875,-3.66015625,1.3828125,9.02734375,3.125,0.42578125,7.0703125,30.2,30.2,55.8,35.2
1646244223.505357,4804,1646244223,505212240,,"['FL0', 'FL1', 'FL2', 'FR0', 'FR1', 'FR2', 'RL0', 'RL1', 'RL2', 'RR0', 'RR1', 'RR2', 'FL_foot', 'FR_foot', 'RL_foot', 'RR_foot']",0.08900459855794907,1.0005428791046143,-2.2478718757629395,-0.22137364745140076,0.9339580535888672,-2.157940149307251,0.038307368755340576,1.0304639339447021,-2.2397806644439697,-0.1643550843000412,0.9738247394561768,-2.1592888832092285,0.0,0.0,0.0,0.0,0.07554944604635239,0.13478708267211914,-0.026614010334014893,0.12877745926380157,0.0008585164905525744,-0.0,-0.0008585164323449135,-0.03777472674846649,-0.052369505167007446,-0.10130494087934494,-0.10388049483299255,0.0223214291036129,0.0,0.0,0.0,0.0,-1.91796875,1.52734375,7.1796875,3.08984375,0.31640625,4.58203125,-3.6953125,1.3125,9.02734375,3.19921875,0.31640625,7.25,30.0,30.4,56.0,35.0
1646244223.5075386,4805,1646244223,507339387,,"['FL0', 'FL1', 'FL2', 'FR0', 'FR1', 'FR2', 'RL0', 'RL1', 'RL2', 'RR0', 'RR1', 'RR2', 'FL_foot', 'FR_foot', 'RL_foot', 'RR_foot']",0.08904673904180527,1.0005850791931152,-2.2478299140930176,-0.22133150696754456,0.9339580535888672,-2.157940149307251,0.038265228271484375,1.0305061340332031,-2.2397384643554688,-0.1643550843000412,0.973613977432251,-2.1592466831207275,0.0,0.0,0.0,0.0,-0.019745878875255585,-0.009443681687116623,0.07640796899795532,0.004292582161724567,0.024038461968302727,0.0008585164905525744,-0.01631181314587593,-0.024038461968302727,0.06953983753919601,0.05494505167007446,-0.05408653989434242,0.16826923191547394,0.0,0.0,0.0,0.0,-1.5625,1.52734375,7.1796875,3.4453125,0.74609375,4.76171875,-3.6953125,1.34765625,9.16796875,3.125,0.49609375,7.21484375,30.0,30.4,56.0,35.0
1646244223.5097508,4806,1646244223,509465760,,"['FL0', 'FL1', 'FL2', 'FR0', 'FR1', 'FR2', 'RL0', 'RL1', 'RL2', 'RR0', 'RR1', 'RR2', 'FL_foot', 'FR_foot', 'RL_foot', 'RR_foot']",0.08917316794395447,1.000711441040039,-2.2478299140930176,-0.22124722599983215,0.9338738918304443,-2.157940149307251,0.038223087787628174,1.030590534210205,-2.2397806644439697,-0.1643972247838974,0.9732346534729004,-2.1592888832092285,0.0,0.0,0.0,0.0,0.12791894376277924,0.009443681687116623,0.0008585164905525744,0.0008585164323449135,-0.13478708267211914,0.004292582627385855,-0.07211537659168243,0.03176511079072952,-0.08756868541240692,0.03519917279481888,-0.07640796899795532,-0.08585164695978165,0.0,0.0,0.0,0.0,-1.98828125,1.421875,7.109375,3.375,0.390625,4.76171875,-3.765625,1.5625,9.27734375,3.08984375,0.49609375,7.21484375,30.0,30.4,56.0,35.0
1646244223.5118942,4807,1646244223,511653896,,"['FL0', 'FL1', 'FL2', 'FR0', 'FR1', 'FR2', 'RL0', 'RL1', 'RL2', 'RR0', 'RR1', 'RR2', 'FL_foot', 'FR_foot', 'RL_foot', 'RR_foot']",0.08921530842781067,1.000838041305542,-2.2478299140930176,-0.22120508551597595,0.9338316917419434,-2.157982349395752,0.03818094730377197,1.030632495880127,-2.2397384643554688,-0.1643972247838974,0.9729819297790527,-2.1592888832092285,0.0,0.0,0.0,0.0,-0.03434065729379654,0.136504128575325,0.06524725258350372,-0.01631181314587593,-0.03176511079072952,-0.06009615585207939,-0.04550136998295784,0.01631181314587593,0.0334821417927742,0.12190933525562286,-0.16140109300613403,-0.13993819057941437,0.0,0.0,0.0,0.0,-1.8828125,1.27734375,7.0,3.125,0.35546875,4.51171875,-3.33984375,1.421875,9.34765625,3.125,0.56640625,7.28515625,30.0,30.4,56.0,35.0
1646244223.5140417,4808,1646244223,513899309,,"['FL0', 'FL1', 'FL2', 'FR0', 'FR1', 'FR2', 'RL0', 'RL1', 'RL2', 'RR0', 'RR1', 'RR2', 'FL_foot', 'FR_foot', 'RL_foot', 'RR_foot']",0.08934173732995987,1.0008800029754639,-2.2478299140930176,-0.22112078964710236,0.9337472915649414,-2.157940149307251,0.03813880681991577,1.030632495880127,-2.2397384643554688,-0.1644815057516098,0.9728133678436279,-2.1592466831207275,0.0,0.0,0.0,0.0,0.08499312400817871,0.026614010334014893,-0.018887363374233246,0.11246564984321594,-0.024038461968302727,0.09958790987730026,-0.06438872963190079,0.0,0.0017170329811051488,-0.08842719346284866,-0.17342032492160797,-0.03262362629175186,0.0,0.0,0.0,0.0,-1.73828125,1.45703125,7.109375,2.984375,0.6015625,4.65625,-3.625,1.34765625,9.0625,3.01953125,0.56640625,7.14453125,30.2,30.4,56.0,35.0
1646244223.5162015,4809,1646244223,516027587,,"['FL0', 'FL1', 'FL2', 'FR0', 'FR1', 'FR2', 'RL0', 'RL1', 'RL2', 'RR0', 'RR1', 'RR2', 'FL_foot', 'FR_foot', 'RL_foot', 'RR_foot']",0.08942601829767227,1.0009222030639648,-2.2478299140930176,-0.22107864916324615,0.9336631298065186,-2.157982349395752,0.03809666633605957,1.030674695968628,-2.2397384643554688,-0.1644815057516098,0.9726870059967041,-2.1592044830322266,0.0,0.0,0.0,0.0,0.006009615026414394,0.02146291173994541,0.002575549529865384,0.10216345638036728,0.052369505167007446,-0.06353022158145905,0.0781249925494194,0.004292582627385855,0.024038461968302727,-0.025755492970347404,0.01116071455180645,0.14337225258350372,0.0,0.0,0.0,0.0,-1.77734375,1.73828125,7.21484375,3.48046875,0.49609375,4.796875,-3.80078125,1.5625,9.1328125,3.19921875,0.88671875,7.14453125,30.2,30.2,56.0,35.0
1646244223.5183058,4810,1646244223,518170577,,"['FL0', 'FL1', 'FL2', 'FR0', 'FR1', 'FR2', 'RL0', 'RL1', 'RL2', 'RR0', 'RR1', 'RR2', 'FL_foot', 'FR_foot', 'RL_foot', 'RR_foot']",0.08955244719982147,1.0009644031524658,-2.2477877140045166,-0.22107864916324615,0.9335367679595947,-2.157982349395752,0.03805452585220337,1.030674695968628,-2.2397806644439697,-0.1644815057516098,0.9725604057312012,-2.1592044830322266,0.0,0.0,0.0,0.0,0.010302197188138962,0.042067307978868484,0.10903159528970718,0.04120878875255585,-0.025755494832992554,-0.019745878875255585,0.02918955869972706,-0.019745878875255585,0.01373626384884119,-0.009443680755794048,0.0334821417927742,0.01631181314587593,0.0,0.0,0.0,0.0,-2.0234375,1.4921875,7.25,3.3046875,0.390625,4.69140625,-3.765625,1.27734375,9.2421875,2.984375,0.35546875,7.35546875,30.2,30.4,56.0,35.0
1646244223.5205827,4811,1646244223,520289023,,"['FL0', 'FL1', 'FL2', 'FR0', 'FR1', 'FR2', 'RL0', 'RL1', 'RL2', 'RR0', 'RR1', 'RR2', 'FL_foot', 'FR_foot', 'RL_foot', 'RR_foot']",0.08967887610197067,1.0010066032409668,-2.2477877140045166,-0.22107864916324615,0.9334101676940918,-2.157982349395752,0.03801238536834717,1.0307590961456299,-2.2397384643554688,-0.1644815057516098,0.9725184440612793,-2.1592044830322266,0.0,0.0,0.0,0.0,-0.03262362629175186,0.012877747416496277,0.04035027325153351,0.0,-0.08070054650306702,-0.0,0.012019230052828789,0.16912774741649628,0.030906593427062035,0.04979395121335983,-0.0,0.002575549529865384,0.0,0.0,0.0,0.0,-1.84765625,1.703125,7.1796875,3.33984375,0.390625,4.69140625,-3.58984375,1.421875,9.3125,3.0546875,0.6015625,7.109375,30.2,30.6,56.0,35.0
1646244223.560501,4812,1646244223,522434853,,"['FL0', 'FL1', 'FL2', 'FR0', 'FR1', 'FR2', 'RL0', 'RL1', 'RL2', 'RR0', 'RR1', 'RR2', 'FL_foot', 'FR_foot', 'RL_foot', 'RR_foot']",0.08997387439012527,1.0010488033294678,-2.2477877140045166,-0.22107864916324615,0.9331996440887451,-2.157982349395752,0.03797024488449097,1.030716896057129,-2.2397384643554688,-0.1644815057516098,0.9724762439727783,-2.1592044830322266,0.0,0.0,0.0,0.0,0.18458102643489838,0.01631181314587593,0.002575549529865384,-0.09872938692569733,-0.09872939437627792,-0.0,0.024896975606679916,-0.04635988920927048,0.0,0.09100273996591568,-0.07554945349693298,-0.030906593427062035,0.0,0.0,0.0,0.0,-1.953125,1.34765625,7.28515625,3.375,0.390625,4.69140625,-3.58984375,1.421875,9.1328125,3.125,0.6015625,7.35546875,30.2,30.8,56.0,35.0
1646244223.5605159,4813,1646244223,524576503,,"['FL0', 'FL1', 'FL2', 'FR0', 'FR1', 'FR2', 'RL0', 'RL1', 'RL2', 'RR0', 'RR1', 'RR2', 'FL_foot', 'FR_foot', 'RL_foot', 'RR_foot']",0.09010029584169388,1.0010488033294678,-2.2477877140045166,-0.22103650867938995,0.9331152439117432,-2.157982349395752,0.03797024488449097,1.0307590961456299,-2.2397806644439697,-0.1644815057516098,0.9724762439727783,-2.1591200828552246,0.0,0.0,0.0,0.0,0.12190933525562286,0.012877747416496277,0.007726648356765509,0.019745878875255585,-0.01116071455180645,-0.0,0.10731455683708191,0.10989011079072952,-0.13221153616905212,0.048935435712337494,-0.004292582627385855,0.1940247267484665,0.0,0.0,0.0,0.0,-1.66796875,1.59765625,6.96484375,3.33984375,0.49609375,4.7265625,-3.73046875,1.52734375,9.41796875,3.375,0.53125,7.25,30.0,31.0,56.0,34.8
1646244223.560538,4814,1646244223,526761056,,"['FL0', 'FL1', 'FL2', 'FR0', 'FR1', 'FR2', 'RL0', 'RL1', 'RL2', 'RR0', 'RR1', 'RR2', 'FL_foot', 'FR_foot', 'RL_foot', 'RR_foot']",0.09026886522769928,1.0010488033294678,-2.2477877140045166,-0.22103650867938995,0.9329466819763184,-2.157982349395752,0.03797024488449097,1.030716896057129,-2.2397384643554688,-0.1644815057516098,0.9724762439727783,-2.1591200828552246,0.0,0.0,0.0,0.0,0.20175136625766754,0.0,-0.012877747416496277,-0.06009615212678909,-0.18629807233810425,0.07125686854124069,0.1493818610906601,-0.06438873708248138,0.0,0.007726647891104221,0.007726648356765509,0.05065247416496277,0.0,0.0,0.0,0.0,-1.66796875,1.59765625,7.21484375,3.19921875,0.49609375,4.9375,-3.41015625,1.34765625,9.16796875,3.0546875,0.4609375,7.28515625,30.0,31.4,56.0,34.6
1646244223.5606484,4815,1646244223,528884922,,"['FL0', 'FL1', 'FL2', 'FR0', 'FR1', 'FR2', 'RL0', 'RL1', 'RL2', 'RR0', 'RR1', 'RR2', 'FL_foot', 'FR_foot', 'RL_foot', 'RR_foot']",0.09035315364599228,1.0010488033294678,-2.2477877140045166,-0.22099436819553375,0.9328622817993164,-2.157982349395752,0.037885963916778564,1.030716896057129,-2.2397384643554688,-0.1644815057516098,0.9724340438842773,-2.1591200828552246,0.0,0.0,0.0,0.0,0.024038460105657578,0.0,-0.09958790987730026,0.0,-0.10903159528970718,-0.0,-0.13049450516700745,-0.06181318685412407,0.0,0.13478708267211914,-0.06610576808452606,-0.0,0.0,0.0,0.0,0.0,-1.6328125,1.5625,7.25,3.08984375,0.671875,4.62109375,-3.5546875,1.34765625,9.203125,3.19921875,0.56640625,7.25,30.0,31.6,56.0,34.4
1646244223.5607188,4816,1646244223,531013671,,"['FL0', 'FL1', 'FL2', 'FR0', 'FR1', 'FR2', 'RL0', 'RL1', 'RL2', 'RR0', 'RR1', 'RR2', 'FL_foot', 'FR_foot', 'RL_foot', 'RR_foot']",0.09052172303199768,1.0010907649993896,-2.2477877140045166,-0.22095222771167755,0.9327781200408936,-2.158024549484253,0.037928104400634766,1.0307590961456299,-2.2397384643554688,-0.164523646235466,0.9723918437957764,-2.1590781211853027,0.0,0.0,0.0,0.0,0.11933378130197525,0.09615384787321091,-0.06953983753919601,0.036916207522153854,-0.052369505167007446,-0.078125,-0.03863323852419853,0.01116071455180645,0.07898351550102234,-0.012019230052828789,-0.10302197933197021,0.030048077926039696,0.0,0.0,0.0,0.0,-1.91796875,1.45703125,7.14453125,3.08984375,0.53125,4.83203125,-3.58984375,1.45703125,9.16796875,3.16015625,0.42578125,7.28515625,30.0,31.6,56.2,34.2
1646244223.5607903,4817,1646244223,533208121,,"['FL0', 'FL1', 'FL2', 'FR0', 'FR1', 'FR2', 'RL0', 'RL1', 'RL2', 'RR0', 'RR1', 'RR2', 'FL_foot', 'FR_foot', 'RL_foot', 'RR_foot']",0.09056386351585388,1.0010488033294678,-2.2477455139160156,-0.22095222771167755,0.9326937198638916,-2.157982349395752,0.037885963916778564,1.0307590961456299,-2.2397384643554688,-0.164523646235466,0.9723496437072754,-2.1590359210968018,0.0,0.0,0.0,0.0,0.10388048738241196,-0.012019230984151363,0.0008585164905525744,0.0,-0.02747252769768238,0.06095467135310173,-0.012877746485173702,0.06438873708248138,-0.012019230984151363,-0.019745878875255585,-0.012019230984151363,0.11246565729379654,0.0,0.0,0.0,0.0,-2.16796875,1.52734375,7.21484375,2.9140625,0.31640625,4.8671875,-3.6953125,1.171875,9.203125,3.33984375,0.49609375,7.14453125,30.0,31.6,56.4,34.0
1646244223.5608902,4818,1646244223,535464077,,"['FL0', 'FL1', 'FL2', 'FR0', 'FR1', 'FR2', 'RL0', 'RL1', 'RL2', 'RR0', 'RR1', 'RR2', 'FL_foot', 'FR_foot', 'RL_foot', 'RR_foot']",0.09064814448356628,1.0010066032409668,-2.2477455139160156,-0.22095222771167755,0.9326095581054688,-2.158024549484253,0.037928104400634766,1.0307590961456299,-2.2397384643554688,-0.1644815057516098,0.9722654819488525,-2.1590359210968018,0.0,0.0,0.0,0.0,-0.0008585164323449135,-0.13478708267211914,0.01631181314587593,0.0,-0.026614010334014893,0.1004464328289032,-0.0,0.0017170329811051488,0.007726648356765509,0.025755492970347404,-0.04550137370824814,0.05494505539536476,0.0,0.0,0.0,0.0,-2.0234375,1.3828125,7.25,2.94921875,0.671875,4.58203125,-3.515625,1.421875,9.203125,3.33984375,0.63671875,7.25,30.0,31.6,56.4,34.0
1646244223.5609162,4819,1646244223,537682552,,"['FL0', 'FL1', 'FL2', 'FR0', 'FR1', 'FR2', 'RL0', 'RL1', 'RL2', 'RR0', 'RR1', 'RR2', 'FL_foot', 'FR_foot', 'RL_foot', 'RR_foot']",0.09069029241800308,1.0010488033294678,-2.2477455139160156,-0.22095222771167755,0.9325673580169678,-2.157982349395752,0.037928104400634766,1.0307590961456299,-2.2397384643554688,-0.1644815057516098,0.9722232818603516,-2.1590359210968018,0.0,0.0,0.0,0.0,0.15968406200408936,0.002575549529865384,-0.018887363374233246,-0.0008585164323449135,-0.06868132203817368,0.13307005167007446,-0.0,0.006868131924420595,0.0017170329811051488,0.0008585164323449135,-0.0334821417927742,-0.0,0.0,0.0,0.0,0.0,-1.91796875,1.4921875,7.21484375,3.01953125,0.56640625,4.90234375,-3.5546875,1.45703125,9.3125,3.125,0.74609375,7.25,29.8,31.6,56.4,34.0
1646244223.560961,4820,1646244223,539938807,,"['FL0', 'FL1', 'FL2', 'FR0', 'FR1', 'FR2', 'RL0', 'RL1', 'RL2', 'RR0', 'RR1', 'RR2', 'FL_foot', 'FR_foot', 'RL_foot', 'RR_foot']",0.09064814448356628,1.0010488033294678,-2.2477033138275146,-0.22095222771167755,0.9325251579284668,-2.158024549484253,0.037928104400634766,1.030716896057129,-2.2397384643554688,-0.1644393652677536,0.9721391201019287,-2.1590359210968018,0.0,0.0,0.0,0.0,-0.07211537659168243,0.025755494832992554,0.12877747416496277,-0.019745878875255585,-0.16826923191547394,-0.08155906945466995,-0.004292582161724567,-0.07640796899795532,-0.024038461968302727,0.24210163950920105,-0.13049450516700745,-0.057520605623722076,0.0,0.0,0.0,0.0,-2.203125,1.3125,7.14453125,2.94921875,0.6015625,4.90234375,-3.375,1.34765625,9.27734375,3.33984375,0.63671875,7.35546875,29.6,31.6,56.4,34.2
1646244223.561012,4821,1646244223,542147704,,"['FL0', 'FL1', 'FL2', 'FR0', 'FR1', 'FR2', 'RL0', 'RL1', 'RL2', 'RR0', 'RR1', 'RR2', 'FL_foot', 'FR_foot', 'RL_foot', 'RR_foot']",0.09064814448356628,1.0010066032409668,-2.2477455139160156,-0.22095222771167755,0.9325673580169678,-2.158024549484253,0.037928104400634766,1.030716896057129,-2.2397384643554688,-0.1644815057516098,0.9720969200134277,-2.1590359210968018,0.0,0.0,0.0,0.0,-0.036916207522153854,-0.08413461595773697,-0.1116071417927742,-0.048076920211315155,-0.03949175775051117,-0.059237636625766754,-0.01459477934986353,-0.08671016246080399,0.06353022158145905,0.031765107065439224,-0.13478708267211914,-0.01116071455180645,0.0,0.0,0.0,0.0,-2.05859375,1.6328125,7.21484375,3.16015625,0.42578125,4.90234375,-3.625,1.02734375,9.3125,3.4453125,0.63671875,7.14453125,29.4,31.8,56.2,34.4
1646244223.5610256,4822,1646244223,544399776,,"['FL0', 'FL1', 'FL2', 'FR0', 'FR1', 'FR2', 'RL0', 'RL1', 'RL2', 'RR0', 'RR1', 'RR2', 'FL_foot', 'FR_foot', 'RL_foot', 'RR_foot']",0.09064814448356628,1.0010488033294678,-2.2477033138275146,-0.22095222771167755,0.9326095581054688,-2.158024549484253,0.037928104400634766,1.030716896057129,-2.2397384643554688,-0.1644815057516098,0.9721391201019287,-2.1590359210968018,0.0,0.0,0.0,0.0,-0.0008585164323449135,0.048076923936605453,0.020604396238923073,0.007726647891104221,0.09787087887525558,-0.057520605623722076,-0.0,-0.06953983753919601,0.030906593427062035,0.0025755492970347404,0.09271977841854095,0.009443681687116623,0.0,0.0,0.0,0.0,-2.203125,1.3828125,7.1796875,3.01953125,0.6015625,4.9375,-3.375,1.27734375,9.27734375,3.41015625,0.63671875,7.21484375,29.4,31.8,56.2,34.4
1646244223.5610573,4823,1646244223,546648143,,"['FL0', 'FL1', 'FL2', 'FR0', 'FR1', 'FR2', 'RL0', 'RL1', 'RL2', 'RR0', 'RR1', 'RR2', 'FL_foot', 'FR_foot', 'RL_foot', 'RR_foot']",0.09060600399971008,1.0010066032409668,-2.2477455139160156,-0.22095222771167755,0.9326095581054688,-2.157982349395752,0.037928104400634766,1.030716896057129,-2.2397384643554688,-0.1644815057516098,0.9721391201019287,-2.1590359210968018,0.0,0.0,0.0,0.0,-0.12019230425357819,-0.1450892835855484,-0.16483516991138458,0.0025755492970347404,0.10302197933197021,0.10559752583503723,-0.0,-0.002575549529865384,-0.006868131924420595,-0.11504120379686356,-0.04635988920927048,-0.024896977469325066,0.0,0.0,0.0,0.0,-2.16796875,1.45703125,7.0703125,3.0546875,0.42578125,4.9375,-3.4453125,1.59765625,9.09765625,3.48046875,0.671875,7.390625,29.2,31.6,56.4,34.6
1646244223.5611064,4824,1646244223,548957032,,"['FL0', 'FL1', 'FL2', 'FR0', 'FR1', 'FR2', 'RL0', 'RL1', 'RL2', 'RR0', 'RR1', 'RR2', 'FL_foot', 'FR_foot', 'RL_foot', 'RR_foot']",0.09064814448356628,1.0010066032409668,-2.2477033138275146,-0.22095222771167755,0.9325673580169678,-2.158024549484253,0.037928104400634766,1.030716896057129,-2.2397384643554688,-0.1644393652677536,0.9721391201019287,-2.1590359210968018,0.0,0.0,0.0,0.0,0.005151098594069481,-0.01116071455180645,0.0,-0.003434065729379654,-0.10903159528970718,-0.04893543943762779,-0.031765107065439224,-0.005151099059730768,0.04378434270620346,-0.0,-0.09271977841854095,-0.0008585164905525744,0.0,0.0,0.0,0.0,-2.203125,1.1015625,7.1796875,3.16015625,0.9921875,4.90234375,-3.515625,1.06640625,9.203125,3.33984375,0.74609375,7.21484375,29.2,31.6,56.6,34.8
1646244223.5611339,4825,1646244223,551161415,,"['FL0', 'FL1', 'FL2', 'FR0', 'FR1', 'FR2', 'RL0', 'RL1', 'RL2', 'RR0', 'RR1', 'RR2', 'FL_foot', 'FR_foot', 'RL_foot', 'RR_foot']",0.09060600399971008,1.0010066032409668,-2.2477033138275146,-0.22099436819553375,0.9326095581054688,-2.158024549484253,0.03797024488449097,1.030716896057129,-2.2397806644439697,-0.1644815057516098,0.9721810817718506,-2.1590359210968018,0.0,0.0,0.0,0.0,-0.09100273996591568,0.002575549529865384,0.0,-0.0712568610906601,0.04035027325153351,-0.06095467135310173,0.11332416534423828,0.04979395493865013,-0.12620192766189575,-0.08413460850715637,0.0223214291036129,-0.002575549529865384,0.0,0.0,0.0,0.0,-2.16796875,1.421875,6.96484375,2.9140625,0.95703125,4.8671875,-3.3046875,1.06640625,9.1328125,3.41015625,0.7109375,7.42578125,29.2,31.4,56.8,34.8
1646244223.5612516,4826,1646244223,553420841,,"['FL0', 'FL1', 'FL2', 'FR0', 'FR1', 'FR2', 'RL0', 'RL1', 'RL2', 'RR0', 'RR1', 'RR2', 'FL_foot', 'FR_foot', 'RL_foot', 'RR_foot']",0.09060600399971008,1.0009222030639648,-2.2477033138275146,-0.22099436819553375,0.9326095581054688,-2.158024549484253,0.03797024488449097,1.030716896057129,-2.2397384643554688,-0.1644393652677536,0.9722232818603516,-2.1590359210968018,0.0,0.0,0.0,0.0,-0.11074861884117126,-0.1004464328289032,-0.024896977469325066,-0.006009615026414394,0.04035027325153351,-0.04035027325153351,0.10216345638036728,0.0,0.03863324224948883,0.03863323852419853,0.12877747416496277,-0.019745878875255585,0.0,0.0,0.0,0.0,-2.16796875,1.2421875,7.0703125,3.01953125,0.81640625,4.9375,-3.33984375,1.2421875,9.16796875,3.33984375,0.88671875,7.25,29.2,31.4,57.0,34.8
1646244223.5613434,4827,1646244223,555669870,,"['FL0', 'FL1', 'FL2', 'FR0', 'FR1', 'FR2', 'RL0', 'RL1', 'RL2', 'RR0', 'RR1', 'RR2', 'FL_foot', 'FR_foot', 'RL_foot', 'RR_foot']",0.09060600399971008,1.0008800029754639,-2.2477033138275146,-0.22099436819553375,0.9326095581054688,-2.158024549484253,0.03797024488449097,1.030674695968628,-2.2397806644439697,-0.1644393652677536,0.9722654819488525,-2.1590359210968018,0.0,0.0,0.0,0.0,-0.042067304253578186,-0.07469093799591064,-0.005151099059730768,0.07726647704839706,-0.10903159528970718,-0.0223214291036129,-0.0008585164323449135,-0.036916207522153854,-0.13478708267211914,-0.0,0.10473901033401489,-0.020604396238923073,0.0,0.0,0.0,0.0,-2.34375,1.1015625,7.0,2.76953125,0.74609375,4.76171875,-3.26953125,1.06640625,9.2421875,3.4453125,1.02734375,7.25,29.0,31.6,57.0,35.0
1646244223.5614464,4828,1646244223,557896826,,"['FL0', 'FL1', 'FL2', 'FR0', 'FR1', 'FR2', 'RL0', 'RL1', 'RL2', 'RR0', 'RR1', 'RR2', 'FL_foot', 'FR_foot', 'RL_foot', 'RR_foot']",0.09060600399971008,1.000838041305542,-2.2477033138275146,-0.22103650867938995,0.9326937198638916,-2.157982349395752,0.03801238536834717,1.030674695968628,-2.2397384643554688,-0.1644393652677536,0.9723076820373535,-2.158993721008301,0.0,0.0,0.0,0.0,0.047218404710292816,-0.09615384787321091,-0.004292582627385855,-0.053228020668029785,0.0446428582072258,0.08842720091342926,0.13221153616905212,-0.014594780281186104,0.0,-0.05752060189843178,0.10302197933197021,0.13221153616905212,0.0,0.0,0.0,0.0,-2.30859375,1.2421875,6.82421875,2.734375,0.95703125,4.796875,-3.125,1.1015625,9.27734375,3.41015625,0.78125,7.35546875,29.0,31.8,57.0,35.0
1646244223.561463,4829,1646244223,560149629,,"['FL0', 'FL1', 'FL2', 'FR0', 'FR1', 'FR2', 'RL0', 'RL1', 'RL2', 'RR0', 'RR1', 'RR2', 'FL_foot', 'FR_foot', 'RL_foot', 'RR_foot']",0.09056386351585388,1.000795841217041,-2.2477033138275146,-0.22103650867938995,0.9326937198638916,-2.158024549484253,0.03801238536834717,1.030674695968628,-2.2397384643554688,-0.1643972247838974,0.9723076820373535,-2.158993721008301,0.0,0.0,0.0,0.0,-0.001717032864689827,-0.047218408435583115,0.0,-0.06095466762781143,-0.08671016246080399,-0.00858516525477171,0.015453295782208443,0.0,0.0008585164905525744,0.031765107065439224,-0.10473901033401489,0.08671016246080399,0.0,0.0,0.0,0.0,-2.55859375,1.27734375,6.9296875,2.6640625,0.921875,5.046875,-3.41015625,1.2421875,9.203125,3.765625,1.20703125,7.390625,29.0,31.6,57.0,35.2
1646244223.562697,4830,1646244223,562375779,,"['FL0', 'FL1', 'FL2', 'FR0', 'FR1', 'FR2', 'RL0', 'RL1', 'RL2', 'RR0', 'RR1', 'RR2', 'FL_foot', 'FR_foot', 'RL_foot', 'RR_foot']",0.09052172303199768,1.00075364112854,-2.2477033138275146,-0.22103650867938995,0.9327781200408936,-2.158024549484253,0.03801238536834717,1.030674695968628,-2.2397384643554688,-0.1643972247838974,0.9723918437957764,-2.1590359210968018,0.0,0.0,0.0,0.0,-0.14337223768234253,-0.13478708267211914,-0.002575549529865384,0.0,0.10302197933197021,-0.03519917652010918,-0.05752060189843178,0.05408653989434242,0.0,0.0025755492970347404,0.048076923936605453,-0.08499313145875931,0.0,0.0,0.0,0.0,-2.34375,1.06640625,7.03515625,2.55859375,0.921875,5.01171875,-3.125,1.06640625,9.02734375,3.73046875,1.06640625,7.25,29.0,31.6,57.0,35.4
1646244223.6028674,4831,1646244223,564570839,,"['FL0', 'FL1', 'FL2', 'FR0', 'FR1', 'FR2', 'RL0', 'RL1', 'RL2', 'RR0', 'RR1', 'RR2', 'FL_foot', 'FR_foot', 'RL_foot', 'RR_foot']",0.09056386351585388,1.0006694793701172,-2.2477033138275146,-0.22112078964710236,0.9328622817993164,-2.158024549484253,0.03805452585220337,1.030590534210205,-2.2397384643554688,-0.1643550843000412,0.9724762439727783,-2.1590359210968018,0.0,0.0,0.0,0.0,0.10559751838445663,-0.07984203100204468,-0.0008585164905525744,-0.13478708267211914,0.08671016246080399,-0.07125686854124069,0.001717032864689827,-0.07984203100204468,0.04035027325153351,-0.053228020668029785,0.02146291173994541,-0.04378434270620346,0.0,0.0,0.0,0.0,-2.44921875,0.9921875,7.109375,2.4140625,1.06640625,5.1171875,-3.234375,1.06640625,9.16796875,3.8359375,1.06640625,7.1796875,29.0,31.4,57.0,35.6
1646244223.6029575,4832,1646244223,566781348,,"['FL0', 'FL1', 'FL2', 'FR0', 'FR1', 'FR2', 'RL0', 'RL1', 'RL2', 'RR0', 'RR1', 'RR2', 'FL_foot', 'FR_foot', 'RL_foot', 'RR_foot']",0.09052172303199768,1.0006272792816162,-2.2477033138275146,-0.22112078964710236,0.9328622817993164,-2.157982349395752,0.03809666633605957,1.030590534210205,-2.2397384643554688,-0.164312943816185,0.9725604057312012,-2.1590359210968018,0.0,0.0,0.0,0.0,-0.008585164323449135,0.03519917652010918,0.0,-0.08327609300613403,-0.01631181314587593,-0.0,0.0334821417927742,0.018887363374233246,0.0669642835855484,0.0008585164323449135,0.041208792477846146,-0.020604396238923073,0.0,0.0,0.0,0.0,-2.203125,0.9921875,6.9296875,2.984375,1.06640625,5.22265625,-3.26953125,0.8515625,9.203125,3.625,1.13671875,7.390625,29.0,31.2,57.0,35.8
1646244223.6029727,4833,1646244223,569001234,,"['FL0', 'FL1', 'FL2', 'FR0', 'FR1', 'FR2', 'RL0', 'RL1', 'RL2', 'RR0', 'RR1', 'RR2', 'FL_foot', 'FR_foot', 'RL_foot', 'RR_foot']",0.09052172303199768,1.0005428791046143,-2.2477033138275146,-0.22112078964710236,0.9329466819763184,-2.157982349395752,0.03809666633605957,1.030548334121704,-2.2397384643554688,-0.1642707884311676,0.9726026058197021,-2.158993721008301,0.0,0.0,0.0,0.0,0.0,-0.0008585164905525744,-0.0008585164905525744,0.011160713620483875,0.030048077926039696,0.020604396238923073,-0.006009615026414394,0.12877747416496277,0.0,0.16397663950920105,0.012019230984151363,0.11418269574642181,0.0,0.0,0.0,0.0,-2.34375,1.13671875,6.859375,2.62890625,1.02734375,5.01171875,-3.3046875,0.74609375,9.02734375,4.015625,1.06640625,7.3203125,29.0,31.0,57.0,36.0
1646244223.6029923,4834,1646244223,571207759,,"['FL0', 'FL1', 'FL2', 'FR0', 'FR1', 'FR2', 'RL0', 'RL1', 'RL2', 'RR0', 'RR1', 'RR2', 'FL_foot', 'FR_foot', 'RL_foot', 'RR_foot']",0.09043743461370468,1.0004165172576904,-2.2477033138275146,-0.22112078964710236,0.9330310821533203,-2.157982349395752,0.03813880681991577,1.0304639339447021,-2.2397384643554688,-0.164312943816185,0.9726870059967041,-2.1590781211853027,0.0,0.0,0.0,0.0,-0.10731455683708191,-0.00858516525477171,-0.007726648356765509,0.15024037659168243,0.06868132203817368,0.010302198119461536,0.0025755492970347404,-0.01373626384884119,0.006868131924420595,-0.1004464253783226,0.07554945349693298,-0.1674107164144516,0.0,0.0,0.0,0.0,-2.5234375,0.81640625,6.89453125,2.734375,1.1015625,5.15234375,-2.984375,0.63671875,9.203125,3.8359375,1.1015625,7.28515625,29.0,31.0,57.0,36.0
1646244223.6030219,4835,1646244223,573433683,,"['FL0', 'FL1', 'FL2', 'FR0', 'FR1', 'FR2', 'RL0', 'RL1', 'RL2', 'RR0', 'RR1', 'RR2', 'FL_foot', 'FR_foot', 'RL_foot', 'RR_foot']",0.09043743461370468,1.0003323554992676,-2.2477033138275146,-0.22116294503211975,0.9331152439117432,-2.158024549484253,0.03818094730377197,1.0303797721862793,-2.2397384643554688,-0.1642707884311676,0.972728967666626,-2.1590359210968018,0.0,0.0,0.0,0.0,-0.01717032864689827,-0.012019230984151363,-0.03949175775051117,0.009443680755794048,0.14766483008861542,-0.09787087887525558,0.004292582161724567,-0.08155906945466995,0.0,0.03519917279481888,0.002575549529865384,0.0008585164905525744,0.0,0.0,0.0,0.0,-2.44921875,1.13671875,6.82421875,2.34375,1.13671875,5.046875,-3.125,0.74609375,9.1328125,3.80078125,1.1015625,7.390625,29.0,31.0,57.0,36.0
1646244223.603039,4836,1646244223,575655882,,"['FL0', 'FL1', 'FL2', 'FR0', 'FR1', 'FR2', 'RL0', 'RL1', 'RL2', 'RR0', 'RR1', 'RR2', 'FL_foot', 'FR_foot', 'RL_foot', 'RR_foot']",0.09035315364599228,1.0002057552337646,-2.2477033138275146,-0.22120508551597595,0.9331996440887451,-2.157982349395752,0.03818094730377197,1.0302953720092773,-2.2397384643554688,-0.1642286479473114,0.9728555679321289,-2.1590359210968018,0.0,0.0,0.0,0.0,-0.10989010334014893,-0.01116071455180645,0.0,0.08756867796182632,0.036057692021131516,-0.0,-0.14594779908657074,-0.10216346383094788,0.0017170329811051488,0.0008585164323449135,0.10817307978868484,-0.08499313145875931,0.0,0.0,0.0,0.0,-2.5234375,0.95703125,7.03515625,1.953125,1.02734375,5.01171875,-2.84375,0.78125,8.88671875,3.87109375,1.13671875,7.35546875,29.0,31.2,57.0,36.0
1646244223.603212,4837,1646244223,577913260,,"['FL0', 'FL1', 'FL2', 'FR0', 'FR1', 'FR2', 'RL0', 'RL1', 'RL2', 'RR0', 'RR1', 'RR2', 'FL_foot', 'FR_foot', 'RL_foot', 'RR_foot']",0.09026886522769928,1.0001215934753418,-2.2477033138275146,-0.22124722599983215,0.933326005935669,-2.157982349395752,0.038223087787628174,1.0302534103393555,-2.2397806644439697,-0.1642286479473114,0.9728975296020508,-2.1590359210968018,0.0,0.0,0.0,0.0,-0.1493818610906601,-0.030048077926039696,-0.012877747416496277,-0.08671016246080399,0.11332418024539948,0.006009615492075682,-0.09701235592365265,0.025755494832992554,-0.15796703100204468,-0.06267169862985611,0.0034340659622102976,0.04893543943762779,0.0,0.0,0.0,0.0,-2.62890625,1.1015625,7.0,2.30859375,1.3125,5.01171875,-2.8046875,0.921875,9.1328125,3.91015625,0.95703125,7.25,29.0,31.4,57.0,36.2
1646244223.6032867,4838,1646244223,580112427,,"['FL0', 'FL1', 'FL2', 'FR0', 'FR1', 'FR2', 'RL0', 'RL1', 'RL2', 'RR0', 'RR1', 'RR2', 'FL_foot', 'FR_foot', 'RL_foot', 'RR_foot']",0.09022672474384308,1.0000371932983398,-2.2477033138275146,-0.22128936648368835,0.9334101676940918,-2.157982349395752,0.038265228271484375,1.0301690101623535,-2.2397384643554688,-0.164144366979599,0.9730241298675537,-2.1590359210968018,0.0,0.0,0.0,0.0,-0.021462909877300262,-0.13135302066802979,0.0017170329811051488,-0.02232142724096775,0.029189560562372208,0.01116071455180645,0.008585164323449135,-0.12190934270620346,0.0,0.018887361511588097,0.10473901033401489,-0.03863324224948883,0.0,0.0,0.0,0.0,-2.59375,0.8515625,6.89453125,2.34375,1.13671875,5.47265625,-2.87890625,0.74609375,9.203125,4.015625,1.171875,7.5,29.0,31.4,57.0,36.4
1646244223.6033678,4839,1646244223,582406180,,"['FL0', 'FL1', 'FL2', 'FR0', 'FR1', 'FR2', 'RL0', 'RL1', 'RL2', 'RR0', 'RR1', 'RR2', 'FL_foot', 'FR_foot', 'RL_foot', 'RR_foot']",0.09014244377613068,0.999995231628418,-2.2477033138275146,-0.22128936648368835,0.9335367679595947,-2.157982349395752,0.038265228271484375,1.0301268100738525,-2.2397384643554688,-0.1641022264957428,0.9731504917144775,-2.1590359210968018,0.0,0.0,0.0,0.0,-0.009443680755794048,-0.06610576808452606,-0.018028846010565758,-0.048076920211315155,0.03863324224948883,-0.04035027325153351,-0.10731455683708191,-0.020604396238923073,0.0,0.10817307233810425,0.15968406200408936,-0.0,0.0,0.0,0.0,0.0,-2.69921875,0.6015625,6.859375,2.30859375,1.27734375,5.1875,-2.84375,0.78125,8.9921875,3.98046875,1.1015625,7.3203125,29.0,31.4,57.0,36.6
1646244223.6033816,4840,1646244223,584634520,,"['FL0', 'FL1', 'FL2', 'FR0', 'FR1', 'FR2', 'RL0', 'RL1', 'RL2', 'RR0', 'RR1', 'RR2', 'FL_foot', 'FR_foot', 'RL_foot', 'RR_foot']",0.08997387439012527,0.999910831451416,-2.2477033138275146,-0.22133150696754456,0.9337472915649414,-2.157982349395752,0.038307368755340576,1.0300004482269287,-2.2397384643554688,-0.1640600860118866,0.9732346534729004,-2.1590359210968018,0.0,0.0,0.0,0.0,-0.0558035671710968,-0.010302198119461536,-0.03863324224948883,-0.16140109300613403,0.12620192766189575,-0.024038461968302727,-0.005151098594069481,-0.17256180942058563,0.0,0.12791894376277924,0.0017170329811051488,0.03949175775051117,0.0,0.0,0.0,0.0,-2.76953125,0.74609375,6.9296875,2.1328125,1.34765625,5.15234375,-2.62890625,0.671875,8.84765625,4.0859375,1.13671875,7.3203125,29.0,31.4,56.8,36.8
1646244223.6033895,4841,1646244223,586848574,,"['FL0', 'FL1', 'FL2', 'FR0', 'FR1', 'FR2', 'RL0', 'RL1', 'RL2', 'RR0', 'RR1', 'RR2', 'FL_foot', 'FR_foot', 'RL_foot', 'RR_foot']",0.08984744548797607,0.999868631362915,-2.2477455139160156,-0.22137364745140076,0.9338738918304443,-2.157982349395752,0.03834950923919678,1.0299582481384277,-2.2397384643554688,-0.1640600860118866,0.9733190536499023,-2.1590359210968018,0.0,0.0,0.0,0.0,-0.16140109300613403,-0.036057692021131516,-0.13478708267211914,-0.01631181314587593,0.052369505167007446,-0.048076923936605453,-0.0,-0.13564559817314148,0.04378434270620346,0.01459477934986353,-0.059237636625766754,0.024896977469325066,0.0,0.0,0.0,0.0,-2.734375,0.6015625,6.71484375,2.37890625,1.27734375,5.33203125,-2.8046875,0.81640625,9.16796875,4.2265625,1.171875,7.42578125,29.2,31.2,56.6,37.0
1646244223.6034427,4842,1646244223,589035364,,"['FL0', 'FL1', 'FL2', 'FR0', 'FR1', 'FR2', 'RL0', 'RL1', 'RL2', 'RR0', 'RR1', 'RR2', 'FL_foot', 'FR_foot', 'RL_foot', 'RR_foot']",0.08972101658582687,0.9997844696044922,-2.2477033138275146,-0.22141578793525696,0.9339580535888672,-2.157982349395752,0.03839164972305298,1.0299162864685059,-2.2396962642669678,-0.1640600860118866,0.9734454154968262,-2.1590359210968018,0.0,0.0,0.0,0.0,-0.17771290242671967,-0.10388049483299255,-0.04979395493865013,-0.02918955869972706,-0.03262362629175186,-0.06782279908657074,0.05494505167007446,-0.006009615492075682,0.1785714328289032,-0.054086536169052124,0.07640796899795532,-0.006009615492075682,0.0,0.0,0.0,0.0,-2.69921875,0.53125,6.82421875,2.203125,1.4921875,5.1875,-2.69921875,0.4609375,9.02734375,4.19140625,1.34765625,7.3203125,29.4,31.0,56.2,37.0
1646244223.6034567,4843,1646244223,591286137,,"['FL0', 'FL1', 'FL2', 'FR0', 'FR1', 'FR2', 'RL0', 'RL1', 'RL2', 'RR0', 'RR1', 'RR2', 'FL_foot', 'FR_foot', 'RL_foot', 'RR_foot']",0.08955244719982147,0.9997422695159912,-2.2477033138275146,-0.22145792841911316,0.934084415435791,-2.157982349395752,0.03839164972305298,1.029831886291504,-2.2397384643554688,-0.1640600860118866,0.9735298156738281,-2.1590359210968018,0.0,0.0,0.0,0.0,-0.11504120379686356,-0.0008585164905525744,0.0,-0.012877746485173702,0.06953983753919601,-0.0669642835855484,-0.05065247043967247,-0.06610576808452606,0.07125686854124069,-0.030906591564416885,0.0446428582072258,0.06181318685412407,0.0,0.0,0.0,0.0,-2.69921875,0.6015625,7.0,2.23828125,1.45703125,5.22265625,-2.2734375,0.671875,9.02734375,4.19140625,1.3125,7.3203125,29.6,31.0,55.8,37.0
1646244223.603531,4844,1646244223,593504062,,"['FL0', 'FL1', 'FL2', 'FR0', 'FR1', 'FR2', 'RL0', 'RL1', 'RL2', 'RR0', 'RR1', 'RR2', 'FL_foot', 'FR_foot', 'RL_foot', 'RR_foot']",0.08929959684610367,0.9996581077575684,-2.2477033138275146,-0.22154222428798676,0.934211015701294,-2.157940149307251,0.03843379020690918,1.02970552444458,-2.2397384643554688,-0.1640179455280304,0.973656177520752,-2.1590359210968018,0.0,0.0,0.0,0.0,-0.15453295409679413,0.1270604431629181,-0.0008585164905525744,-0.013736262917518616,0.018028846010565758,0.018028846010565758,0.0025755492970347404,-0.025755494832992554,0.012019230984151363,-0.0,0.007726648356765509,0.1382211595773697,0.0,0.0,0.0,0.0,-2.5234375,0.53125,6.75390625,2.203125,1.34765625,5.1875,-2.5234375,0.390625,9.1328125,4.0859375,1.34765625,7.35546875,29.8,30.8,55.4,37.0
1646244223.6035595,4845,1646244223,595769840,,"['FL0', 'FL1', 'FL2', 'FR0', 'FR1', 'FR2', 'RL0', 'RL1', 'RL2', 'RR0', 'RR1', 'RR2', 'FL_foot', 'FR_foot', 'RL_foot', 'RR_foot']",0.08913102746009827,0.9995315074920654,-2.2477033138275146,-0.22158436477184296,0.9342532157897949,-2.157982349395752,0.03843379020690918,1.0296211242675781,-2.2397384643554688,-0.1640179455280304,0.9737405776977539,-2.1590359210968018,0.0,0.0,0.0,0.0,-0.10817307233810425,-0.03777472674846649,0.024896977469325066,-0.08155906200408936,0.0008585164905525744,-0.16225962340831757,-0.04635988920927048,-0.0223214291036129,0.014594780281186104,-0.0,-0.0446428582072258,0.1004464328289032,0.0,0.0,0.0,0.0,-2.76953125,0.42578125,6.89453125,2.2734375,1.3828125,5.22265625,-2.59375,0.49609375,9.09765625,4.265625,1.34765625,7.35546875,30.0,30.6,55.4,37.0
1646244223.6036181,4846,1646244223,597996677,,"['FL0', 'FL1', 'FL2', 'FR0', 'FR1', 'FR2', 'RL0', 'RL1', 'RL2', 'RR0', 'RR1', 'RR2', 'FL_foot', 'FR_foot', 'RL_foot', 'RR_foot']",0.08896245807409286,0.9994473457336426,-2.2477033138275146,-0.22158436477184296,0.9342951774597168,-2.157940149307251,0.03847593069076538,1.0295369625091553,-2.2397384643554688,-0.1640179455280304,0.9739091396331787,-2.1590781211853027,0.0,0.0,0.0,0.0,-0.06181318312883377,-0.00858516525477171,-0.002575549529865384,0.024038460105657578,-0.07554945349693298,0.0017170329811051488,-0.0,0.047218408435583115,0.030906593427062035,-0.048935435712337494,0.09529533237218857,-0.007726648356765509,0.0,0.0,0.0,0.0,-2.9140625,0.63671875,6.859375,2.203125,1.4921875,5.1171875,-2.5234375,0.671875,8.84765625,4.15625,1.421875,7.25,30.0,30.4,55.4,37.2
1646244223.6036294,4847,1646244223,600281068,,"['FL0', 'FL1', 'FL2', 'FR0', 'FR1', 'FR2', 'RL0', 'RL1', 'RL2', 'RR0', 'RR1', 'RR2', 'FL_foot', 'FR_foot', 'RL_foot', 'RR_foot']",0.08875174075365067,0.9993207454681396,-2.2477033138275146,-0.22166864573955536,0.9343795776367188,-2.157940149307251,0.03851807117462158,1.0294103622436523,-2.2397384643554688,-0.1639758050441742,0.9740355014801025,-2.1590781211853027,0.0,0.0,0.0,0.0,-0.18028844892978668,-0.024038461968302727,0.0223214291036129,-0.08327609300613403,0.0034340659622102976,-0.004292582627385855,0.003434065729379654,-0.04378434270620346,0.09529533237218857,-0.008585164323449135,0.01717033050954342,0.002575549529865384,0.0,0.0,0.0,0.0,-2.6640625,0.6015625,6.6796875,2.09375,1.3828125,5.3671875,-2.5234375,0.42578125,8.95703125,4.30078125,1.20703125,7.3203125,30.0,30.2,55.6,37.4
1646244223.6037352,4848,1646244223,602502148,,"['FL0', 'FL1', 'FL2', 'FR0', 'FR1', 'FR2', 'RL0', 'RL1', 'RL2', 'RR0', 'RR1', 'RR2', 'FL_foot', 'FR_foot', 'RL_foot', 'RR_foot']",0.08854103088378906,0.9991521835327148,-2.2477033138275146,-0.22171078622341156,0.9344637393951416,-2.157940149307251,0.03851807117462158,1.0292840003967285,-2.2397806644439697,-0.163933664560318,0.9743304252624512,-2.1590781211853027,0.0,0.0,0.0,0.0,-0.06267169862985611,-0.1253434121608734,-0.03863324224948883,-0.005151098594069481,-0.0,-0.09872939437627792,-0.08327609300613403,-0.005151099059730768,-0.1674107164144516,0.006009615026414394,0.18887363374233246,-0.030906593427062035,0.0,0.0,0.0,0.0,-2.87890625,0.56640625,7.0,2.37890625,1.45703125,5.40234375,-2.62890625,0.53125,9.0625,4.265625,1.3828125,7.14453125,30.0,30.2,55.6,37.6
1646244223.6049984,4849,1646244223,604724851,,"['FL0', 'FL1', 'FL2', 'FR0', 'FR1', 'FR2', 'RL0', 'RL1', 'RL2', 'RR0', 'RR1', 'RR2', 'FL_foot', 'FR_foot', 'RL_foot', 'RR_foot']",0.08845674991607666,0.999068021774292,-2.2477033138275146,-0.22175292670726776,0.9345059394836426,-2.15789794921875,0.03851807117462158,1.0291576385498047,-2.2397384643554688,-0.163933664560318,0.974498987197876,-2.1590781211853027,0.0,0.0,0.0,0.0,0.024896975606679916,-0.01116071455180645,0.0,0.030048076063394547,-0.030048077926039696,0.1339285671710968,-0.1536744385957718,-0.0558035708963871,0.024896977469325066,-0.07039834558963776,0.06524725258350372,0.0008585164905525744,0.0,0.0,0.0,0.0,-2.87890625,0.49609375,6.75390625,1.77734375,1.5625,5.2578125,-2.5234375,0.390625,9.02734375,4.546875,1.4921875,7.14453125,30.0,30.4,55.6,37.8
1646244223.6451929,4850,1646244223,606944753,,"['FL0', 'FL1', 'FL2', 'FR0', 'FR1', 'FR2', 'RL0', 'RL1', 'RL2', 'RR0', 'RR1', 'RR2', 'FL_foot', 'FR_foot', 'RL_foot', 'RR_foot']",0.08837246149778366,0.9989416599273682,-2.2477455139160156,-0.22183722257614136,0.9345903396606445,-2.157940149307251,0.03856021165847778,1.0290732383728027,-2.2397384643554688,-0.1638915091753006,0.9747097492218018,-2.1590781211853027,0.0,0.0,0.0,0.0,-0.01802884414792061,-0.0669642835855484,-0.13478708267211914,-0.054086536169052124,0.0034340659622102976,-0.004292582627385855,-0.007726647891104221,-0.08756868541240692,0.030906593427062035,0.06953983008861542,0.12190934270620346,0.018887363374233246,0.0,0.0,0.0,0.0,-3.01953125,0.31640625,6.82421875,2.203125,1.45703125,5.40234375,-2.5234375,0.56640625,8.671875,4.40625,1.3828125,7.3203125,30.2,30.6,55.4,38.0
1646244223.6452477,4851,1646244223,609177730,,"['FL0', 'FL1', 'FL2', 'FR0', 'FR1', 'FR2', 'RL0', 'RL1', 'RL2', 'RR0', 'RR1', 'RR2', 'FL_foot', 'FR_foot', 'RL_foot', 'RR_foot']",0.08828818053007126,0.9987730979919434,-2.2477033138275146,-0.22192150354385376,0.9346745014190674,-2.157940149307251,0.038602352142333984,1.0289890766143799,-2.2397384643554688,-0.1638915091753006,0.9749205112457275,-2.1590781211853027,0.0,0.0,0.0,0.0,-0.05236950144171715,-0.234375,-0.04635988920927048,-0.18028844892978668,0.0223214291036129,-0.1004464328289032,0.0008585164323449135,-0.015453296713531017,0.03176511079072952,-0.09186125546693802,0.12019231170415878,0.06868132203817368,0.0,0.0,0.0,0.0,-2.94921875,0.4609375,6.89453125,1.8828125,1.45703125,5.4375,-2.62890625,0.49609375,8.77734375,4.265625,1.45703125,7.3203125,30.4,30.8,55.2,38.0
1646244223.6452785,4852,1646244223,611404080,,"['FL0', 'FL1', 'FL2', 'FR0', 'FR1', 'FR2', 'RL0', 'RL1', 'RL2', 'RR0', 'RR1', 'RR2', 'FL_foot', 'FR_foot', 'RL_foot', 'RR_foot']",0.08824603259563446,0.9986886978149414,-2.2477033138275146,-0.22192150354385376,0.9347167015075684,-2.15789794921875,0.038644492626190186,1.028862714767456,-2.2397384643554688,-0.1638493686914444,0.9750890731811523,-2.1591200828552246,0.0,0.0,0.0,0.0,-0.08585163950920105,-0.01631181314587593,0.0,0.02232142724096775,-0.08413461595773697,0.020604396238923073,0.09529532492160797,-0.05494505539536476,0.04378434270620346,0.009443680755794048,-0.01373626384884119,-0.09787087887525558,0.0,0.0,0.0,0.0,-2.9140625,0.53125,7.0703125,2.203125,1.5625,5.2578125,-2.44921875,0.42578125,8.84765625,4.3359375,1.4921875,7.35546875,30.6,31.0,55.0,38.0
1646244223.645307,4853,1646244223,613641199,,"['FL0', 'FL1', 'FL2', 'FR0', 'FR1', 'FR2', 'RL0', 'RL1', 'RL2', 'RR0', 'RR1', 'RR2', 'FL_foot', 'FR_foot', 'RL_foot', 'RR_foot']",0.08820389211177826,0.9984779357910156,-2.2477033138275146,-0.22204792499542236,0.9348852634429932,-2.15789794921875,0.038644492626190186,1.0286941528320312,-2.2397384643554688,-0.1638493686914444,0.975341796875,-2.1591200828552246,0.0,0.0,0.0,0.0,-0.004292582161724567,-0.02317994460463524,0.0,-0.08585163950920105,0.04550137370824814,-0.04035027325153351,-0.0025755492970347404,-0.1004464328289032,0.0008585164905525744,0.019745878875255585,0.030048077926039696,-0.0,0.0,0.0,0.0,0.0,-2.94921875,0.28125,6.9296875,2.0234375,1.4921875,5.40234375,-2.44921875,0.4609375,8.84765625,4.546875,1.34765625,7.14453125,30.6,30.8,54.8,38.0
1646244223.645399,4854,1646244223,615860236,,"['FL0', 'FL1', 'FL2', 'FR0', 'FR1', 'FR2', 'RL0', 'RL1', 'RL2', 'RR0', 'RR1', 'RR2', 'FL_foot', 'FR_foot', 'RL_foot', 'RR_foot']",0.08816175162792206,0.9983093738555908,-2.2477033138275146,-0.22209006547927856,0.9349274635314941,-2.15789794921875,0.03868663311004639,1.0286097526550293,-2.2397384643554688,-0.1638493686914444,0.9754683971405029,-2.1591622829437256,0.0,0.0,0.0,0.0,-0.13478708267211914,-0.1382211595773697,0.0,-0.008585164323449135,0.004292582627385855,-0.09186126291751862,-0.0,-0.053228020668029785,0.03863324224948883,-0.10130494087934494,0.10645604133605957,0.01717033050954342,0.0,0.0,0.0,0.0,-3.125,0.4609375,7.0,2.09375,1.45703125,5.2578125,-2.55859375,0.4609375,8.921875,4.40625,1.45703125,7.28515625,30.6,30.4,54.6,38.0
1646244223.6454215,4855,1646244223,618089745,,"['FL0', 'FL1', 'FL2', 'FR0', 'FR1', 'FR2', 'RL0', 'RL1', 'RL2', 'RR0', 'RR1', 'RR2', 'FL_foot', 'FR_foot', 'RL_foot', 'RR_foot']",0.08820389211177826,0.998225212097168,-2.2477033138275146,-0.22217436134815216,0.935011625289917,-2.157855987548828,0.03872877359390259,1.0285255908966064,-2.2396962642669678,-0.1638072282075882,0.9755525588989258,-2.1591200828552246,0.0,0.0,0.0,0.0,0.053228020668029785,0.09615384787321091,-0.03176511079072952,-0.13478708267211914,-0.13478708267211914,0.10989011079072952,0.02232142724096775,-0.08585164695978165,0.0,0.010302197188138962,0.007726648356765509,0.018028846010565758,0.0,0.0,0.0,0.0,-3.19921875,0.42578125,7.03515625,1.91796875,1.59765625,5.22265625,-2.30859375,0.28125,8.95703125,4.30078125,1.421875,7.35546875,30.4,30.0,54.4,38.0
1646244223.6454396,4856,1646244223,620349260,,"['FL0', 'FL1', 'FL2', 'FR0', 'FR1', 'FR2', 'RL0', 'RL1', 'RL2', 'RR0', 'RR1', 'RR2', 'FL_foot', 'FR_foot', 'RL_foot', 'RR_foot']",0.08816175162792206,0.9980566501617432,-2.2477033138275146,-0.22217436134815216,0.9351379871368408,-2.15789794921875,0.03872877359390259,1.0284411907196045,-2.2397384643554688,-0.1638072282075882,0.9755947589874268,-2.1591200828552246,0.0,0.0,0.0,0.0,-0.012019230052828789,-0.16140109300613403,0.0,-0.08756867796182632,0.08413461595773697,-0.07898351550102234,-0.06009615212678909,-0.10903159528970718,-0.002575549529865384,-0.01717032864689827,0.11504121124744415,-0.004292582627385855,0.0,0.0,0.0,0.0,-3.125,0.4609375,6.64453125,2.1328125,1.59765625,5.29296875,-2.44921875,0.53125,8.95703125,4.3359375,1.34765625,7.3203125,30.2,29.6,54.2,38.0
1646244223.6456606,4857,1646244223,622594417,,"['FL0', 'FL1', 'FL2', 'FR0', 'FR1', 'FR2', 'RL0', 'RL1', 'RL2', 'RR0', 'RR1', 'RR2', 'FL_foot', 'FR_foot', 'RL_foot', 'RR_foot']",0.08811961114406586,0.9979722499847412,-2.2477033138275146,-0.22221650183200836,0.9353065490722656,-2.157855987548828,0.03877091407775879,1.0283570289611816,-2.2397384643554688,-0.163765087723732,0.9755947589874268,-2.1591200828552246,0.0,0.0,0.0,0.0,-0.1296359747648239,-0.018028846010565758,0.0,-0.02918955869972706,0.009443681687116623,0.01631181314587593,0.012877746485173702,-0.08327610045671463,0.0,-0.06610576808452606,-0.0892857164144516,-0.048076923936605453,0.0,0.0,0.0,0.0,-3.125,0.42578125,6.75390625,1.953125,1.5625,5.61328125,-2.34375,0.42578125,9.2421875,4.19140625,1.34765625,7.46484375,30.0,29.2,54.2,38.0
1646244223.6456957,4858,1646244223,624790993,,"['FL0', 'FL1', 'FL2', 'FR0', 'FR1', 'FR2', 'RL0', 'RL1', 'RL2', 'RR0', 'RR1', 'RR2', 'FL_foot', 'FR_foot', 'RL_foot', 'RR_foot']",0.08811961114406586,0.9979300498962402,-2.2477033138275146,-0.22221650183200836,0.9353909492492676,-2.157855987548828,0.038813114166259766,1.0283148288726807,-2.2397384643554688,-0.1637229472398758,0.9756369590759277,-2.1591200828552246,0.0,0.0,0.0,0.0,-0.053228020668029785,-0.0008585164905525744,0.0,0.0,0.015453296713531017,0.048076923936605453,0.09701235592365265,-0.030048077926039696,-0.047218408435583115,0.03519917279481888,0.02317994460463524,-0.00858516525477171,0.0,0.0,0.0,0.0,-2.69921875,0.28125,6.57421875,2.0234375,1.6328125,5.22265625,-2.30859375,0.4609375,8.9921875,4.3359375,1.5625,7.28515625,30.0,29.0,54.2,38.0
1646244223.6457238,4859,1646244223,627045873,,"['FL0', 'FL1', 'FL2', 'FR0', 'FR1', 'FR2', 'RL0', 'RL1', 'RL2', 'RR0', 'RR1', 'RR2', 'FL_foot', 'FR_foot', 'RL_foot', 'RR_foot']",0.08811961114406586,0.9979300498962402,-2.2477033138275146,-0.22221650183200836,0.9355173110961914,-2.157855987548828,0.03885525465011597,1.0282726287841797,-2.2397384643554688,-0.1636808067560196,0.9756369590759277,-2.1590781211853027,0.0,0.0,0.0,0.0,0.0558035671710968,0.018028846010565758,-0.0008585164905525744,0.03605768829584122,0.1407967060804367,0.03863324224948883,0.06610576808452606,-0.02146291173994541,-0.11589972674846649,0.08842719346284866,-0.0,0.16397665441036224,0.0,0.0,0.0,0.0,-2.984375,0.49609375,6.89453125,1.953125,1.4921875,5.22265625,-2.30859375,0.4609375,8.9921875,4.44140625,1.45703125,7.390625,30.2,29.0,54.2,38.0
1646244223.645745,4860,1646244223,629232555,,"['FL0', 'FL1', 'FL2', 'FR0', 'FR1', 'FR2', 'RL0', 'RL1', 'RL2', 'RR0', 'RR1', 'RR2', 'FL_foot', 'FR_foot', 'RL_foot', 'RR_foot']",0.08807746320962906,0.9978880882263184,-2.2477033138275146,-0.22221650183200836,0.9356017112731934,-2.157855987548828,0.03885525465011597,1.0282304286956787,-2.2396962642669678,-0.1636808067560196,0.9756789207458496,-2.1591200828552246,0.0,0.0,0.0,0.0,-0.0008585164323449135,-0.007726648356765509,-0.02317994460463524,0.06353021413087845,0.11332418024539948,-0.0,0.048935435712337494,-0.10817307978868484,0.11675824224948883,0.0008585164323449135,0.03176511079072952,-0.0008585164905525744,0.0,0.0,0.0,0.0,-2.87890625,0.49609375,6.75390625,2.203125,1.66796875,5.1875,-2.44921875,0.35546875,8.9921875,4.19140625,1.6328125,7.3203125,30.2,28.8,54.2,37.8
1646244223.6458254,4861,1646244223,631416896,,"['FL0', 'FL1', 'FL2', 'FR0', 'FR1', 'FR2', 'RL0', 'RL1', 'RL2', 'RR0', 'RR1', 'RR2', 'FL_foot', 'FR_foot', 'RL_foot', 'RR_foot']",0.08803532272577286,0.9979300498962402,-2.2477033138275146,-0.22221650183200836,0.9356858730316162,-2.157813787460327,0.03885525465011597,1.0282726287841797,-2.2396962642669678,-0.1636386662721634,0.9756789207458496,-2.1591200828552246,0.0,0.0,0.0,0.0,-0.06524725258350372,0.12620192766189575,0.030906593427062035,0.06610576808452606,0.030048077926039696,0.10388049483299255,-0.0,0.12620192766189575,0.11246565729379654,0.009443680755794048,-0.0,-0.002575549529865384,0.0,0.0,0.0,0.0,-2.8046875,0.53125,6.6796875,2.23828125,1.59765625,5.08203125,-2.37890625,0.53125,8.9921875,4.265625,1.45703125,7.390625,30.2,28.6,54.0,37.8
1646244223.645842,4862,1646244223,633630787,,"['FL0', 'FL1', 'FL2', 'FR0', 'FR1', 'FR2', 'RL0', 'RL1', 'RL2', 'RR0', 'RR1', 'RR2', 'FL_foot', 'FR_foot', 'RL_foot', 'RR_foot']",0.08803532272577286,0.9978880882263184,-2.2477033138275146,-0.22221650183200836,0.9357702732086182,-2.157813787460327,0.03889739513397217,1.0282304286956787,-2.2397384643554688,-0.1636386662721634,0.9757633209228516,-2.1591200828552246,0.0,0.0,0.0,0.0,0.012877746485173702,-0.11332418024539948,0.0,0.1296359747648239,-0.03949175775051117,0.10130494832992554,0.042925819754600525,0.012019230984151363,-0.00858516525477171,-0.04035027325153351,0.07039835304021835,-0.06438873708248138,0.0,0.0,0.0,0.0,-2.94921875,0.78125,6.7890625,1.91796875,1.59765625,5.15234375,-2.48828125,0.49609375,8.8125,4.265625,1.27734375,7.46484375,30.2,28.4,53.6,37.8
1646244223.646078,4863,1646244223,635835953,,"['FL0', 'FL1', 'FL2', 'FR0', 'FR1', 'FR2', 'RL0', 'RL1', 'RL2', 'RR0', 'RR1', 'RR2', 'FL_foot', 'FR_foot', 'RL_foot', 'RR_foot']",0.08799318224191666,0.9978880882263184,-2.2477033138275146,-0.22225864231586456,0.935854434967041,-2.157813787460327,0.03889739513397217,1.0281882286071777,-2.2396962642669678,-0.1635965257883072,0.9757633209228516,-2.1591200828552246,0.0,0.0,0.0,0.0,-0.11675823479890823,-0.002575549529865384,0.0008585164905525744,-0.010302197188138962,0.0669642835855484,-0.1339285671710968,0.004292582161724567,-0.05666209012269974,0.10130494832992554,0.02747252583503723,-0.026614010334014893,-0.030906593427062035,0.0,0.0,0.0,0.0,-2.5234375,0.53125,6.859375,2.23828125,1.421875,5.22265625,-2.44921875,0.8515625,8.84765625,4.30078125,1.27734375,7.35546875,30.4,28.2,53.6,37.8
1646244223.6460936,4864,1646244223,638037291,,"['FL0', 'FL1', 'FL2', 'FR0', 'FR1', 'FR2', 'RL0', 'RL1', 'RL2', 'RR0', 'RR1', 'RR2', 'FL_foot', 'FR_foot', 'RL_foot', 'RR_foot']",0.08799318224191666,0.9978880882263184,-2.2477033138275146,-0.22225864231586456,0.935896635055542,-2.157813787460327,0.03885525465011597,1.0281882286071777,-2.2396962642669678,-0.1635965257883072,0.9758474826812744,-2.1591200828552246,0.0,0.0,0.0,0.0,0.0,-0.04035027325153351,-0.0017170329811051488,0.019745878875255585,-0.024038461968302727,-0.0,-0.048935435712337494,-0.01373626384884119,0.0034340659622102976,0.07383241504430771,0.06438873708248138,-0.02747252769768238,0.0,0.0,0.0,0.0,-2.76953125,0.53125,6.89453125,2.203125,1.45703125,5.08203125,-2.6640625,0.49609375,9.02734375,4.12109375,1.4921875,7.109375,30.4,28.2,53.6,37.6
1646244223.6465063,4865,1646244223,640345467,,"['FL0', 'FL1', 'FL2', 'FR0', 'FR1', 'FR2', 'RL0', 'RL1', 'RL2', 'RR0', 'RR1', 'RR2', 'FL_foot', 'FR_foot', 'RL_foot', 'RR_foot']",0.08799318224191666,0.9978880882263184,-2.2477033138275146,-0.22221650183200836,0.935896635055542,-2.157813787460327,0.03889739513397217,1.0281882286071777,-2.2396962642669678,-0.1636386662721634,0.9758474826812744,-2.1590781211853027,0.0,0.0,0.0,0.0,0.0,-0.06438873708248138,0.0,0.13478708267211914,-0.0008585164905525744,-0.009443681687116623,0.10559751838445663,-0.07469093799591064,0.024038461968302727,-0.08413460850715637,-0.0,0.10559752583503723,0.0,0.0,0.0,0.0,-2.62890625,0.671875,6.75390625,2.16796875,1.45703125,5.1171875,-2.62890625,0.81640625,9.02734375,3.91015625,1.3828125,7.14453125,30.6,28.4,53.4,37.6
1646244223.646573,4866,1646244223,642618194,,"['FL0', 'FL1', 'FL2', 'FR0', 'FR1', 'FR2', 'RL0', 'RL1', 'RL2', 'RR0', 'RR1', 'RR2', 'FL_foot', 'FR_foot', 'RL_foot', 'RR_foot']",0.08795104175806046,0.9979300498962402,-2.2477033138275146,-0.22225864231586456,0.935896635055542,-2.157813787460327,0.03885525465011597,1.0282304286956787,-2.2396962642669678,-0.1635965257883072,0.9758896827697754,-2.1591200828552246,0.0,0.0,0.0,0.0,-0.13478708267211914,0.01717033050954342,-0.0008585164905525744,0.009443680755794048,-0.036057692021131516,-0.019745878875255585,-0.048076920211315155,0.03434066101908684,-0.10302197933197021,0.07554944604635239,0.014594780281186104,-0.041208792477846146,0.0,0.0,0.0,0.0,-2.6640625,0.74609375,6.82421875,2.34375,1.4921875,5.2578125,-2.76953125,0.74609375,9.16796875,3.91015625,1.27734375,7.3203125,31.0,28.4,53.4,37.4
1646244223.646678,4867,1646244223,644852477,,"['FL0', 'FL1', 'FL2', 'FR0', 'FR1', 'FR2', 'RL0', 'RL1', 'RL2', 'RR0', 'RR1', 'RR2', 'FL_foot', 'FR_foot', 'RL_foot', 'RR_foot']",0.08803532272577286,0.9979300498962402,-2.2477033138275146,-0.22225864231586456,0.935938835144043,-2.157771587371826,0.03885525465011597,1.0281882286071777,-2.2396962642669678,-0.1636386662721634,0.9758896827697754,-2.1591200828552246,0.0,0.0,0.0,0.0,-0.01717032864689827,0.0008585164905525744,0.0,-0.01717032864689827,0.17084477841854095,0.06524725258350372,-0.08756867796182632,-0.13221153616905212,0.0008585164905525744,-0.05151098594069481,0.009443681687116623,-0.15968406200408936,0.0,0.0,0.0,0.0,-2.76953125,0.6015625,6.89453125,2.203125,1.34765625,5.22265625,-2.44921875,0.6015625,8.95703125,4.0859375,1.3828125,7.25,31.4,28.6,53.6,37.2
