Time,header.seq,header.stamp.secs,header.stamp.nsecs,header.frame_id,name,position_0,position_1,position_2,position_3,position_4,position_5,position_6,position_7,position_8,position_9,position_10,position_11,position_12,position_13,position_14,position_15,velocity_0,velocity_1,velocity_2,velocity_3,velocity_4,velocity_5,velocity_6,velocity_7,velocity_8,velocity_9,velocity_10,velocity_11,velocity_12,velocity_13,velocity_14,velocity_15,effort_0,effort_1,effort_2,effort_3,effort_4,effort_5,effort_6,effort_7,effort_8,effort_9,effort_10,effort_11,effort_12,effort_13,effort_14,effort_15
1646244333.9320045,6505,1646244333,931243697,,"['FL0', 'FL1', 'FL2', 'FR0', 'FR1', 'FR2', 'RL0', 'RL1', 'RL2', 'RR0', 'RR1', 'RR2', 'FL_foot', 'FR_foot', 'RL_foot', 'RR_foot']",0.12111704796552658,0.8573012351989746,-1.892148494720459,-0.12600556015968323,0.7617223262786865,-1.8624802827835083,0.04210019111633301,0.8742845058441162,-1.8889456987380981,-0.12756483256816864,0.7704880237579346,-1.815365195274353,0.0,0.0,0.0,0.0,0.3322458565235138,0.3571428656578064,0.0,0.1828639954328537,-0.21806319057941437,0.10817307978868484,-0.3322458565235138,0.22922390699386597,-0.024896977469325066,-0.27815932035446167,-0.4558722674846649,0.23351648449897766,0.0,0.0,0.0,0.0,-1.3125,1.8828125,5.54296875,3.0546875,0.78125,4.015625,-3.80078125,1.77734375,7.46484375,2.44921875,0.78125,5.96875,26.0,27.2,58.0,35.0
1646244333.9342434,6506,1646244333,933593526,,"['FL0', 'FL1', 'FL2', 'FR0', 'FR1', 'FR2', 'RL0', 'RL1', 'RL2', 'RR0', 'RR1', 'RR2', 'FL_foot', 'FR_foot', 'RL_foot', 'RR_foot']",0.12145418673753738,0.8580176830291748,-1.892148494720459,-0.12562628090381622,0.7612588405609131,-1.8624802827835083,0.041594505310058594,0.8750009536743164,-1.8889877796173096,-0.12819696962833405,0.7695608139038086,-1.8151545524597168,0.0,0.0,0.0,0.0,0.24381867051124573,0.4223901033401489,0.0,0.2541208565235138,-0.10645604133605957,0.06095467135310173,-0.18458102643489838,0.34684064984321594,0.12105082720518112,-0.21720466017723083,-0.466174453496933,0.0892857164144516,0.0,0.0,0.0,0.0,-1.73828125,1.8125,5.7578125,2.6640625,0.921875,4.0859375,-3.66015625,1.77734375,7.3203125,2.59375,1.2421875,6.1484375,25.4,28.6,58.8,34.2
1646244333.9362814,6507,1646244333,935833297,,"['FL0', 'FL1', 'FL2', 'FR0', 'FR1', 'FR2', 'RL0', 'RL1', 'RL2', 'RR0', 'RR1', 'RR2', 'FL_foot', 'FR_foot', 'RL_foot', 'RR_foot']",0.12187561392784119,0.8589446544647217,-1.892148494720459,-0.12516272068023682,0.76045823097229,-1.8625645637512207,0.040793776512145996,0.8759703636169434,-1.889114260673523,-0.12899766862392426,0.7682967185974121,-1.8148173093795776,0.0,0.0,0.0,0.0,0.08499312400817871,0.3992101550102234,-0.05151098966598511,0.2515453100204468,-0.20690247416496277,-0.08070054650306702,-0.27987635135650635,0.3777472674846649,-0.08327610045671463,-0.2987637221813202,-0.5022321343421936,0.11761675775051117,0.0,0.0,0.0,0.0,-1.34765625,1.703125,5.40234375,2.5234375,0.78125,4.12109375,-3.58984375,1.6328125,7.21484375,2.734375,1.171875,6.2890625,25.0,29.8,59.6,33.4
1646244333.9384983,6508,1646244333,938104795,,"['FL0', 'FL1', 'FL2', 'FR0', 'FR1', 'FR2', 'RL0', 'RL1', 'RL2', 'RR0', 'RR1', 'RR2', 'FL_foot', 'FR_foot', 'RL_foot', 'RR_foot']",0.12217061221599579,0.8594505786895752,-1.892106294631958,-0.12495200335979462,0.7600367069244385,-1.8626067638397217,0.04028809070587158,0.8765602111816406,-1.889114260673523,-0.12946122884750366,0.7676222324371338,-1.8146066665649414,0.0,0.0,0.0,0.0,0.16826921701431274,0.30048078298568726,0.007726648356765509,0.12877745926380157,-0.14680631458759308,-0.03262362629175186,-0.3030562996864319,0.21119505167007446,0.0008585164905525744,-0.18887361884117126,-0.3889079689979553,0.08585164695978165,0.0,0.0,0.0,0.0,-1.59765625,1.77734375,5.3671875,2.6640625,0.921875,4.19140625,-3.515625,1.5625,7.53515625,2.6640625,1.2421875,6.3984375,24.4,30.8,60.4,32.6
1646244333.9406888,6509,1646244333,940370697,,"['FL0', 'FL1', 'FL2', 'FR0', 'FR1', 'FR2', 'RL0', 'RL1', 'RL2', 'RR0', 'RR1', 'RR2', 'FL_foot', 'FR_foot', 'RL_foot', 'RR_foot']",0.1224656030535698,0.8599982261657715,-1.8920642137527466,-0.12474129348993301,0.7594888210296631,-1.862648844718933,0.039824485778808594,0.877108097076416,-1.8891563415527344,-0.12992480397224426,0.7669479846954346,-1.8144381046295166,0.0,0.0,0.0,0.0,0.1897321343421936,0.39405906200408936,0.10302197933197021,0.2275068610906601,-0.3657280206680298,0.04550137370824814,-0.20003433525562286,0.2661401033401489,-0.06524725258350372,-0.24639421701431274,-0.3476991653442383,0.053228020668029785,0.0,0.0,0.0,0.0,-1.59765625,1.6328125,5.40234375,2.44921875,0.78125,4.19140625,-3.515625,1.6328125,7.109375,2.62890625,1.02734375,6.32421875,23.6,31.8,61.2,31.8
1646244333.9429114,6510,1646244333,942596728,,"['FL0', 'FL1', 'FL2', 'FR0', 'FR1', 'FR2', 'RL0', 'RL1', 'RL2', 'RR0', 'RR1', 'RR2', 'FL_foot', 'FR_foot', 'RL_foot', 'RR_foot']",0.1228448897600174,0.8606305122375488,-1.8920221328735352,-0.12453058362007141,0.7587723731994629,-1.862691044807434,0.03902381658554077,0.8778667449951172,-1.8892407417297363,-0.13064122200012207,0.7661051750183105,-1.8141430616378784,0.0,0.0,0.0,0.0,0.13307005167007446,0.25583791732788086,0.11675824224948883,-0.02747252583503723,-0.23780906200408936,-0.0008585164905525744,-0.23351646959781647,0.23351648449897766,-0.012877747416496277,-0.3082073926925659,-0.22578983008861542,0.030048077926039696,0.0,0.0,0.0,0.0,-1.703125,1.421875,5.4375,2.34375,1.02734375,4.37109375,-3.16015625,1.34765625,7.3203125,2.84375,1.02734375,6.21875,23.0,32.8,62.0,31.4
1646244333.945188,6511,1646244333,944835608,,"['FL0', 'FL1', 'FL2', 'FR0', 'FR1', 'FR2', 'RL0', 'RL1', 'RL2', 'RR0', 'RR1', 'RR2', 'FL_foot', 'FR_foot', 'RL_foot', 'RR_foot']",0.1230134591460228,0.8609254360198975,-1.8919799327850342,-0.12436201423406601,0.7583510875701904,-1.8627753257751465,0.03851807117462158,0.8783724308013916,-1.8892828226089478,-0.13106264173984528,0.7656416893005371,-1.8139324188232422,0.0,0.0,0.0,0.0,0.1047390028834343,0.136504128575325,0.16826923191547394,0.09958790242671967,-0.15024039149284363,-0.08499313145875931,-0.2094780057668686,0.1871565878391266,-0.002575549529865384,-0.10731455683708191,-0.21720467507839203,0.08585164695978165,0.0,0.0,0.0,0.0,-1.703125,1.4921875,5.5078125,2.34375,1.06640625,4.37109375,-3.375,1.45703125,6.96484375,2.9140625,1.2421875,6.32421875,22.6,33.6,63.2,31.0
1646244333.9474616,6512,1646244333,947061013,,"['FL0', 'FL1', 'FL2', 'FR0', 'FR1', 'FR2', 'RL0', 'RL1', 'RL2', 'RR0', 'RR1', 'RR2', 'FL_foot', 'FR_foot', 'RL_foot', 'RR_foot']",0.1231820285320282,0.8612625598907471,-1.8919799327850342,-0.12423558533191681,0.7579295635223389,-1.8628175258636475,0.03801238536834717,0.878835916519165,-1.8892828226089478,-0.13156834244728088,0.7651360034942627,-1.8138059377670288,0.0,0.0,0.0,0.0,0.06610576808452606,0.14165522158145905,0.0,0.024896975606679916,-0.1631181389093399,-0.11418269574642181,-0.31850960850715637,0.30906593799591064,0.05151098966598511,-0.3348214030265808,-0.3923420310020447,-0.07039835304021835,0.0,0.0,0.0,0.0,-1.8125,1.3828125,5.1875,2.44921875,1.20703125,4.30078125,-3.19921875,1.45703125,6.7890625,2.94921875,1.2421875,6.64453125,22.2,34.4,64.2,30.4
1646244333.9500065,6513,1646244333,949405074,,"['FL0', 'FL1', 'FL2', 'FR0', 'FR1', 'FR2', 'RL0', 'RL1', 'RL2', 'RR0', 'RR1', 'RR2', 'FL_foot', 'FR_foot', 'RL_foot', 'RR_foot']",0.1233505979180336,0.8615996837615967,-1.8919377326965332,-0.12406701594591141,0.7575502395629883,-1.8628596067428589,0.037506699562072754,0.8792994022369385,-1.8893249034881592,-0.13194763660430908,0.7647988796234131,-1.813637375831604,0.0,0.0,0.0,0.0,0.048935435712337494,0.21806319057941437,0.0017170329811051488,0.07640796154737473,-0.22407279908657074,-0.04378434270620346,-0.19660025835037231,0.35199177265167236,0.0034340659622102976,-0.13307005167007446,-0.07469093799591064,0.018887363374233246,0.0,0.0,0.0,0.0,-2.23828125,1.171875,5.29296875,2.37890625,1.2421875,4.30078125,-2.87890625,1.171875,7.3203125,3.19921875,1.45703125,6.18359375,22.0,35.2,65.4,30.2
1646244333.952111,6514,1646244333,951641720,,"['FL0', 'FL1', 'FL2', 'FR0', 'FR1', 'FR2', 'RL0', 'RL1', 'RL2', 'RR0', 'RR1', 'RR2', 'FL_foot', 'FR_foot', 'RL_foot', 'RR_foot']",0.1236034482717514,0.8620212078094482,-1.8918956518173218,-0.1238563060760498,0.7570445537567139,-1.8629016876220703,0.03683239221572876,0.8800158500671387,-1.8894093036651611,-0.1325797587633133,0.7642087936401367,-1.8134266138076782,0.0,0.0,0.0,0.0,0.026614010334014893,0.11246565729379654,0.0,0.047218404710292816,-0.13736264407634735,-0.006868131924420595,-0.1897321343421936,0.16397665441036224,-0.002575549529865384,-0.17942993342876434,-0.1717032939195633,0.03949175775051117,0.0,0.0,0.0,0.0,-1.84765625,0.9921875,5.22265625,2.2734375,1.3125,4.40625,-2.76953125,0.95703125,6.89453125,3.01953125,1.52734375,6.43359375,21.8,35.8,66.4,30.2
1646244333.954175,6515,1646244333,953873609,,"['FL0', 'FL1', 'FL2', 'FR0', 'FR1', 'FR2', 'RL0', 'RL1', 'RL2', 'RR0', 'RR1', 'RR2', 'FL_foot', 'FR_foot', 'RL_foot', 'RR_foot']",0.1237720176577568,0.8623161315917969,-1.8918535709381104,-0.1236455887556076,0.7567496299743652,-1.8629438877105713,0.03641098737716675,0.8804795742034912,-1.889493465423584,-0.1329168975353241,0.7638294696807861,-1.8133423328399658,0.0,0.0,0.0,0.0,0.04635988920927048,0.11332418024539948,0.0034340659622102976,0.19917580485343933,-0.11675824224948883,-0.06953983753919601,-0.1536744385957718,0.1854395568370819,-0.053228020668029785,-0.1116071343421936,-0.21033653616905212,0.1382211595773697,0.0,0.0,0.0,0.0,-2.34375,1.02734375,5.1875,2.09375,1.2421875,4.4765625,-2.84375,0.88671875,6.82421875,3.3046875,1.5625,6.18359375,21.6,36.2,67.4,29.8
1646244333.9562528,6516,1646244333,956062772,,"['FL0', 'FL1', 'FL2', 'FR0', 'FR1', 'FR2', 'RL0', 'RL1', 'RL2', 'RR0', 'RR1', 'RR2', 'FL_foot', 'FR_foot', 'RL_foot', 'RR_foot']",0.12394058704376221,0.8626110553741455,-1.8918113708496094,-0.1234770193696022,0.7564966678619385,-1.8629438877105713,0.03598952293395996,0.8809430599212646,-1.889577865600586,-0.1332961916923523,0.7634923458099365,-1.8133002519607544,0.0,0.0,0.0,0.0,0.12190933525562286,0.11675824224948883,-0.07898351550102234,0.1270604282617569,-0.12105082720518112,0.005151099059730768,-0.27386674284935,0.33825549483299255,-0.01373626384884119,-0.14337223768234253,-0.22578983008861542,0.1227678582072258,0.0,0.0,0.0,0.0,-2.16796875,0.95703125,5.1875,2.23828125,1.45703125,4.7265625,-2.9140625,0.81640625,6.96484375,3.0546875,1.59765625,6.43359375,21.2,36.8,68.2,29.4
1646244333.958576,6517,1646244333,958313814,,"['FL0', 'FL1', 'FL2', 'FR0', 'FR1', 'FR2', 'RL0', 'RL1', 'RL2', 'RR0', 'RR1', 'RR2', 'FL_foot', 'FR_foot', 'RL_foot', 'RR_foot']",0.12406701594591141,0.8629481792449951,-1.891727089881897,-0.1233084499835968,0.7563281059265137,-1.8629860877990723,0.03561025857925415,0.8813645839691162,-1.8896621465682983,-0.1337176114320755,0.7631974220275879,-1.8133002519607544,0.0,0.0,0.0,0.0,0.14852334558963776,0.15453296899795532,0.006868131924420595,0.12190933525562286,-0.03176511079072952,-0.09100274741649628,-0.2232142686843872,0.2858859896659851,-0.07640796899795532,-0.11504120379686356,-0.11246565729379654,0.042067307978868484,0.0,0.0,0.0,0.0,-2.203125,0.921875,5.046875,1.98828125,1.3125,4.62109375,-2.734375,0.81640625,7.03515625,3.3046875,1.52734375,6.11328125,20.8,37.2,69.0,29.4
1646244333.9608886,6518,1646244333,960578666,,"['FL0', 'FL1', 'FL2', 'FR0', 'FR1', 'FR2', 'RL0', 'RL1', 'RL2', 'RR0', 'RR1', 'RR2', 'FL_foot', 'FR_foot', 'RL_foot', 'RR_foot']",0.12410915642976761,0.8632011413574219,-1.8916428089141846,-0.1231820285320282,0.7561595439910889,-1.8630281686782837,0.03527313470840454,0.8817858695983887,-1.8897464275360107,-0.1340968906879425,0.7629444599151611,-1.8133002519607544,0.0,0.0,0.0,0.0,0.01631181314587593,0.02317994460463524,0.13478708267211914,0.0446428544819355,-0.14423076808452606,-0.07125686854124069,-0.21033652126789093,0.18458104133605957,-0.03434066101908684,-0.1717032790184021,0.02317994460463524,-0.0,0.0,0.0,0.0,0.0,-2.16796875,1.02734375,5.08203125,1.953125,1.3125,4.40625,-2.44921875,0.921875,6.75390625,3.5546875,1.5625,6.3984375,20.2,37.8,69.6,29.0
1646244333.9629369,6519,1646244333,962730903,,"['FL0', 'FL1', 'FL2', 'FR0', 'FR1', 'FR2', 'RL0', 'RL1', 'RL2', 'RR0', 'RR1', 'RR2', 'FL_foot', 'FR_foot', 'RL_foot', 'RR_foot']",0.12415129691362381,0.8635804653167725,-1.8916006088256836,-0.122971311211586,0.756117582321167,-1.8630702495574951,0.03489387035369873,0.882375955581665,-1.8898727893829346,-0.1344761699438095,0.7625651359558105,-1.8132580518722534,0.0,0.0,0.0,0.0,0.0,0.1940247267484665,-0.030048077926039696,0.024896975606679916,0.002575549529865384,0.07898351550102234,-0.07554944604635239,0.19316621124744415,-0.012019230984151363,-0.04035027325153351,-0.16397665441036224,-0.03949175775051117,0.0,0.0,0.0,0.0,-2.48828125,0.63671875,5.01171875,1.8828125,1.52734375,4.76171875,-2.48828125,0.7109375,6.82421875,3.5546875,1.77734375,6.57421875,19.8,38.4,70.2,28.6
1646244333.9651392,6520,1646244333,964882747,,"['FL0', 'FL1', 'FL2', 'FR0', 'FR1', 'FR2', 'RL0', 'RL1', 'RL2', 'RR0', 'RR1', 'RR2', 'FL_foot', 'FR_foot', 'RL_foot', 'RR_foot']",0.12415129691362381,0.8637490272521973,-1.8915164470672607,-0.1228870302438736,0.756117582321167,-1.863112449645996,0.03472524881362915,0.8827130794525146,-1.889999270439148,-0.1346868872642517,0.7623965740203857,-1.813173770904541,0.0,0.0,0.0,0.0,0.036916207522153854,0.11074862629175186,0.019745878875255585,0.025755492970347404,0.07726648449897766,-0.002575549529865384,-0.03777472302317619,0.2412431389093399,-0.11332418024539948,-0.048935435712337494,-0.09529533237218857,0.026614010334014893,0.0,0.0,0.0,0.0,-2.30859375,0.6015625,4.76171875,1.77734375,1.27734375,4.546875,-2.34375,0.53125,6.89453125,3.48046875,1.77734375,6.43359375,19.2,39.0,70.8,28.4
1646244334.005604,6521,1646244333,967094523,,"['FL0', 'FL1', 'FL2', 'FR0', 'FR1', 'FR2', 'RL0', 'RL1', 'RL2', 'RR0', 'RR1', 'RR2', 'FL_foot', 'FR_foot', 'RL_foot', 'RR_foot']",0.12410915642976761,0.8638331890106201,-1.8915164470672607,-0.1228448897600174,0.756117582321167,-1.863112449645996,0.03464096784591675,0.8828816413879395,-1.8900413513183594,-0.1348133087158203,0.7622280120849609,-1.8131316900253296,0.0,0.0,0.0,0.0,-0.01717032864689827,-0.09615384787321091,0.0,0.07984203100204468,0.052369505167007446,0.07039835304021835,-0.053228020668029785,-0.02146291173994541,-0.00858516525477171,-0.005151098594069481,-0.21033653616905212,0.13478708267211914,0.0,0.0,0.0,0.0,-2.37890625,0.42578125,4.90234375,1.45703125,1.703125,4.76171875,-2.203125,0.42578125,6.82421875,3.515625,1.8125,6.46875,18.8,39.4,71.2,28.2
1646244334.005663,6522,1646244333,969250187,,"['FL0', 'FL1', 'FL2', 'FR0', 'FR1', 'FR2', 'RL0', 'RL1', 'RL2', 'RR0', 'RR1', 'RR2', 'FL_foot', 'FR_foot', 'RL_foot', 'RR_foot']",0.12410915642976761,0.8638753890991211,-1.8914320468902588,-0.1228870302438736,0.756117582321167,-1.863154649734497,0.03468310832977295,0.8830502033233643,-1.8901257514953613,-0.13489758968353271,0.7621438503265381,-1.813173770904541,0.0,0.0,0.0,0.0,-0.01459477934986353,-0.07469093799591064,0.006868131924420595,-0.13478708267211914,-0.0,-0.012019230984151363,0.13650411367416382,0.0935782939195633,-0.0034340659622102976,-0.10302197188138962,-0.10473901033401489,-0.041208792477846146,0.0,0.0,0.0,0.0,-2.62890625,0.56640625,4.9765625,1.52734375,1.52734375,4.9375,-2.05859375,0.53125,6.75390625,3.8359375,2.05859375,6.359375,18.4,39.8,71.4,28.0
1646244334.0056777,6523,1646244333,971503046,,"['FL0', 'FL1', 'FL2', 'FR0', 'FR1', 'FR2', 'RL0', 'RL1', 'RL2', 'RR0', 'RR1', 'RR2', 'FL_foot', 'FR_foot', 'RL_foot', 'RR_foot']",0.12410915642976761,0.8638753890991211,-1.8913899660110474,-0.1228870302438736,0.756117582321167,-1.863154649734497,0.03468310832977295,0.8830924034118652,-1.8901678323745728,-0.1348554491996765,0.7621438503265381,-1.8131316900253296,0.0,0.0,0.0,0.0,-0.003434065729379654,-0.007726648356765509,0.0008585164905525744,-0.001717032864689827,-0.03949175775051117,-0.0008585164905525744,-0.0,0.01116071455180645,0.10216346383094788,-0.059237632900476456,0.16569368541240692,0.10903159528970718,0.0,0.0,0.0,0.0,-2.44921875,0.390625,4.58203125,1.45703125,1.66796875,4.76171875,-1.98828125,0.4609375,6.75390625,3.66015625,1.8125,6.359375,18.0,40.0,71.4,28.0
1646244334.0057755,6524,1646244333,973657416,,"['FL0', 'FL1', 'FL2', 'FR0', 'FR1', 'FR2', 'RL0', 'RL1', 'RL2', 'RR0', 'RR1', 'RR2', 'FL_foot', 'FR_foot', 'RL_foot', 'RR_foot']",0.12406701594591141,0.8638753890991211,-1.891305685043335,-0.1228870302438736,0.7561595439910889,-1.863154649734497,0.03472524881362915,0.8830080032348633,-1.8902521133422852,-0.1348133087158203,0.7621438503265381,-1.8130894899368286,0.0,0.0,0.0,0.0,-0.07383241504430771,0.06782279908657074,0.0017170329811051488,-0.04979395121335983,0.03777472674846649,-0.0017170329811051488,-0.053228020668029785,-0.048076923936605453,0.06009615585207939,-0.0,-0.01717033050954342,0.13135302066802979,0.0,0.0,0.0,0.0,-2.69921875,0.35546875,4.83203125,1.703125,1.8828125,4.796875,-1.84765625,0.4609375,6.3984375,3.98046875,1.953125,6.43359375,17.8,40.0,71.4,28.0
1646244334.0057979,6525,1646244333,975810106,,"['FL0', 'FL1', 'FL2', 'FR0', 'FR1', 'FR2', 'RL0', 'RL1', 'RL2', 'RR0', 'RR1', 'RR2', 'FL_foot', 'FR_foot', 'RL_foot', 'RR_foot']",0.12410915642976761,0.8638331890106201,-1.8912214040756226,-0.1228870302438736,0.7561595439910889,-1.8631967306137085,0.03476744890213013,0.8830080032348633,-1.8902521133422852,-0.1348133087158203,0.7621860504150391,-1.8131316900253296,0.0,0.0,0.0,0.0,0.12105081975460052,0.05666209012269974,0.09787087887525558,0.06267169862985611,0.005151099059730768,-0.13478708267211914,0.0008585164323449135,0.01116071455180645,0.05408653989434242,-0.012019230052828789,-0.10473901033401489,-0.13221153616905212,0.0,0.0,0.0,0.0,-2.734375,0.53125,4.796875,1.3828125,1.77734375,4.76171875,-1.91796875,0.42578125,6.43359375,3.80078125,1.8828125,6.5390625,17.8,40.0,71.2,28.0
1646244334.005843,6526,1646244333,978012239,,"['FL0', 'FL1', 'FL2', 'FR0', 'FR1', 'FR2', 'RL0', 'RL1', 'RL2', 'RR0', 'RR1', 'RR2', 'FL_foot', 'FR_foot', 'RL_foot', 'RR_foot']",0.12406701594591141,0.8637068271636963,-1.8911793231964111,-0.1229291707277298,0.7562017440795898,-1.863112449645996,0.03485172986984253,0.8829658031463623,-1.8902943134307861,-0.1348133087158203,0.7622702121734619,-1.8130894899368286,0.0,0.0,0.0,0.0,-0.04979395121335983,-0.136504128575325,0.04550137370824814,0.0,0.005151099059730768,0.16569368541240692,0.05494505167007446,-0.004292582627385855,-0.03519917652010918,-0.03262362629175186,0.08842720091342926,0.0669642835855484,0.0,0.0,0.0,0.0,-2.76953125,0.03515625,4.65625,1.20703125,1.953125,4.69140625,-1.59765625,0.35546875,6.3984375,4.40625,2.203125,6.50390625,17.8,40.0,71.0,28.0
1646244334.0058637,6527,1646244333,980334479,,"['FL0', 'FL1', 'FL2', 'FR0', 'FR1', 'FR2', 'RL0', 'RL1', 'RL2', 'RR0', 'RR1', 'RR2', 'FL_foot', 'FR_foot', 'RL_foot', 'RR_foot']",0.12406701594591141,0.8636226654052734,-1.8911793231964111,-0.1229291707277298,0.7562439441680908,-1.863154649734497,0.03489387035369873,0.8829658031463623,-1.8902943134307861,-0.1347290277481079,0.7623124122619629,-1.8130894899368286,0.0,0.0,0.0,0.0,-0.06009615212678909,-0.11246565729379654,-0.09443681687116623,0.04979395121335983,0.06095467135310173,-0.08155906945466995,0.0824175775051117,0.041208792477846146,0.07125686854124069,0.1407966911792755,0.03434066101908684,-0.0,0.0,0.0,0.0,0.0,-2.8046875,0.35546875,4.7265625,1.13671875,1.6328125,4.9375,-1.73828125,0.0,6.5390625,4.12109375,2.05859375,6.64453125,17.8,40.0,71.0,28.2
1646244334.0059557,6528,1646244333,982702332,,"['FL0', 'FL1', 'FL2', 'FR0', 'FR1', 'FR2', 'RL0', 'RL1', 'RL2', 'RR0', 'RR1', 'RR2', 'FL_foot', 'FR_foot', 'RL_foot', 'RR_foot']",0.12406701594591141,0.8634541034698486,-1.8911371231079102,-0.1229291707277298,0.7563281059265137,-1.863154649734497,0.03493601083755493,0.8828816413879395,-1.8903363943099976,-0.1347290277481079,0.7623965740203857,-1.8130894899368286,0.0,0.0,0.0,0.0,-0.009443680755794048,-0.0935782939195633,0.006009615492075682,0.053228020668029785,0.009443681687116623,-0.05065247416496277,0.005151098594069481,-0.012019230984151363,-0.0034340659622102976,-0.024038460105657578,0.005151099059730768,-0.0446428582072258,0.0,0.0,0.0,0.0,-2.84375,-0.03515625,4.546875,1.171875,2.1328125,4.90234375,-1.6328125,0.0,6.43359375,4.0859375,2.0234375,6.43359375,17.8,39.8,71.0,28.4
1646244334.0059783,6529,1646244333,984967110,,"['FL0', 'FL1', 'FL2', 'FR0', 'FR1', 'FR2', 'RL0', 'RL1', 'RL2', 'RR0', 'RR1', 'RR2', 'FL_foot', 'FR_foot', 'RL_foot', 'RR_foot']",0.1240248754620552,0.8633275032043457,-1.8911371231079102,-0.1229291707277298,0.7564125061035156,-1.863154649734497,0.03497815132141113,0.8828394412994385,-1.8903363943099976,-0.1346868872642517,0.7624809741973877,-1.8130474090576172,0.0,0.0,0.0,0.0,-0.05065247043967247,0.029189560562372208,0.0,0.05666208267211914,0.014594780281186104,-0.041208792477846146,0.006868131458759308,-0.04035027325153351,0.03949175775051117,0.003434065729379654,0.01116071455180645,0.09186126291751862,0.0,0.0,0.0,0.0,-2.84375,0.0,4.76171875,1.171875,2.09375,4.7265625,-1.59765625,0.0703125,6.64453125,4.12109375,2.2734375,6.21875,17.6,39.6,70.8,28.4
1646244334.0062182,6530,1646244333,987276931,,"['FL0', 'FL1', 'FL2', 'FR0', 'FR1', 'FR2', 'RL0', 'RL1', 'RL2', 'RR0', 'RR1', 'RR2', 'FL_foot', 'FR_foot', 'RL_foot', 'RR_foot']",0.12398272752761841,0.8631167411804199,-1.8910949230194092,-0.1229291707277298,0.7565388679504395,-1.863154649734497,0.035062432289123535,0.8827552795410156,-1.8903363943099976,-0.13464473187923431,0.7626073360443115,-1.8130894899368286,0.0,0.0,0.0,0.0,-0.14165520668029785,-0.09186126291751862,0.13478708267211914,0.047218404710292816,0.078125,-0.018887363374233246,0.0334821417927742,-0.07297389954328537,0.020604396238923073,-0.07554944604635239,0.12620192766189575,-0.00858516525477171,0.0,0.0,0.0,0.0,-2.59375,-0.10546875,4.76171875,1.2421875,2.0234375,4.83203125,-1.59765625,-0.03515625,6.6796875,4.15625,2.16796875,6.25390625,17.4,39.4,70.6,28.4
1646244334.0063386,6531,1646244333,989578936,,"['FL0', 'FL1', 'FL2', 'FR0', 'FR1', 'FR2', 'RL0', 'RL1', 'RL2', 'RR0', 'RR1', 'RR2', 'FL_foot', 'FR_foot', 'RL_foot', 'RR_foot']",0.12398272752761841,0.8629481792449951,-1.8911371231079102,-0.1230134591460228,0.7566652297973633,-1.863154649734497,0.03518885374069214,0.8826286792755127,-1.890378475189209,-0.1345183104276657,0.7627758979797363,-1.8130894899368286,0.0,0.0,0.0,0.0,0.0008585164323449135,-0.04979395493865013,-0.06524725258350372,-0.0935782939195633,0.03519917652010918,-0.03176511079072952,0.06095466762781143,0.04035027325153351,-0.03176511079072952,0.10731455683708191,0.06009615585207939,-0.009443681687116623,0.0,0.0,0.0,0.0,-2.9140625,-0.10546875,5.01171875,1.1015625,1.8125,4.65625,-1.52734375,0.0,6.43359375,4.15625,2.1328125,6.1484375,17.2,39.0,70.4,28.4
1646244334.0063586,6532,1646244333,991802373,,"['FL0', 'FL1', 'FL2', 'FR0', 'FR1', 'FR2', 'RL0', 'RL1', 'RL2', 'RR0', 'RR1', 'RR2', 'FL_foot', 'FR_foot', 'RL_foot', 'RR_foot']",0.123898446559906,0.8626110553741455,-1.8910949230194092,-0.1231398805975914,0.7568759918212891,-1.863112449645996,0.035441696643829346,0.8822073936462402,-1.8903363943099976,-0.1343075931072235,0.7631974220275879,-1.8130894899368286,0.0,0.0,0.0,0.0,-0.020604394376277924,-0.09958790987730026,0.09443681687116623,-0.03777472302317619,-0.030906593427062035,0.05666209012269974,0.10731455683708191,-0.18372252583503723,0.06181318685412407,0.14165520668029785,0.1270604431629181,-0.0008585164905525744,0.0,0.0,0.0,0.0,-3.01953125,0.0,4.796875,1.1015625,2.05859375,4.65625,-1.45703125,0.0703125,6.43359375,4.19140625,2.30859375,6.11328125,17.2,38.6,70.0,28.4
1646244334.0063732,6533,1646244333,994070154,,"['FL0', 'FL1', 'FL2', 'FR0', 'FR1', 'FR2', 'RL0', 'RL1', 'RL2', 'RR0', 'RR1', 'RR2', 'FL_foot', 'FR_foot', 'RL_foot', 'RR_foot']",0.1237720176577568,0.8623161315917969,-1.8911371231079102,-0.1232663094997406,0.7571289539337158,-1.863112449645996,0.03565239906311035,0.8819122314453125,-1.890378475189209,-0.1341811716556549,0.7636187076568604,-1.8130894899368286,0.0,0.0,0.0,0.0,-0.09014422446489334,-0.2524038553237915,-0.1339285671710968,-0.036916207522153854,0.13049450516700745,0.04979395493865013,0.054086536169052124,-0.15968406200408936,-0.1674107164144516,0.04635988920927048,0.3348214328289032,-0.0034340659622102976,0.0,0.0,0.0,0.0,-3.08984375,-0.03515625,4.83203125,1.171875,1.98828125,4.4765625,-1.3828125,0.03515625,6.50390625,4.19140625,2.30859375,6.078125,17.4,38.4,69.6,28.4
1646244334.0064137,6534,1646244333,996414185,,"['FL0', 'FL1', 'FL2', 'FR0', 'FR1', 'FR2', 'RL0', 'RL1', 'RL2', 'RR0', 'RR1', 'RR2', 'FL_foot', 'FR_foot', 'RL_foot', 'RR_foot']",0.1236034482717514,0.8620634078979492,-1.8911371231079102,-0.1233927384018898,0.7574238777160645,-1.863112449645996,0.03594738245010376,0.881533145904541,-1.8903363943099976,-0.1340547502040863,0.7640824317932129,-1.8130894899368286,0.0,0.0,0.0,0.0,-0.1897321343421936,-0.12019231170415878,-0.009443681687116623,-0.01631181314587593,0.22922390699386597,0.025755494832992554,0.18887361884117126,-0.15367445349693298,0.020604396238923073,0.01631181314587593,0.3056318759918213,-0.0,0.0,0.0,0.0,0.0,-3.19921875,-0.0703125,4.58203125,1.06640625,2.16796875,4.7265625,-1.4921875,0.140625,6.3984375,4.265625,2.44921875,6.25390625,17.6,38.2,69.0,28.6
1646244334.0064318,6535,1646244333,998640784,,"['FL0', 'FL1', 'FL2', 'FR0', 'FR1', 'FR2', 'RL0', 'RL1', 'RL2', 'RR0', 'RR1', 'RR2', 'FL_foot', 'FR_foot', 'RL_foot', 'RR_foot']",0.1233505979180336,0.8615574836730957,-1.8910949230194092,-0.1236455887556076,0.7579717636108398,-1.863112449645996,0.03641098737716675,0.8807744979858398,-1.8903363943099976,-0.1338018923997879,0.7647988796234131,-1.8130894899368286,0.0,0.0,0.0,0.0,-0.06095466762781143,-0.25154533982276917,0.09615384787321091,-0.09787087142467499,0.22578983008861542,0.052369505167007446,0.15109889209270477,-0.38547390699386597,0.0008585164905525744,0.04035027325153351,0.20861950516700745,-0.048076923936605453,0.0,0.0,0.0,0.0,-3.16015625,-0.140625,4.796875,1.02734375,2.23828125,4.69140625,-1.3125,-0.140625,6.3984375,4.15625,2.30859375,6.1484375,17.8,38.0,68.2,28.8
1646244334.0065691,6536,1646244334,851016,,"['FL0', 'FL1', 'FL2', 'FR0', 'FR1', 'FR2', 'RL0', 'RL1', 'RL2', 'RR0', 'RR1', 'RR2', 'FL_foot', 'FR_foot', 'RL_foot', 'RR_foot']",0.123055599629879,0.8611361980438232,-1.8911371231079102,-0.1238563060760498,0.7583930492401123,-1.863112449645996,0.03679025173187256,0.8802266120910645,-1.8902943134307861,-0.1335911750793457,0.7653465270996094,-1.8130474090576172,0.0,0.0,0.0,0.0,-0.14852334558963776,-0.32967033982276917,-0.002575549529865384,-0.11074861884117126,0.17513737082481384,-0.0,0.2695741653442383,-0.2652815878391266,0.08155906945466995,0.06353021413087845,0.2927541136741638,0.16569368541240692,0.0,0.0,0.0,0.0,-3.33984375,0.0,4.796875,0.95703125,2.16796875,4.796875,-1.27734375,-0.140625,6.50390625,4.3359375,2.30859375,6.21875,18.2,37.8,67.2,29.0
1646244334.0066817,6537,1646244334,3104721,,"['FL0', 'FL1', 'FL2', 'FR0', 'FR1', 'FR2', 'RL0', 'RL1', 'RL2', 'RR0', 'RR1', 'RR2', 'FL_foot', 'FR_foot', 'RL_foot', 'RR_foot']",0.122676320374012,0.8606305122375488,-1.8911371231079102,-0.12410915642976761,0.7588567733764648,-1.863112449645996,0.03721165657043457,0.8795945644378662,-1.8902521133422852,-0.1333383321762085,0.7658524513244629,-1.8130894899368286,0.0,0.0,0.0,0.0,-0.3279532790184021,-0.38976648449897766,-0.00858516525477171,-0.16225960850715637,0.16569368541240692,0.03863324224948883,0.14766483008861542,-0.34083104133605957,0.17084477841854095,0.14165520668029785,0.3665865361690521,0.012019230984151363,0.0,0.0,0.0,0.0,-2.984375,-0.17578125,4.8671875,0.9921875,2.30859375,4.58203125,-1.3125,-0.03515625,6.57421875,4.40625,2.23828125,6.2890625,18.4,37.6,66.2,29.0
1646244334.006775,6538,1646244334,5310497,,"['FL0', 'FL1', 'FL2', 'FR0', 'FR1', 'FR2', 'RL0', 'RL1', 'RL2', 'RR0', 'RR1', 'RR2', 'FL_foot', 'FR_foot', 'RL_foot', 'RR_foot']",0.12225489318370819,0.8600404262542725,-1.8911371231079102,-0.12448843568563461,0.7594046592712402,-1.863112449645996,0.03784382343292236,0.8789622783660889,-1.8902521133422852,-0.1330854743719101,0.7663159370422363,-1.8131316900253296,0.0,0.0,0.0,0.0,-0.3476991653442383,-0.3030563294887543,-0.004292582627385855,-0.3013392686843872,0.23952610790729523,0.0034340659622102976,0.4258241653442383,-0.214629128575325,0.10130494832992554,0.1339285671710968,0.1742788404226303,-0.07640796899795532,0.0,0.0,0.0,0.0,-3.01953125,-0.390625,4.9765625,1.06640625,2.23828125,4.69140625,-1.4921875,0.0,6.50390625,4.30078125,2.30859375,6.18359375,18.6,37.4,65.0,29.0
1646244334.0077982,6539,1646244334,7532738,,"['FL0', 'FL1', 'FL2', 'FR0', 'FR1', 'FR2', 'RL0', 'RL1', 'RL2', 'RR0', 'RR1', 'RR2', 'FL_foot', 'FR_foot', 'RL_foot', 'RR_foot']",0.12183347344398499,0.8594505786895752,-1.8911371231079102,-0.12490986287593842,0.7599103450775146,-1.863112449645996,0.03847593069076538,0.8782038688659668,-1.8902099132537842,-0.1327904760837555,0.7668216228485107,-1.8131316900253296,0.0,0.0,0.0,0.0,-0.19745877385139465,-0.3013392984867096,0.0,-0.22922389209270477,0.24296016991138458,-0.0,0.4198145270347595,-0.4258241653442383,0.030048077926039696,0.11418268829584122,0.13907967507839203,-0.006868131924420595,0.0,0.0,0.0,0.0,-3.08984375,-0.0703125,4.90234375,0.88671875,2.09375,4.58203125,-1.2421875,0.0,6.57421875,4.44140625,2.2734375,6.3984375,19.0,37.0,64.0,29.2
1646244334.0486677,6540,1646244334,9773198,,"['FL0', 'FL1', 'FL2', 'FR0', 'FR1', 'FR2', 'RL0', 'RL1', 'RL2', 'RR0', 'RR1', 'RR2', 'FL_foot', 'FR_foot', 'RL_foot', 'RR_foot']",0.12103276699781418,0.8584389686584473,-1.8911371231079102,-0.12566842138767242,0.7607531547546387,-1.863112449645996,0.039487361907958984,0.877065896987915,-1.8901678323745728,-0.1321583390235901,0.7676644325256348,-1.813173770904541,0.0,0.0,0.0,0.0,-0.29532966017723083,-0.44728708267211914,-0.012019230984151363,-0.2970466911792755,0.14852334558963776,-0.06438873708248138,0.3373969495296478,-0.315075546503067,-0.02146291173994541,0.23695053160190582,0.2695741653442383,-0.006868131924420595,0.0,0.0,0.0,0.0,-3.19921875,-0.31640625,4.796875,0.88671875,2.2734375,4.83203125,-1.20703125,-0.17578125,6.609375,4.40625,2.44921875,6.00390625,19.6,36.4,62.8,29.8
1646244334.0487072,6541,1646244334,12002131,,"['FL0', 'FL1', 'FL2', 'FR0', 'FR1', 'FR2', 'RL0', 'RL1', 'RL2', 'RR0', 'RR1', 'RR2', 'FL_foot', 'FR_foot', 'RL_foot', 'RR_foot']",0.12052705883979797,0.857764720916748,-1.8911371231079102,-0.12621627748012543,0.7613852024078369,-1.8630702495574951,0.04024595022201538,0.8763494491577148,-1.8901257514953613,-0.13169477880001068,0.7682123184204102,-1.8132580518722534,0.0,0.0,0.0,0.0,-0.20432691276073456,-0.33567994832992554,0.02146291173994541,-0.2343749850988388,0.33138737082481384,0.047218408435583115,0.37774723768234253,-0.390625,0.004292582627385855,0.26442307233810425,0.32280218601226807,-0.09443681687116623,0.0,0.0,0.0,0.0,-3.0546875,-0.2109375,5.01171875,1.20703125,2.37890625,4.83203125,-1.4921875,0.0703125,6.5390625,4.37109375,2.34375,6.18359375,20.2,35.8,61.6,30.6
1646244334.0487852,6542,1646244334,14233361,,"['FL0', 'FL1', 'FL2', 'FR0', 'FR1', 'FR2', 'RL0', 'RL1', 'RL2', 'RR0', 'RR1', 'RR2', 'FL_foot', 'FR_foot', 'RL_foot', 'RR_foot']",0.11997921019792557,0.857006311416626,-1.8911793231964111,-0.12676411867141724,0.7619330883026123,-1.8630702495574951,0.041088759899139404,0.8756752014160156,-1.889999270439148,-0.13114692270755768,0.7687602043151855,-1.8132580518722534,0.0,0.0,0.0,0.0,-0.3236607015132904,-0.44127747416496277,-0.04035027325153351,-0.28846150636672974,0.19574175775051117,-0.012019230984151363,0.3743131756782532,-0.3476991653442383,0.17599588632583618,0.29103708267211914,0.34941622614860535,-0.0,0.0,0.0,0.0,0.0,-3.16015625,-0.140625,4.90234375,0.921875,2.44921875,4.62109375,-1.2421875,0.0703125,6.57421875,4.19140625,2.37890625,5.93359375,21.0,35.2,60.2,31.4
1646244334.0488029,6543,1646244334,16481311,,"['FL0', 'FL1', 'FL2', 'FR0', 'FR1', 'FR2', 'RL0', 'RL1', 'RL2', 'RR0', 'RR1', 'RR2', 'FL_foot', 'FR_foot', 'RL_foot', 'RR_foot']",0.11943136155605316,0.8563318252563477,-1.8911793231964111,-0.12726983428001404,0.7625231742858887,-1.8630702495574951,0.041973769664764404,0.8749587535858154,-1.8899571895599365,-0.13051478564739227,0.7693080902099609,-1.8133002519607544,0.0,0.0,0.0,0.0,-0.41122937202453613,-0.24467720091342926,-0.06524725258350372,-0.26871564984321594,0.38032281398773193,-0.048076923936605453,0.3897664546966553,-0.44299450516700745,0.03434066101908684,0.4241071045398712,0.29103708267211914,-0.006868131924420595,0.0,0.0,0.0,0.0,-3.0546875,-0.17578125,4.9765625,0.8515625,2.34375,4.69140625,-1.421875,0.0,6.5390625,4.58203125,2.44921875,5.96875,22.0,34.4,58.8,32.4
1646244334.048986,6544,1646244334,18772989,,"['FL0', 'FL1', 'FL2', 'FR0', 'FR1', 'FR2', 'RL0', 'RL1', 'RL2', 'RR0', 'RR1', 'RR2', 'FL_foot', 'FR_foot', 'RL_foot', 'RR_foot']",0.11871493607759476,0.855278491973877,-1.8912214040756226,-0.12815481424331665,0.7632396221160889,-1.8630281686782837,0.043238043785095215,0.8738632202148438,-1.8898727893829346,-0.12962980568408966,0.7702772617340088,-1.8133845329284668,0.0,0.0,0.0,0.0,-0.175995871424675,-0.26871564984321594,-0.07039835304021835,-0.31078293919563293,0.15453296899795532,-0.026614010334014893,0.31850960850715637,-0.43870192766189575,0.048076923936605453,0.39320051670074463,0.36744505167007446,-0.018028846010565758,0.0,0.0,0.0,0.0,-3.19921875,-0.03515625,4.9375,0.9921875,2.1328125,4.796875,-1.3125,-0.03515625,6.71484375,4.37109375,2.16796875,6.11328125,23.0,33.4,57.2,33.6
1646244334.0490077,6545,1646244334,21034543,,"['FL0', 'FL1', 'FL2', 'FR0', 'FR1', 'FR2', 'RL0', 'RL1', 'RL2', 'RR0', 'RR1', 'RR2', 'FL_foot', 'FR_foot', 'RL_foot', 'RR_foot']",0.11825137585401535,0.8545198440551758,-1.8912214040756226,-0.12870267033576965,0.7637453079223633,-1.8630281686782837,0.04408085346221924,0.8732309341430664,-1.8898307085037231,-0.12899766862392426,0.770951509475708,-1.8134688138961792,0.0,0.0,0.0,0.0,-0.2300824075937271,-0.3597184121608734,0.0,-0.2661401033401489,0.26871564984321594,-0.07726648449897766,0.37603020668029785,-0.3442651033401489,0.026614010334014893,0.4155219495296478,0.41638049483299255,-0.08585164695978165,0.0,0.0,0.0,0.0,-3.26953125,-0.10546875,4.9765625,1.1015625,2.1328125,4.7265625,-1.27734375,0.0,6.75390625,4.15625,2.09375,5.8984375,24.0,32.6,55.8,34.6
1646244334.0490394,6546,1646244334,23276784,,"['FL0', 'FL1', 'FL2', 'FR0', 'FR1', 'FR2', 'RL0', 'RL1', 'RL2', 'RR0', 'RR1', 'RR2', 'FL_foot', 'FR_foot', 'RL_foot', 'RR_foot']",0.11787208914756775,0.8538877964019775,-1.8912214040756226,-0.12912409007549286,0.7642509937286377,-1.8629438877105713,0.044839441776275635,0.8725566864013672,-1.8897886276245117,-0.12836553156375885,0.7716257572174072,-1.8135108947753906,0.0,0.0,0.0,0.0,-0.15281592309474945,-0.26270604133605957,0.0,-0.11246564984321594,0.19144918024539948,0.024896977469325066,0.3073488771915436,-0.4086538553237915,0.012877747416496277,0.4524381458759308,0.3305288553237915,-0.053228020668029785,0.0,0.0,0.0,0.0,-3.16015625,-0.140625,5.08203125,0.95703125,1.98828125,4.58203125,-1.421875,0.0,6.5390625,4.4765625,2.05859375,6.1484375,25.0,31.8,54.4,35.4
1646244334.0490637,6547,1646244334,25503447,,"['FL0', 'FL1', 'FL2', 'FR0', 'FR1', 'FR2', 'RL0', 'RL1', 'RL2', 'RR0', 'RR1', 'RR2', 'FL_foot', 'FR_foot', 'RL_foot', 'RR_foot']",0.11761923879384995,0.8532555103302002,-1.891263484954834,-0.12954550981521606,0.7647988796234131,-1.8629016876220703,0.045555830001831055,0.871882438659668,-1.8897042274475098,-0.12777553498744965,0.7724266052246094,-1.813595175743103,0.0,0.0,0.0,0.0,-0.0712568610906601,-0.2833104431629181,-0.14680631458759308,-0.27815932035446167,0.3700205981731415,0.006868131924420595,0.40951234102249146,-0.2695741653442383,0.16912774741649628,0.30219778418540955,0.5271291136741638,-0.14423076808452606,0.0,0.0,0.0,0.0,-3.234375,-0.0703125,5.2578125,0.95703125,1.8828125,4.76171875,-1.45703125,0.0,6.64453125,4.15625,2.2734375,6.11328125,26.0,30.8,53.2,36.6
1646244334.0490777,6548,1646244334,27810452,,"['FL0', 'FL1', 'FL2', 'FR0', 'FR1', 'FR2', 'RL0', 'RL1', 'RL2', 'RR0', 'RR1', 'RR2', 'FL_foot', 'FR_foot', 'RL_foot', 'RR_foot']",0.11736638098955154,0.8527076244354248,-1.891305685043335,-0.12988264858722687,0.7652623653411865,-1.8628596067428589,0.04618799686431885,0.8710818290710449,-1.8897042274475098,-0.12714339792728424,0.7731430530548096,-1.813637375831604,0.0,0.0,0.0,0.0,-0.15024037659168243,-0.2077609896659851,-0.16912774741649628,-0.1407966911792755,0.1854395568370819,0.002575549529865384,0.22922389209270477,-0.504807710647583,-0.018887363374233246,0.2592719495296478,0.3889079689979553,-0.002575549529865384,0.0,0.0,0.0,0.0,-2.94921875,0.0,4.9375,1.13671875,1.8828125,4.69140625,-1.52734375,0.0703125,6.64453125,4.40625,2.16796875,6.1484375,27.0,29.8,52.0,37.8
1646244334.0493734,6549,1646244334,30107358,,"['FL0', 'FL1', 'FL2', 'FR0', 'FR1', 'FR2', 'RL0', 'RL1', 'RL2', 'RR0', 'RR1', 'RR2', 'FL_foot', 'FR_foot', 'RL_foot', 'RR_foot']",0.11707139015197754,0.8518648147583008,-1.891347885131836,-0.13030408322811127,0.7659788131713867,-1.8628175258636475,0.04719942808151245,0.8700282573699951,-1.889577865600586,-0.12617413699626923,0.7742807865142822,-1.8137638568878174,0.0,0.0,0.0,0.0,-0.1270604282617569,-0.18372252583503723,-0.09100274741649628,-0.08842719346284866,0.23265796899795532,-0.0008585164905525744,0.2678571343421936,-0.30734890699386597,0.15367445349693298,0.35542580485343933,0.46531593799591064,-0.058379121124744415,0.0,0.0,0.0,0.0,-2.8046875,0.10546875,5.08203125,1.13671875,1.8828125,4.51171875,-1.3125,0.140625,6.82421875,4.12109375,2.05859375,5.72265625,28.0,29.0,50.8,38.8
1646244334.0493968,6550,1646244334,32412024,,"['FL0', 'FL1', 'FL2', 'FR0', 'FR1', 'FR2', 'RL0', 'RL1', 'RL2', 'RR0', 'RR1', 'RR2', 'FL_foot', 'FR_foot', 'RL_foot', 'RR_foot']",0.11690282076597214,0.8514854907989502,-1.8913899660110474,-0.13059908151626587,0.7664844989776611,-1.8627753257751465,0.04778939485549927,0.869227409362793,-1.889535665512085,-0.12554199993610382,0.7750394344329834,-1.8138059377670288,0.0,0.0,0.0,0.0,-0.1631181240081787,-0.18114697933197021,-0.06782279908657074,-0.14766483008861542,0.24038462340831757,0.042067307978868484,0.38719090819358826,-0.46789148449897766,0.08070054650306702,0.3416895270347595,0.32451924681663513,0.07726648449897766,0.0,0.0,0.0,0.0,-2.87890625,0.35546875,5.15234375,1.2421875,1.953125,4.265625,-1.84765625,0.24609375,6.75390625,4.05078125,2.05859375,6.00390625,29.0,28.2,49.8,39.6
1646244334.0494108,6551,1646244334,34723119,,"['FL0', 'FL1', 'FL2', 'FR0', 'FR1', 'FR2', 'RL0', 'RL1', 'RL2', 'RR0', 'RR1', 'RR2', 'FL_foot', 'FR_foot', 'RL_foot', 'RR_foot']",0.11673425137996674,0.8511061668395996,-1.8913899660110474,-0.13093622028827667,0.7672431468963623,-1.8627753257751465,0.04850584268569946,0.8680474758148193,-1.8894093036651611,-0.12465700507164001,0.7761349678039551,-1.8139744997024536,0.0,0.0,0.0,0.0,-0.047218404710292816,-0.07211538404226303,0.0,-0.0558035671710968,0.2927541136741638,0.02747252769768238,0.25497937202453613,-0.41895604133605957,0.08842720091342926,0.37774723768234253,0.2970466911792755,-0.014594780281186104,0.0,0.0,0.0,0.0,-2.734375,0.2109375,5.01171875,1.27734375,1.91796875,4.44140625,-1.59765625,0.35546875,6.96484375,3.91015625,1.8828125,5.96875,30.0,27.2,48.8,40.8
1646244334.0494657,6552,1646244334,36926339,,"['FL0', 'FL1', 'FL2', 'FR0', 'FR1', 'FR2', 'RL0', 'RL1', 'RL2', 'RR0', 'RR1', 'RR2', 'FL_foot', 'FR_foot', 'RL_foot', 'RR_foot']",0.11652353405952454,0.8507270812988281,-1.8914742469787598,-0.13118906319141388,0.7677907943725586,-1.8627753257751465,0.04901152849197388,0.8673732280731201,-1.8893249034881592,-0.12419344484806061,0.7768094539642334,-1.814100980758667,0.0,0.0,0.0,0.0,-0.1631181240081787,-0.3391140103340149,-0.13478708267211914,-0.1562499850988388,0.23780906200408936,-0.036057692021131516,0.29962223768234253,-0.315075546503067,0.04979395493865013,0.1562499850988388,0.2961881756782532,-0.07039835304021835,0.0,0.0,0.0,0.0,-2.59375,0.24609375,5.40234375,1.34765625,1.91796875,4.30078125,-1.703125,0.53125,7.109375,3.9453125,1.91796875,5.7578125,31.0,26.2,47.8,41.6
1646244334.0495174,6553,1646244334,39212606,,"['FL0', 'FL1', 'FL2', 'FR0', 'FR1', 'FR2', 'RL0', 'RL1', 'RL2', 'RR0', 'RR1', 'RR2', 'FL_foot', 'FR_foot', 'RL_foot', 'RR_foot']",0.11622854322195053,0.8503899574279785,-1.8915585279464722,-0.13139978051185608,0.7682545185089111,-1.8627331256866455,0.04955935478210449,0.866614580154419,-1.8891985416412354,-0.1236455887556076,0.7774837017059326,-1.8141851425170898,0.0,0.0,0.0,0.0,-0.2515453100204468,-0.21291208267211914,-0.17084477841854095,-0.1648351550102234,0.2300824224948883,-0.09271977841854095,0.36916205286979675,-0.46274039149284363,0.07383241504430771,0.2515453100204468,0.28502747416496277,0.0558035708963871,0.0,0.0,0.0,0.0,-3.01953125,0.53125,5.2578125,1.3125,1.77734375,4.37109375,-1.77734375,0.390625,7.0,3.6953125,1.8828125,5.79296875,31.8,25.4,47.0,42.2
1646244334.049536,6554,1646244334,41426983,,"['FL0', 'FL1', 'FL2', 'FR0', 'FR1', 'FR2', 'RL0', 'RL1', 'RL2', 'RR0', 'RR1', 'RR2', 'FL_foot', 'FR_foot', 'RL_foot', 'RR_foot']",0.11597568541765213,0.8500947952270508,-1.8915585279464722,-0.13156834244728088,0.7687602043151855,-1.862648844718933,0.05006510019302368,0.8659825325012207,-1.889114260673523,-0.1230977401137352,0.7781157493591309,-1.8143538236618042,0.0,0.0,0.0,0.0,-0.07211537659168243,-0.21119505167007446,0.1270604431629181,-0.0712568610906601,0.16140109300613403,0.0334821417927742,0.27987635135650635,-0.27815935015678406,0.018887363374233246,0.29962223768234253,0.2541208863258362,-0.14594779908657074,0.0,0.0,0.0,0.0,-2.8046875,0.4609375,5.3671875,1.421875,1.84765625,4.30078125,-1.8828125,0.17578125,7.21484375,3.765625,1.84765625,6.1484375,32.6,24.8,46.4,42.8
1646244334.0496008,6555,1646244334,43750489,,"['FL0', 'FL1', 'FL2', 'FR0', 'FR1', 'FR2', 'RL0', 'RL1', 'RL2', 'RR0', 'RR1', 'RR2', 'FL_foot', 'FR_foot', 'RL_foot', 'RR_foot']",0.11559640616178513,0.8497154712677002,-1.8916850090026855,-0.13186334073543549,0.7694344520568848,-1.8626067638397217,0.0507814884185791,0.8651819229125977,-1.8889036178588867,-0.12225489318370819,0.7790007591247559,-1.8146066665649414,0.0,0.0,0.0,0.0,-0.13135302066802979,-0.23609203100204468,-0.16826923191547394,-0.12791894376277924,0.14337225258350372,-0.0223214291036129,0.2652815878391266,-0.234375,-0.030048077926039696,0.36057689785957336,0.2008928656578064,-0.1897321492433548,0.0,0.0,0.0,0.0,-2.37890625,0.63671875,5.29296875,1.52734375,1.6328125,4.12109375,-1.98828125,0.63671875,7.0703125,3.6953125,2.0234375,6.1484375,33.4,24.0,45.8,43.6
1646244334.0496185,6556,1646244334,45984521,,"['FL0', 'FL1', 'FL2', 'FR0', 'FR1', 'FR2', 'RL0', 'RL1', 'RL2', 'RR0', 'RR1', 'RR2', 'FL_foot', 'FR_foot', 'RL_foot', 'RR_foot']",0.11530140787363052,0.8493363857269287,-1.891727089881897,-0.13203191757202148,0.7698979377746582,-1.8626067638397217,0.05124509334564209,0.8647603988647461,-1.8887771368026733,-0.12179132550954819,0.7795486450195312,-1.8147330284118652,0.0,0.0,0.0,0.0,-0.12105081975460052,-0.21978022158145905,-0.08499313145875931,-0.11246564984321594,0.2609890103340149,-0.06868132203817368,0.13736262917518616,-0.15539148449897766,0.0558035708963871,0.1536744385957718,0.25326237082481384,-0.03949175775051117,0.0,0.0,0.0,0.0,-2.59375,0.74609375,5.47265625,1.421875,1.52734375,4.12109375,-2.0234375,0.7109375,7.35546875,3.58984375,1.66796875,5.6484375,34.0,23.4,45.2,44.0
1646244334.0496922,6557,1646244334,48240468,,"['FL0', 'FL1', 'FL2', 'FR0', 'FR1', 'FR2', 'RL0', 'RL1', 'RL2', 'RR0', 'RR1', 'RR2', 'FL_foot', 'FR_foot', 'RL_foot', 'RR_foot']",0.11496426910161972,0.8489148616790771,-1.8917691707611084,-0.1321161985397339,0.7703194618225098,-1.8625645637512207,0.051792919635772705,0.8643810749053955,-1.88865065574646,-0.12120133638381958,0.7800965309143066,-1.8149858713150024,0.0,0.0,0.0,0.0,-0.2412431240081787,-0.18114697933197021,-0.042067307978868484,0.07297389954328537,0.19488324224948883,0.0017170329811051488,0.21033652126789093,-0.27558380365371704,0.11933378875255585,0.4155219495296478,0.23265796899795532,-0.11246565729379654,0.0,0.0,0.0,0.0,-2.69921875,0.78125,5.40234375,1.52734375,1.59765625,3.87109375,-2.203125,0.78125,7.0703125,3.48046875,1.73828125,5.7578125,34.4,22.8,44.8,44.6
1646244334.0511332,6558,1646244334,50707351,,"['FL0', 'FL1', 'FL2', 'FR0', 'FR1', 'FR2', 'RL0', 'RL1', 'RL2', 'RR0', 'RR1', 'RR2', 'FL_foot', 'FR_foot', 'RL_foot', 'RR_foot']",0.11462713032960892,0.8484513759613037,-1.8918113708496094,-0.1323269158601761,0.7708673477172852,-1.8625224828720093,0.0525093674659729,0.863959789276123,-1.8886085748672485,-0.12044277787208557,0.7808971405029297,-1.8153231143951416,0.0,0.0,0.0,0.0,-0.04378433898091316,-0.09701236337423325,-0.004292582627385855,-0.07297389954328537,0.23265796899795532,0.0034340659622102976,0.2876029908657074,-0.09443681687116623,-0.059237636625766754,0.2609890103340149,0.19574175775051117,-0.08070054650306702,0.0,0.0,0.0,0.0,-2.34375,0.7109375,5.47265625,1.6328125,1.45703125,4.0859375,-2.37890625,0.95703125,7.28515625,3.48046875,1.703125,5.86328125,35.0,22.2,44.2,45.2
1646244334.0914638,6559,1646244334,52982584,,"['FL0', 'FL1', 'FL2', 'FR0', 'FR1', 'FR2', 'RL0', 'RL1', 'RL2', 'RR0', 'RR1', 'RR2', 'FL_foot', 'FR_foot', 'RL_foot', 'RR_foot']",0.11437427997589111,0.8481142520904541,-1.8918113708496094,-0.1324111968278885,0.7711622714996338,-1.8624382019042969,0.05293077230453491,0.8637068271636963,-1.888566493988037,-0.11997921019792557,0.781487226486206,-1.8155337572097778,0.0,0.0,0.0,0.0,-0.08499312400817871,-0.1717032939195633,0.13049450516700745,-0.031765107065439224,0.1270604431629181,0.04979395493865013,0.276442289352417,-0.11418269574642181,-0.048076923936605453,0.13736262917518616,0.2592719793319702,0.007726648356765509,0.0,0.0,0.0,0.0,-2.37890625,0.81640625,5.6484375,1.5625,1.34765625,4.05078125,-2.4140625,0.921875,7.390625,3.48046875,1.6328125,5.86328125,35.6,21.4,43.6,45.8
1646244334.0915086,6560,1646244334,55268168,,"['FL0', 'FL1', 'FL2', 'FR0', 'FR1', 'FR2', 'RL0', 'RL1', 'RL2', 'RR0', 'RR1', 'RR2', 'FL_foot', 'FR_foot', 'RL_foot', 'RR_foot']",0.11403714120388031,0.8477771282196045,-1.8918956518173218,-0.1325376182794571,0.7714993953704834,-1.8623539209365845,0.05331003665924072,0.8635382652282715,-1.8885242938995361,-0.11951564252376556,0.7819929122924805,-1.8157445192337036,0.0,0.0,0.0,0.0,-0.27386674284935,-0.2386675775051117,-0.018028846010565758,-0.047218404710292816,0.32967033982276917,0.15281593799591064,0.23265795409679413,-0.11675824224948883,0.0017170329811051488,0.24725273251533508,0.1897321492433548,-0.14337225258350372,0.0,0.0,0.0,0.0,-2.34375,0.8515625,5.61328125,1.77734375,1.4921875,3.80078125,-2.55859375,1.02734375,7.53515625,3.26953125,1.66796875,5.6484375,36.0,20.8,43.0,46.4
1646244334.091525,6561,1646244334,57465794,,"['FL0', 'FL1', 'FL2', 'FR0', 'FR1', 'FR2', 'RL0', 'RL1', 'RL2', 'RR0', 'RR1', 'RR2', 'FL_foot', 'FR_foot', 'RL_foot', 'RR_foot']",0.11374214291572571,0.8475241661071777,-1.8919377326965332,-0.1326640546321869,0.7717101573944092,-1.8623117208480835,0.05360502004623413,0.8633697032928467,-1.8884820938110352,-0.11913636326789856,0.7825827598571777,-1.8159130811691284,0.0,0.0,0.0,0.0,-0.08585163950920105,-0.11418269574642181,-0.026614010334014893,0.025755492970347404,0.15281593799591064,0.03777472674846649,0.13307005167007446,-0.06181318685412407,0.006009615492075682,0.18372251093387604,0.34941622614860535,-0.06524725258350372,0.0,0.0,0.0,0.0,-2.34375,0.88671875,5.4375,1.703125,1.3828125,3.58984375,-2.69921875,1.171875,7.46484375,3.41015625,1.45703125,6.04296875,36.6,20.4,42.4,47.0
1646244334.0916162,6562,1646244334,59670317,,"['FL0', 'FL1', 'FL2', 'FR0', 'FR1', 'FR2', 'RL0', 'RL1', 'RL2', 'RR0', 'RR1', 'RR2', 'FL_foot', 'FR_foot', 'RL_foot', 'RR_foot']",0.1132364347577095,0.8471448421478271,-1.8919799327850342,-0.1329168975353241,0.7721736431121826,-1.862227439880371,0.05402648448944092,0.863074779510498,-1.8884820938110352,-0.11871493607759476,0.7834677696228027,-1.8160816431045532,0.0,0.0,0.0,0.0,-0.31335848569869995,-0.08499313145875931,0.0,-0.010302197188138962,0.20690247416496277,0.026614010334014893,0.053228020668029785,-0.11332418024539948,-0.11761675775051117,0.2163461446762085,0.3777472674846649,-0.015453296713531017,0.0,0.0,0.0,0.0,-1.98828125,0.9921875,5.4375,1.4921875,1.13671875,3.9453125,-2.734375,1.171875,7.5,3.0546875,1.73828125,5.54296875,37.0,20.0,41.6,47.4
1646244334.0916338,6563,1646244334,61932532,,"['FL0', 'FL1', 'FL2', 'FR0', 'FR1', 'FR2', 'RL0', 'RL1', 'RL2', 'RR0', 'RR1', 'RR2', 'FL_foot', 'FR_foot', 'RL_foot', 'RR_foot']",0.1129835844039917,0.8468921184539795,-1.8920221328735352,-0.1331276148557663,0.7724688053131104,-1.862227439880371,0.054237186908721924,0.8629903793334961,-1.8884400129318237,-0.11858851462602615,0.7840156555175781,-1.816208004951477,0.0,0.0,0.0,0.0,-0.14680631458759308,-0.20432692766189575,-0.0008585164905525744,-0.1519574075937271,0.20861950516700745,-0.0892857164144516,0.12190933525562286,-0.14165522158145905,-0.06524725258350372,-0.001717032864689827,0.32967033982276917,-0.1116071417927742,0.0,0.0,0.0,0.0,-2.1328125,1.02734375,5.5078125,1.66796875,0.95703125,3.73046875,-2.87890625,1.3828125,7.67578125,3.234375,1.27734375,5.79296875,37.4,19.6,41.0,47.8
1646244334.0917149,6564,1646244334,64178997,,"['FL0', 'FL1', 'FL2', 'FR0', 'FR1', 'FR2', 'RL0', 'RL1', 'RL2', 'RR0', 'RR1', 'RR2', 'FL_foot', 'FR_foot', 'RL_foot', 'RR_foot']",0.1126885861158371,0.8467235565185547,-1.8920642137527466,-0.1332961916923523,0.772721529006958,-1.8621853590011597,0.05436360836029053,0.8629903793334961,-1.8883557319641113,-0.11846208572387695,0.7844371795654297,-1.8163344860076904,0.0,0.0,0.0,0.0,-0.19660025835037231,-0.16140109300613403,-0.01373626384884119,-0.14766483008861542,0.10388049483299255,-0.006868131924420595,0.089285708963871,-0.04979395493865013,0.07984203100204468,0.11675823479890823,0.14766483008861542,-0.1871565878391266,0.0,0.0,0.0,0.0,-1.91796875,1.3828125,5.54296875,2.16796875,1.06640625,3.625,-3.0546875,1.4921875,7.5703125,3.234375,1.2421875,5.93359375,37.6,19.2,40.6,48.2
1646244334.0917294,6565,1646244334,66440724,,"['FL0', 'FL1', 'FL2', 'FR0', 'FR1', 'FR2', 'RL0', 'RL1', 'RL2', 'RR0', 'RR1', 'RR2', 'FL_foot', 'FR_foot', 'RL_foot', 'RR_foot']",0.1124778762459755,0.8466391563415527,-1.8920642137527466,-0.1334226131439209,0.7729744911193848,-1.8621431589126587,0.05440574884414673,0.8629903793334961,-1.8883557319641113,-0.11846208572387695,0.7848584651947021,-1.8164187669754028,0.0,0.0,0.0,0.0,-0.06267169862985611,-0.11504121124744415,-0.04378434270620346,-0.009443680755794048,0.17256180942058563,-0.0,-0.008585164323449135,-0.036057692021131516,0.0,0.048076920211315155,0.26013049483299255,-0.015453296713531017,0.0,0.0,0.0,0.0,-1.98828125,1.3125,5.5078125,2.2734375,0.95703125,3.6953125,-2.8046875,1.3125,7.5,3.01953125,1.13671875,5.8984375,37.8,18.8,40.2,48.4
1646244334.0917413,6566,1646244334,68684184,,"['FL0', 'FL1', 'FL2', 'FR0', 'FR1', 'FR2', 'RL0', 'RL1', 'RL2', 'RR0', 'RR1', 'RR2', 'FL_foot', 'FR_foot', 'RL_foot', 'RR_foot']",0.11230930685997009,0.8466813564300537,-1.8920642137527466,-0.1336754709482193,0.7732272148132324,-1.8621010780334473,0.05444788932800293,0.8629903793334961,-1.8883557319641113,-0.11850422620773315,0.7852377891540527,-1.816629409790039,0.0,0.0,0.0,0.0,0.042067304253578186,0.057520605623722076,-0.06610576808452606,-0.06438872963190079,-0.01717033050954342,-0.16912774741649628,-0.0,-0.06610576808452606,0.0,-0.0446428544819355,0.09701236337423325,-0.12019231170415878,0.0,0.0,0.0,0.0,-1.73828125,1.5625,5.47265625,1.91796875,0.95703125,3.765625,-3.08984375,1.45703125,7.390625,2.69921875,1.2421875,5.7578125,37.8,18.2,40.0,48.8
1646244334.091809,6567,1646244334,70942882,,"['FL0', 'FL1', 'FL2', 'FR0', 'FR1', 'FR2', 'RL0', 'RL1', 'RL2', 'RR0', 'RR1', 'RR2', 'FL_foot', 'FR_foot', 'RL_foot', 'RR_foot']",0.11218287795782089,0.8466813564300537,-1.8920642137527466,-0.1338018923997879,0.7733535766601562,-1.8620167970657349,0.05440574884414673,0.8630325794219971,-1.8883135318756104,-0.11850422620773315,0.7854063510894775,-1.8167558908462524,0.0,0.0,0.0,0.0,-0.009443680755794048,0.0,-0.01717033050954342,-0.05666208267211914,0.036057692021131516,0.0017170329811051488,-0.0334821417927742,0.0935782939195633,0.012019230984151363,-0.019745878875255585,0.03777472674846649,-0.14165522158145905,0.0,0.0,0.0,0.0,-1.77734375,1.3125,5.72265625,2.2734375,1.06640625,3.765625,-3.26953125,1.52734375,7.74609375,2.87890625,1.06640625,6.11328125,37.8,17.6,40.2,49.2
1646244334.0918474,6568,1646244334,73153049,,"['FL0', 'FL1', 'FL2', 'FR0', 'FR1', 'FR2', 'RL0', 'RL1', 'RL2', 'RR0', 'RR1', 'RR2', 'FL_foot', 'FR_foot', 'RL_foot', 'RR_foot']",0.11218287795782089,0.8467655181884766,-1.8920642137527466,-0.1338440328836441,0.7733957767486572,-1.8619325160980225,0.05440574884414673,0.8630325794219971,-1.8883557319641113,-0.11854636669158936,0.7855327129364014,-1.8168401718139648,0.0,0.0,0.0,0.0,0.11675823479890823,0.11589972674846649,-0.0008585164905525744,0.09529532492160797,0.0034340659622102976,0.07125686854124069,0.0781249925494194,0.0008585164905525744,-0.048076923936605453,-0.21806317567825317,0.02146291173994541,-0.07554945349693298,0.0,0.0,0.0,0.0,-1.45703125,1.4921875,5.578125,2.1328125,0.8515625,3.6953125,-3.4453125,1.5625,7.53515625,3.01953125,0.81640625,5.79296875,37.8,17.0,40.4,49.6
1646244334.0918732,6569,1646244334,75363907,,"['FL0', 'FL1', 'FL2', 'FR0', 'FR1', 'FR2', 'RL0', 'RL1', 'RL2', 'RR0', 'RR1', 'RR2', 'FL_foot', 'FR_foot', 'RL_foot', 'RR_foot']",0.1122250184416771,0.8468499183654785,-1.8920642137527466,-0.1338861733675003,0.7733957767486572,-1.8619325160980225,0.054321467876434326,0.8630325794219971,-1.8883135318756104,-0.11850422620773315,0.7856593132019043,-1.8169244527816772,0.0,0.0,0.0,0.0,0.05837911739945412,0.136504128575325,0.0,-0.11504120379686356,-0.005151099059730768,-0.0,-0.13135302066802979,0.0,0.13478708267211914,0.009443680755794048,0.036916207522153854,0.026614010334014893,0.0,0.0,0.0,0.0,-1.6328125,1.4921875,5.6484375,2.5234375,0.81640625,3.73046875,-3.41015625,1.59765625,7.46484375,2.87890625,1.20703125,5.86328125,37.6,16.6,40.8,49.8
1646244334.0918913,6570,1646244334,77652260,,"['FL0', 'FL1', 'FL2', 'FR0', 'FR1', 'FR2', 'RL0', 'RL1', 'RL2', 'RR0', 'RR1', 'RR2', 'FL_foot', 'FR_foot', 'RL_foot', 'RR_foot']",0.1122671589255333,0.8469340801239014,-1.8920221328735352,-0.1338440328836441,0.7733116149902344,-1.8618481159210205,0.05436360836029053,0.863074779510498,-1.8883135318756104,-0.11854636669158936,0.7857856750488281,-1.817135214805603,0.0,0.0,0.0,0.0,-0.06095466762781143,0.13049450516700745,0.1339285671710968,0.0,-0.04292582347989082,0.052369505167007446,-0.0,0.036057692021131516,0.1116071417927742,-0.06438872963190079,0.05408653989434242,-0.136504128575325,0.0,0.0,0.0,0.0,-1.6328125,1.66796875,5.6875,2.4140625,0.6015625,3.625,-3.515625,1.77734375,7.53515625,2.62890625,0.95703125,5.828125,37.4,16.2,41.2,50.2
1646244334.0919573,6571,1646244334,79881820,,"['FL0', 'FL1', 'FL2', 'FR0', 'FR1', 'FR2', 'RL0', 'RL1', 'RL2', 'RR0', 'RR1', 'RR2', 'FL_foot', 'FR_foot', 'RL_foot', 'RR_foot']",0.11230930685997009,0.8470184803009033,-1.8920642137527466,-0.1338440328836441,0.7732272148132324,-1.8618481159210205,0.054321467876434326,0.8631167411804199,-1.8883557319641113,-0.11854636669158936,0.7857856750488281,-1.8171772956848145,0.0,0.0,0.0,0.0,0.03262362629175186,0.059237636625766754,-0.078125,-0.0008585164323449135,-0.10817307978868484,-0.08842720091342926,-0.011160713620483875,0.06353022158145905,-0.020604396238923073,0.018887361511588097,0.05666209012269974,-0.04378434270620346,0.0,0.0,0.0,0.0,-1.3125,1.73828125,5.5078125,2.37890625,0.56640625,3.58984375,-3.765625,1.8125,7.640625,2.734375,0.671875,5.828125,37.0,15.8,41.8,50.4
1646244334.0920794,6572,1646244334,82098574,,"['FL0', 'FL1', 'FL2', 'FR0', 'FR1', 'FR2', 'RL0', 'RL1', 'RL2', 'RR0', 'RR1', 'RR2', 'FL_foot', 'FR_foot', 'RL_foot', 'RR_foot']",0.11230930685997009,0.8471448421478271,-1.8920642137527466,-0.1338440328836441,0.7731430530548096,-1.861806035041809,0.054279327392578125,0.8632011413574219,-1.8883135318756104,-0.11858851462602615,0.7857856750488281,-1.8172194957733154,0.0,0.0,0.0,0.0,-0.04979395121335983,0.23780906200408936,-0.07984203100204468,-0.10559751838445663,-0.08671016246080399,0.04893543943762779,-0.010302197188138962,0.08499313145875931,0.03176511079072952,-0.0008585164323449135,0.010302198119461536,-0.004292582627385855,0.0,0.0,0.0,0.0,-1.421875,2.09375,5.578125,2.5234375,0.56640625,3.6953125,-3.58984375,1.84765625,7.640625,2.59375,0.78125,5.828125,36.6,15.6,42.2,50.6
1646244334.0921113,6573,1646244334,84360701,,"['FL0', 'FL1', 'FL2', 'FR0', 'FR1', 'FR2', 'RL0', 'RL1', 'RL2', 'RR0', 'RR1', 'RR2', 'FL_foot', 'FR_foot', 'RL_foot', 'RR_foot']",0.1123514473438263,0.8471870422363281,-1.8920642137527466,-0.1337597519159317,0.7730586528778076,-1.861806035041809,0.054237186908721924,0.8632853031158447,-1.8883557319641113,-0.11863065510988235,0.7857434749603271,-1.8172194957733154,0.0,0.0,0.0,0.0,0.010302197188138962,-0.026614010334014893,-0.07984203100204468,0.048076920211315155,-0.05408653989434242,0.014594780281186104,0.042067304253578186,0.006009615492075682,-0.12019231170415878,-0.04378433898091316,0.007726648356765509,0.0935782939195633,0.0,0.0,0.0,0.0,-1.20703125,1.8828125,5.578125,2.62890625,0.671875,3.4453125,-3.765625,1.84765625,7.67578125,2.62890625,0.78125,5.86328125,36.0,15.4,42.6,50.8
1646244334.0921397,6574,1646244334,86691736,,"['FL0', 'FL1', 'FL2', 'FR0', 'FR1', 'FR2', 'RL0', 'RL1', 'RL2', 'RR0', 'RR1', 'RR2', 'FL_foot', 'FR_foot', 'RL_foot', 'RR_foot']",0.1124357283115387,0.8474819660186768,-1.8920221328735352,-0.1337176114320755,0.7728900909423828,-1.8618481159210205,0.05415290594100952,0.8635382652282715,-1.8883135318756104,-0.11863065510988235,0.7856171131134033,-1.8172194957733154,0.0,0.0,0.0,0.0,0.0669642835855484,0.018887363374233246,0.0,0.012019230052828789,-0.17599588632583618,-0.06353022158145905,-0.006009615026414394,0.15882554650306702,0.06868132203817368,0.11418268829584122,-0.002575549529865384,0.16826923191547394,0.0,0.0,0.0,0.0,-1.2421875,2.0234375,5.72265625,2.59375,0.53125,3.515625,-3.80078125,1.91796875,7.640625,2.37890625,0.81640625,6.00390625,35.6,15.2,42.8,51.0
1646244334.0921583,6575,1646244334,88989319,,"['FL0', 'FL1', 'FL2', 'FR0', 'FR1', 'FR2', 'RL0', 'RL1', 'RL2', 'RR0', 'RR1', 'RR2', 'FL_foot', 'FR_foot', 'RL_foot', 'RR_foot']",0.1125200167298317,0.8476505279541016,-1.8920642137527466,-0.1336754709482193,0.772721529006958,-1.8618481159210205,0.05402648448944092,0.8637068271636963,-1.8883135318756104,-0.11875708401203156,0.7854063510894775,-1.8172615766525269,0.0,0.0,0.0,0.0,0.030906591564416885,0.0446428582072258,0.05494505539536476,-0.007726647891104221,-0.1631181389093399,-0.048076923936605453,-0.09872938692569733,0.0626717060804367,0.0017170329811051488,-0.02747252583503723,-0.16826923191547394,-0.02146291173994541,0.0,0.0,0.0,0.0,-1.20703125,1.8125,5.72265625,2.62890625,0.4609375,3.5546875,-3.91015625,2.0234375,7.74609375,2.30859375,0.671875,6.04296875,35.0,15.0,43.2,51.0
