Time,header.seq,header.stamp.secs,header.stamp.nsecs,header.frame_id,name,position_0,position_1,position_2,position_3,position_4,position_5,position_6,position_7,position_8,position_9,position_10,position_11,velocity_0,velocity_1,velocity_2,velocity_3,velocity_4,velocity_5,velocity_6,velocity_7,velocity_8,velocity_9,velocity_10,velocity_11,effort_0,effort_1,effort_2,effort_3,effort_4,effort_5,effort_6,effort_7,effort_8,effort_9,effort_10,effort_11
214.20425,214073,214,194500000,,"['FL_calf_joint', 'FL_hip_joint', 'FL_thigh_joint', 'FR_calf_joint', 'FR_hip_joint', 'FR_thigh_joint', 'RL_calf_joint', 'RL_hip_joint', 'RL_thigh_joint', 'RR_calf_joint', 'RR_hip_joint', 'RR_thigh_joint']",-1.5789595106492276,-0.0031876138698097023,0.8256999950323127,-1.5712371070843716,0.01780276234443967,0.8199434242061878,-1.5940315367255682,-0.002263213858873847,0.7705679337128943,-1.585877934296343,0.016125564249386493,0.7675661383088315,0.8028066360673349,-0.02930939979314804,-0.46135225895545934,0.8079403863164308,-0.03593628640565366,-0.41917022362895534,0.9388030575393382,0.030313867126538007,-0.5083598975867888,0.872987056300659,0.02408431537474099,-0.4300091139833134,4.293115615844727,-1.6461927890777588,-0.08436822891235352,4.208156585693359,1.3520622253417969,0.10994266718626022,5.176942348480225,-1.7355704307556152,0.48741665482521057,5.062618255615234,1.905530333518982,0.6372612118721008
214.20425,214074,214,195500000,,"['FL_calf_joint', 'FL_hip_joint', 'FL_thigh_joint', 'FR_calf_joint', 'FR_hip_joint', 'FR_thigh_joint', 'RL_calf_joint', 'RL_hip_joint', 'RL_thigh_joint', 'RR_calf_joint', 'RR_hip_joint', 'RR_thigh_joint']",-1.5789779791009875,-0.0032204627750553882,0.8256887000669266,-1.5712181050543084,0.017769939355050113,0.819956268844841,-1.5940134796924816,-0.0022356862180776815,0.770536875070948,-1.5858965174093966,0.016153026911444712,0.7675993417074585,0.8024055327651245,-0.029532267638691316,-0.46152075338746645,0.8083748350259135,-0.03615803220106781,-0.41900987019507313,0.9390119664690804,0.03113766432221715,-0.5088611719346205,0.8727739320985572,0.024907487414309648,-0.42949987289839353,4.2996344566345215,-1.6304181814193726,-0.07273213565349579,4.20167350769043,1.367969274520874,0.09817434847354889,5.182865619659424,-1.7513675689697266,0.49915316700935364,5.056482315063477,1.8896706104278564,0.6252428293228149
214.20425,214075,214,196500000,,"['FL_calf_joint', 'FL_hip_joint', 'FL_thigh_joint', 'FR_calf_joint', 'FR_hip_joint', 'FR_thigh_joint', 'RL_calf_joint', 'RL_hip_joint', 'RL_thigh_joint', 'RR_calf_joint', 'RR_hip_joint', 'RR_thigh_joint']",-1.5789968399149523,-0.0032536278683776843,0.8256772328071271,-1.5711987108863097,0.017736802601060475,0.8199692738545021,-1.5939951643809263,-0.0022074311114508305,0.7705052873338571,-1.5859153255684997,0.016181216368302387,0.7676330402083433,0.8020274063918076,-0.02986747061316683,-0.46169653288513346,0.8087497789721949,-0.03649071533193822,-0.41885231123800826,0.9392735085616117,0.03181708734495386,-0.5093853240637322,0.8725424217755576,0.025589855549201877,-0.4290159712982063,4.2996344566345215,-1.6304181814193726,-0.07273213565349579,4.20167350769043,1.367969274520874,0.09817434847354889,5.182865619659424,-1.7513675689697266,0.49915316700935364,5.056482315063477,1.8896706104278564,0.6252428293228149
214.20425,214076,214,197500000,,"['FL_calf_joint', 'FL_hip_joint', 'FL_thigh_joint', 'FR_calf_joint', 'FR_hip_joint', 'FR_thigh_joint', 'RL_calf_joint', 'RL_hip_joint', 'RL_thigh_joint', 'RR_calf_joint', 'RR_hip_joint', 'RR_thigh_joint']",-1.57901609372766,-0.0032871416122750574,0.8256655898943279,-1.5711789382758443,0.017703320254916832,0.8199824432290796,-1.5939765693755072,-0.002178487458871281,0.7704731559005848,-1.5859343721848584,0.016210095926165735,0.7676672369932902,0.8016450581496168,-0.03020410805115872,-0.461870657650648,0.8091244319910782,-0.0368249562316308,-0.4186935516419523,0.9395410869212544,0.032491356286249794,-0.5099130816169961,0.8723079490964554,0.026266143574814705,-0.4285299040134082,4.2996344566345215,-1.6304181814193726,-0.07273213565349579,4.20167350769043,1.367969274520874,0.09817434847354889,5.182865619659424,-1.7513675689697266,0.49915316700935364,5.056482315063477,1.8896706104278564,0.6252428293228149
214.20425,214077,214,198500000,,"['FL_calf_joint', 'FL_hip_joint', 'FL_thigh_joint', 'FR_calf_joint', 'FR_hip_joint', 'FR_thigh_joint', 'RL_calf_joint', 'RL_hip_joint', 'RL_thigh_joint', 'RR_calf_joint', 'RR_hip_joint', 'RR_thigh_joint']",-1.5790357326243218,-0.0033209998698344734,0.8256537690135186,-1.5711587949601968,0.017669496526320216,0.8199957792677157,-1.5939576983463057,-0.0021488677698080494,0.7704404851145155,-1.5859536549638604,0.016239653061249193,0.7677019283746906,0.8012897738192017,-0.03051701866276258,-0.4620488110385381,0.8094716184584154,-0.03713550945791311,-0.418531023303022,0.9397958156544606,0.03312499417006588,-0.5104217488547663,0.8720861111015594,0.026901789007785826,-0.428063216425416,4.30431604385376,-1.6193872690200806,-0.06446367502212524,4.196978569030762,1.3790972232818604,0.08978675305843353,5.187359809875488,-1.7626466751098633,0.5074291825294495,5.05186653137207,1.8782968521118164,0.6168273687362671
214.20425,214078,214,199500000,,"['FL_calf_joint', 'FL_hip_joint', 'FL_thigh_joint', 'FR_calf_joint', 'FR_hip_joint', 'FR_thigh_joint', 'RL_calf_joint', 'RL_hip_joint', 'RL_thigh_joint', 'RR_calf_joint', 'RR_hip_joint', 'RR_thigh_joint']",-1.5790557137211345,-0.0033551677173688788,0.8256417812475494,-1.5711383204021603,0.017635366430399202,0.8200092672490449,-1.5939385662511398,-0.0021186280675493663,0.7704073174320714,-1.585973162774232,0.016269831982879346,0.7677370718369403,0.800954507057804,-0.0308152777751169,-0.46220279081782445,0.809800280521472,-0.037431125722887745,-0.4183950940242435,0.9400616261374191,0.033733015871479616,-0.5109031991390105,0.8718501745282397,0.02751216588311464,-0.4276245299892227,4.30431604385376,-1.6193872690200806,-0.06446367502212524,4.196978569030762,1.3790972232818604,0.08978675305843353,5.187359809875488,-1.7626466751098633,0.5074291825294495,5.05186653137207,1.8782968521118164,0.6168273687362671
214.20425,214079,214,200500000,,"['FL_calf_joint', 'FL_hip_joint', 'FL_thigh_joint', 'FR_calf_joint', 'FR_hip_joint', 'FR_thigh_joint', 'RL_calf_joint', 'RL_hip_joint', 'RL_thigh_joint', 'RR_calf_joint', 'RR_hip_joint', 'RR_thigh_joint']",-1.5790760413739364,-0.0033896415506449173,0.8256296369868465,-1.5711175130705852,0.017600933752227377,0.820022898147938,-1.5939191863819326,-0.002087779496086739,0.7703736674239865,-1.5859928791084008,0.016300621675434,0.76777265066137,0.8006179112404092,-0.031108181295611072,-0.46235703739407097,0.8101269655873069,-0.03772133245584795,-0.41825684703191235,0.9403121954103475,0.0343269927374391,-0.5113768140101401,0.8716331541927718,0.02810857812033595,-0.4271953588936602,4.30431604385376,-1.6193872690200806,-0.06446367502212524,4.196978569030762,1.3790972232818604,0.08978675305843353,5.187359809875488,-1.7626466751098633,0.5074291825294495,5.05186653137207,1.8782968521118164,0.6168273687362671
214.20425,214080,214,201500000,,"['FL_calf_joint', 'FL_hip_joint', 'FL_thigh_joint', 'FR_calf_joint', 'FR_hip_joint', 'FR_thigh_joint', 'RL_calf_joint', 'RL_hip_joint', 'RL_thigh_joint', 'RR_calf_joint', 'RR_hip_joint', 'RR_thigh_joint']",-1.5790966818369392,-0.0034243810158320898,0.8256173383541565,-1.5710964049087677,0.01756623876666552,0.8200366674020367,-1.5938995995042902,-0.002056361202614987,0.7703395779797164,-1.5860127616736448,0.016331983186083754,0.7678086197001148,0.8003412362911344,-0.03132797425072325,-0.46250159875348046,0.810397448478741,-0.037938530164193754,-0.418133392988971,0.940498362218869,0.03486024597395323,-0.5117733821546592,0.8714825854607496,0.028644557948417654,-0.42684744431633725,4.310064315795898,-1.605664849281311,-0.054411932826042175,4.191227436065674,1.3928546905517578,0.07961753010749817,5.192495822906494,-1.7764179706573486,0.5176928043365479,5.0465898513793945,1.8645504713058472,0.60631263256073
214.20425,214081,214,202500000,,"['FL_calf_joint', 'FL_hip_joint', 'FL_thigh_joint', 'FR_calf_joint', 'FR_hip_joint', 'FR_thigh_joint', 'RL_calf_joint', 'RL_hip_joint', 'RL_thigh_joint', 'RR_calf_joint', 'RR_hip_joint', 'RR_thigh_joint']",-1.579117619295904,-0.003459293833416588,0.8256049150151519,-1.571075011152872,0.017531374259071697,0.8200505420999571,-1.5938798405899384,-0.0020243733915261686,0.7703051053810297,-1.5860327758805925,0.01636392083989513,0.767844919885885,0.8000459395041855,-0.031344916943342196,-0.4626109125422861,0.810688301506088,-0.037951301948270046,-0.4180491603558921,0.940616935837658,0.0354966958695292,-0.5121080342894241,0.8713937925566364,0.029301450360750252,-0.4265602264207786,4.317103385925293,-1.588366150856018,-0.04143284261226654,4.18423318862915,1.4103286266326904,0.06660687923431396,5.192495822906494,-1.793893575668335,0.5176928043365479,5.0465898513793945,1.8645504713058472,0.60631263256073
214.20425,214082,214,203500000,,"['FL_calf_joint', 'FL_hip_joint', 'FL_thigh_joint', 'FR_calf_joint', 'FR_hip_joint', 'FR_thigh_joint', 'RL_calf_joint', 'RL_hip_joint', 'RL_thigh_joint', 'RR_calf_joint', 'RR_hip_joint', 'RR_thigh_joint']",-1.5791388445046572,-0.003494234491930648,0.825592415051073,-1.571053335901814,0.01749648422224581,0.8200644716473295,-1.5938599650420464,-0.0019918131093428215,0.7702703319540012,-1.5860528617513494,0.016396424953301292,0.7678814657758926,0.799802523706777,-0.03146266082363224,-0.46268451000190414,0.810929620650715,-0.03806816087551149,-0.4179993249932786,0.9407609368257228,0.03594015148258946,-0.5123949451759517,0.8712905106621929,0.02972914675821011,-0.4263270993034486,4.317103385925293,-1.588366150856018,-0.04143284261226654,4.18423318862915,1.4103286266326904,0.06660687923431396,5.199210166931152,-1.793893575668335,0.5306096076965332,5.039740562438965,1.846971869468689,0.5932679176330566
214.20475,214083,214,204500000,,"['FL_calf_joint', 'FL_hip_joint', 'FL_thigh_joint', 'FR_calf_joint', 'FR_hip_joint', 'FR_thigh_joint', 'RL_calf_joint', 'RL_hip_joint', 'RL_thigh_joint', 'RR_calf_joint', 'RR_hip_joint', 'RR_thigh_joint']",-1.5791603175284128,-0.0035292931950587914,0.8255798329587805,-1.5710314283406666,0.017461480055079193,0.8200784648857136,-1.5938399445087166,-0.001958805699916688,0.7702352591849566,-1.5860730508784662,0.016429381815822097,0.7679182564299074,0.7995661332390476,-0.03156719641612658,-0.46276472131434787,0.8111565302624621,-0.03816976525155606,-0.41794085871047715,0.9409006945693419,0.03636950674985016,-0.5126807570535009,0.8711868015924473,0.030162120697492596,-0.4260931895971683,4.317103385925293,-1.588366150856018,-0.04143284261226654,4.18423318862915,1.4103286266326904,0.06660687923431396,5.199210166931152,-1.793893575668335,0.5306096076965332,5.039740562438965,1.846971869468689,0.5932679176330566
214.207,214084,214,205500000,,"['FL_calf_joint', 'FL_hip_joint', 'FL_thigh_joint', 'FR_calf_joint', 'FR_hip_joint', 'FR_thigh_joint', 'RL_calf_joint', 'RL_hip_joint', 'RL_thigh_joint', 'RR_calf_joint', 'RR_hip_joint', 'RR_thigh_joint']",-1.5791820320287937,-0.003564471891896126,0.8255671643307174,-1.5710092957949398,0.01742635957827865,0.8200925273092352,-1.593819781413977,-0.0019253574132109819,0.7701998876115743,-1.5860933382563753,0.016462782453337432,0.7679552902647435,0.7993296602604405,-0.031674239146547725,-0.4628459169019216,0.8113812909730456,-0.038273817629408347,-0.41787990140815057,0.9410422174804132,0.03679518238006805,-0.5129683791947378,0.8710834697627924,0.030591226329456257,-0.4258584056904408,4.317103385925293,-1.588366150856018,-0.04143284261226654,4.18423318862915,1.4103286266326904,0.06660687923431396,5.199210166931152,-1.793893575668335,0.5306096076965332,5.039740562438965,1.846971869468689,0.5932679176330566
214.207,214085,214,206500000,,"['FL_calf_joint', 'FL_hip_joint', 'FL_thigh_joint', 'FR_calf_joint', 'FR_hip_joint', 'FR_thigh_joint', 'RL_calf_joint', 'RL_hip_joint', 'RL_thigh_joint', 'RR_calf_joint', 'RR_hip_joint', 'RR_thigh_joint']",-1.5792039845910328,-0.0035997738193556117,0.825554406183155,-1.570986940892893,0.01739111961695805,0.820106661718258,-1.5937994768067396,-0.0018914707528230323,0.7701642166916924,-1.5861137234297682,0.01649662430168064,0.7679925682519348,0.7990929511209249,-0.031784719006705854,-0.46292801722853183,0.8116053436511085,-0.038381242504102756,-0.4178172581793748,0.9411854407990221,0.03721874871654294,-0.5132578976962897,0.8709793165484224,0.03101820224914092,-0.42562204317914243,4.317103385925293,-1.588366150856018,-0.04143284261226654,4.18423318862915,1.4103286266326904,0.06660687923431396,5.199210166931152,-1.793893575668335,0.5306096076965332,5.039740562438965,1.846971869468689,0.5932679176330566
214.20775,214086,214,207500000,,"['FL_calf_joint', 'FL_hip_joint', 'FL_thigh_joint', 'FR_calf_joint', 'FR_hip_joint', 'FR_thigh_joint', 'RL_calf_joint', 'RL_hip_joint', 'RL_thigh_joint', 'RR_calf_joint', 'RR_hip_joint', 'RR_thigh_joint']",-1.579226154867714,-0.0036351766630060567,0.8255415578529242,-1.5709643816651324,0.01735578240803015,0.8201208672524132,-1.593779054102069,-0.0018571687057882258,0.7701282698652987,-1.5861341843739942,0.01653088435208172,0.7680300674352427,0.7988973628463927,-0.03183822154542663,-0.4630025490099287,0.8117914675434323,-0.03843182823246119,-0.41776493626462236,0.9412770718274369,0.03759585120501587,-0.5134892825922394,0.8709251383551986,0.03139878879887416,-0.4254438959511409,4.3230977058410645,-1.5737719535827637,-0.03069286048412323,4.178236484527588,1.4249850511550903,0.05579453334212303,5.20465087890625,-1.808445930480957,0.5415419936180115,5.034228324890137,1.8323214054107666,0.5822632908821106
214.21025,214087,214,208500000,,"['FL_calf_joint', 'FL_hip_joint', 'FL_thigh_joint', 'FR_calf_joint', 'FR_hip_joint', 'FR_thigh_joint', 'RL_calf_joint', 'RL_hip_joint', 'RL_thigh_joint', 'RR_calf_joint', 'RR_hip_joint', 'RR_thigh_joint']",-1.5792485085451209,-0.003670613461907557,0.8255286465537353,-1.5709416497013828,0.01732041492953229,0.8201351137170416,-1.5937585532147116,-0.00182248980191968,0.7700921134881336,-1.5861546826546298,0.016565524301166867,0.7680677204918638,0.7987144924722104,-0.03185564487553477,-0.46305356595438973,0.8119653947504377,-0.03844620097095097,-0.4177372500177432,0.9413560492766324,0.037958051740517126,-0.5136846840267342,0.8708835095536553,0.03176455043393275,-0.4253028782335772,4.3230977058410645,-1.5737719535827637,-0.03069286048412323,4.178236484527588,1.4249850511550903,0.05579453334212303,5.20465087890625,-1.808445930480957,0.5415419936180115,5.034228324890137,1.8323214054107666,0.5822632908821106
214.21025,214088,214,209500000,,"['FL_calf_joint', 'FL_hip_joint', 'FL_thigh_joint', 'FR_calf_joint', 'FR_hip_joint', 'FR_thigh_joint', 'RL_calf_joint', 'RL_hip_joint', 'RL_thigh_joint', 'RR_calf_joint', 'RR_hip_joint', 'RR_thigh_joint']",-1.5792710526538873,-0.0037060363379763928,0.8255156855940466,-1.570918733722639,0.017285065599701,0.8201493923614498,-1.5937379799021496,-0.0017874130957711287,0.7700557606138618,-1.5861752188258982,0.016600568690146922,0.7681055248035813,0.7985270754469417,-0.03169181095049129,-0.4630764598000892,0.8121707023811668,-0.038277420053633694,-0.4177250645992373,0.9413624345046194,0.03841888367384064,-0.513814122391641,0.8708813619345126,0.03224350057102312,-0.4251818860208267,4.329628944396973,-1.5574086904525757,-0.01847158558666706,4.171653747558594,1.441420316696167,0.043543413281440735,5.2109904289245605,-1.8248614072799683,0.5537611246109009,5.034228324890137,1.8323214054107666,0.5822632908821106
214.21625,214089,214,210500000,,"['FL_calf_joint', 'FL_hip_joint', 'FL_thigh_joint', 'FR_calf_joint', 'FR_hip_joint', 'FR_thigh_joint', 'RL_calf_joint', 'RL_hip_joint', 'RL_thigh_joint', 'RR_calf_joint', 'RR_hip_joint', 'RR_thigh_joint']",-1.5792937668513898,-0.003741304211065888,0.8255027213010084,-1.5708956364846056,0.017249873390580817,0.8201636611954006,-1.5937174044363163,-0.0017519320599381771,0.770019305660008,-1.5861957299103717,0.01663601353442612,0.7681434030677305,0.7983738583655084,-0.03162096835205373,-0.4630747106562454,0.812313767309431,-0.038206115908737875,-0.4177500677277722,0.9414027964174381,0.038702072448271535,-0.513920625926999,0.87089013140866,0.032514835592550924,-0.4251376820356481,4.329628944396973,-1.5574086904525757,-0.01847158558666706,4.171653747558594,1.441420316696167,0.043543413281440735,5.2109904289245605,-1.8248614072799683,0.5537611246109009,5.027892589569092,1.8158020973205566,0.5700392127037048
214.21625,214090,214,211500000,,"['FL_calf_joint', 'FL_hip_joint', 'FL_thigh_joint', 'FR_calf_joint', 'FR_hip_joint', 'FR_thigh_joint', 'RL_calf_joint', 'RL_hip_joint', 'RL_thigh_joint', 'RR_calf_joint', 'RR_hip_joint', 'RR_thigh_joint']",-1.579316610958673,-0.003776494725149071,0.8254897387329798,-1.57087242323463,0.01721476259500143,0.8201779254521933,-1.5936967961719493,-0.0017161724656160615,0.769982739989481,-1.5862162304074618,0.01667174253409165,0.7681813326035893,0.7982673294752882,-0.03150207637187811,-0.4630856317591869,0.8124067736771524,-0.03808442842253305,-0.4177626377404031,0.9414160606017419,0.03892587035986257,-0.5139966232934036,0.8709184495465294,0.032742544482417944,-0.42512048283587406,4.335768222808838,-1.5426549911499023,-0.007376931607723236,4.16549015045166,1.456247091293335,0.0324496328830719,5.216957092285156,-1.8398551940917969,0.564872682094574,5.0219244956970215,1.8007104396820068,0.558938205242157
214.21625,214091,214,212500000,,"['FL_calf_joint', 'FL_hip_joint', 'FL_thigh_joint', 'FR_calf_joint', 'FR_hip_joint', 'FR_thigh_joint', 'RL_calf_joint', 'RL_hip_joint', 'RL_thigh_joint', 'RR_calf_joint', 'RR_hip_joint', 'RR_thigh_joint']",-1.5793395324868418,-0.0038115533563951587,0.8254767558920317,-1.5708491467665828,0.0171797872051922,0.8201921663802407,-1.5936761818790828,-0.0016802060840985789,0.7699461248250303,-1.5862366945696968,0.016707681758439286,0.7682192517545969,0.79818347195341,-0.03135653873235317,-0.46306173680214263,0.8124767691374624,-0.03793584165782535,-0.417810759459345,0.9414370246676375,0.03912059839193623,-0.5140319803245005,0.8709366122920974,0.03294138706710775,-0.4251441111439458,4.335768222808838,-1.5426549911499023,-0.007376931607723236,4.16549015045166,1.456247091293335,0.0324496328830719,5.216957092285156,-1.8398551940917969,0.564872682094574,5.0219244956970215,1.8007104396820068,0.558938205242157
214.21625,214092,214,213500000,,"['FL_calf_joint', 'FL_hip_joint', 'FL_thigh_joint', 'FR_calf_joint', 'FR_hip_joint', 'FR_thigh_joint', 'RL_calf_joint', 'RL_hip_joint', 'RL_thigh_joint', 'RR_calf_joint', 'RR_hip_joint', 'RR_thigh_joint']",-1.579362529888194,-0.0038464730899443467,0.825463782656291,-1.5708258086661013,0.017144954269673107,0.8202063740341323,-1.593655576461031,-0.0016440469954535075,0.7699094784058031,-1.5862571071853533,0.016743816986958038,0.768257141950051,0.798106200315305,-0.031203709009677134,-0.4630430196912055,0.8125399385410825,-0.037780124358797657,-0.4178534385025131,0.9414399575046597,0.039296257861618895,-0.5140581934014465,0.8709741128533321,0.03312089622960229,-0.42517718140091726,4.335768222808838,-1.5426549911499023,-0.007376931607723236,4.16549015045166,1.456247091293335,0.0324496328830719,5.216957092285156,-1.8398551940917969,0.564872682094574,5.0219244956970215,1.8007104396820068,0.558938205242157
214.21625,214093,214,214500000,,"['FL_calf_joint', 'FL_hip_joint', 'FL_thigh_joint', 'FR_calf_joint', 'FR_hip_joint', 'FR_thigh_joint', 'RL_calf_joint', 'RL_hip_joint', 'RL_thigh_joint', 'RR_calf_joint', 'RR_hip_joint', 'RR_thigh_joint']",-1.5793855160888666,-0.003881155991824592,0.8254508292848843,-1.5708024920390535,0.017110361133690688,0.8202205340811668,-1.59363506521293,-0.00160779516087306,0.7698729054958315,-1.5862773862821924,0.016780048207892584,0.7682948987800007,0.798157539744897,-0.03090782054426294,-0.4630008780741379,0.8124813999561695,-0.03748194001642628,-0.4179263375114785,0.9413273146142362,0.039337322327116286,-0.513928348164513,0.8711206565497625,0.033165859177024117,-0.4253654506143844,4.3450517654418945,-1.5205591917037964,0.008935362100601196,4.156193256378174,1.478380560874939,0.016055596992373466,5.225399017333984,-1.8621083498001099,0.5815532207489014,5.013391017913818,1.7783770561218262,0.5421973466873169
214.21625,214094,214,215500000,,"['FL_calf_joint', 'FL_hip_joint', 'FL_thigh_joint', 'FR_calf_joint', 'FR_hip_joint', 'FR_thigh_joint', 'RL_calf_joint', 'RL_hip_joint', 'RL_thigh_joint', 'RR_calf_joint', 'RR_hip_joint', 'RR_thigh_joint']",-1.579408499283835,-0.003915575864330556,0.8254379351778667,-1.570779191616495,0.01707603430884319,0.8202346079591178,-1.5936146411441587,-0.0015714664388841726,0.7698364355601948,-1.5862975367433783,0.01681635958782568,0.768332490586519,0.7981746424467264,-0.03062663726479155,-0.46294116136719754,0.8124531439405505,-0.03719825358381112,-0.41801435359715977,0.9412418245057901,0.039391007124043226,-0.5138147829254649,0.8712439029587553,0.03322333017490542,-0.4255393109744473,4.3450517654418945,-1.5205591917037964,0.008935362100601196,4.156193256378174,1.478380560874939,0.016055596992373466,5.225399017333984,-1.8621083498001099,0.5815532207489014,5.013391017913818,1.7783770561218262,0.5421973466873169
214.225,214095,214,216500000,,"['FL_calf_joint', 'FL_hip_joint', 'FL_thigh_joint', 'FR_calf_joint', 'FR_hip_joint', 'FR_thigh_joint', 'RL_calf_joint', 'RL_hip_joint', 'RL_thigh_joint', 'RR_calf_joint', 'RR_hip_joint', 'RR_thigh_joint']",-1.5794314873274051,-0.003949730746042768,0.8254251031032336,-1.5707559020691964,0.017041975657104302,0.820248594407734,-1.5935943008607607,-0.0015350726825227312,0.7698000661527962,-1.5863175596867687,0.016852739157528163,0.7683699189799365,0.798182377493212,-0.030348376721277846,-0.4628777678635305,0.8124323926543509,-0.0369175224610628,-0.41810486551900533,0.9411619676681013,0.03944004482059498,-0.5137053054343765,0.8713633144508004,0.0332761061165787,-0.4257097438211209,4.3450517654418945,-1.5205591917037964,0.008935362100601196,4.156193256378174,1.478380560874939,0.016055596992373466,5.225399017333984,-1.8621083498001099,0.5815532207489014,5.013391017913818,1.7783770561218262,0.5421973466873169
214.225,214096,214,217500000,,"['FL_calf_joint', 'FL_hip_joint', 'FL_thigh_joint', 'FR_calf_joint', 'FR_hip_joint', 'FR_thigh_joint', 'RL_calf_joint', 'RL_hip_joint', 'RL_thigh_joint', 'RR_calf_joint', 'RR_hip_joint', 'RR_thigh_joint']",-1.5794546814005916,-0.003983449813987683,0.8254124566434147,-1.5707325902358065,0.017008355021999932,0.8202624754381231,-1.5935741109713257,-0.001498475250065745,0.7697638461627099,-1.5863374073331005,0.01688932483520844,0.7684071588244192,0.7978749174060146,-0.0297908175913358,-0.4626097616344408,0.8124493798316068,-0.03635036448698301,-0.41822518427073485,0.940958893887345,0.039680511382666095,-0.5134977983204216,0.8715755949123649,0.033520816236708544,-0.4259392815127937,4.350792407989502,-1.5070879459381104,0.019018566235899925,4.150405406951904,1.491838812828064,0.005966860800981522,5.230672836303711,-1.875978708267212,0.5919216275215149,5.008187294006348,1.7643935680389404,0.5319669246673584
214.225,214097,214,218500000,,"['FL_calf_joint', 'FL_hip_joint', 'FL_thigh_joint', 'FR_calf_joint', 'FR_hip_joint', 'FR_thigh_joint', 'RL_calf_joint', 'RL_hip_joint', 'RL_thigh_joint', 'RR_calf_joint', 'RR_hip_joint', 'RR_thigh_joint']",-1.5794777095773331,-0.0040167673492872424,0.8253998305816577,-1.5707093291747096,0.01697514030484193,0.8202762461839761,-1.5935540865287798,-0.0014618115570650403,0.7697278218478667,-1.586357060477972,0.016925980345973812,0.7684441550701013,0.7980977102645515,-0.02946575495601545,-0.4626084861229093,0.8123633034978845,-0.036029626175059795,-0.418337561419264,0.9408450442302789,0.03964307392869702,-0.5133151788479159,0.871728316307307,0.033486178161325215,-0.42618407272028047,4.350792407989502,-1.5070879459381104,0.019018566235899925,4.150405406951904,1.491838812828064,0.005966860800981522,5.230672836303711,-1.875978708267212,0.5919216275215149,5.008187294006348,1.7643935680389404,0.5319669246673584
214.225,214098,214,219500000,,"['FL_calf_joint', 'FL_hip_joint', 'FL_thigh_joint', 'FR_calf_joint', 'FR_hip_joint', 'FR_thigh_joint', 'RL_calf_joint', 'RL_hip_joint', 'RL_thigh_joint', 'RR_calf_joint', 'RR_hip_joint', 'RR_thigh_joint']",-1.5795005921197256,-0.0040497757694604175,0.825387238942751,-1.5706861401059733,0.016942236422849533,0.8202899072804595,-1.5935341842859607,-0.0014251879430009495,0.7696919736605858,-1.5863765513068393,0.01696259873076489,0.7684809137163251,0.798231259940201,-0.029143715971614477,-0.46255924026094863,0.8122826709280213,-0.035706177978225395,-0.4184507823002963,0.9407294052793894,0.03958659731261345,-0.5131314863613673,0.8718825391150106,0.03343326316049579,-0.42642850949920796,4.350792407989502,-1.5070879459381104,0.019018566235899925,4.150405406951904,1.491838812828064,0.005966860800981522,5.230672836303711,-1.875978708267212,0.5919216275215149,5.008187294006348,1.7643935680389404,0.5319669246673584
214.225,214099,214,220500000,,"['FL_calf_joint', 'FL_hip_joint', 'FL_thigh_joint', 'FR_calf_joint', 'FR_hip_joint', 'FR_thigh_joint', 'RL_calf_joint', 'RL_hip_joint', 'RL_thigh_joint', 'RR_calf_joint', 'RR_hip_joint', 'RR_thigh_joint']",-1.57952345587108,-0.004082086082523695,0.8253748050250422,-1.5706629472487874,0.01691003192916618,0.820303394754097,-1.5935145502180355,-0.0013883470918925056,0.7696564332141884,-1.5863957555053925,0.016999436554172576,0.7685173463623283,0.7982931393191575,-0.028388653709006072,-0.46238715748404635,0.8122651923796467,-0.0349504400488426,-0.4186520596956502,0.9404472230092646,0.03976152465712249,-0.5127758432615215,0.8721857066331263,0.03361096099187409,-0.4268050446679835,4.358154296875,-1.4884560108184814,0.03287313133478165,4.142925262451172,1.5104824304580688,-0.007860749028623104,5.237909317016602,-1.8944536447525024,0.605802059173584,5.001086235046387,1.7458221912384033,0.5182070136070251
214.225,214100,214,221500000,,"['FL_calf_joint', 'FL_hip_joint', 'FL_thigh_joint', 'FR_calf_joint', 'FR_hip_joint', 'FR_thigh_joint', 'RL_calf_joint', 'RL_hip_joint', 'RL_thigh_joint', 'RR_calf_joint', 'RR_hip_joint', 'RR_thigh_joint']",-1.579546230191991,-0.004113969290750141,0.8253625130904059,-1.5706398729728974,0.01687825704822643,0.8203167191315615,-1.5934951038798921,-0.0013516278254099845,0.7696211806330764,-1.5864147297887583,0.0170361557398353,0.7685534269318879,0.7984130374962719,-0.027943796427872498,-0.46225406168347427,0.812140535631189,-0.03450387910217448,-0.4188199311537289,0.940271394380759,0.03962348428290735,-0.5124834163618515,0.8724049698503924,0.033476197010917974,-0.4271625502530656,4.358154296875,-1.4884560108184814,0.03287313133478165,4.142925262451172,1.5104824304580688,-0.007860749028623104,5.237909317016602,-1.8944536447525024,0.605802059173584,5.001086235046387,1.7458221912384033,0.5182070136070251
214.225,214101,214,222500000,,"['FL_calf_joint', 'FL_hip_joint', 'FL_thigh_joint', 'FR_calf_joint', 'FR_hip_joint', 'FR_thigh_joint', 'RL_calf_joint', 'RL_hip_joint', 'RL_thigh_joint', 'RR_calf_joint', 'RR_hip_joint', 'RR_thigh_joint']",-1.5795689004831304,-0.004145423640198764,0.8253503534823636,-1.5706169312631495,0.016846913394658714,0.8203298898052633,-1.5934758457096176,-0.001315035572893919,0.7695862150247796,-1.58643347716179,0.017072750657212588,0.7685891584261384,0.7985301392332105,-0.027502416680149012,-0.4621209811739105,0.8120124541156823,-0.034060849374130384,-0.41898425837329845,0.9400965687316079,0.03948096072970865,-0.5121927679463875,0.8726208980192351,0.033336905410845934,-0.427516747083207,4.358154296875,-1.4884560108184814,0.03287313133478165,4.142925262451172,1.5104824304580688,-0.007860749028623104,5.237909317016602,-1.8944536447525024,0.605802059173584,5.001086235046387,1.7458221912384033,0.5182070136070251
214.225,214102,214,223500000,,"['FL_calf_joint', 'FL_hip_joint', 'FL_thigh_joint', 'FR_calf_joint', 'FR_hip_joint', 'FR_thigh_joint', 'RL_calf_joint', 'RL_hip_joint', 'RL_thigh_joint', 'RR_calf_joint', 'RR_hip_joint', 'RR_thigh_joint']",-1.5795914271432872,-0.0041763946585726686,0.8253383376697982,-1.5705941625350448,0.016816055037988775,0.8203428950115725,-1.5934568107895162,-0.001278628737510168,0.769551589361698,-1.5864519596503341,0.017109162762971586,0.7686244861679707,0.7986871743646613,-0.026980313543467995,-0.4619557001360568,0.8118339513139867,-0.03353745721658334,-0.4191761649077991,0.939877460923018,0.03925996979764323,-0.5118236056300738,0.8728857753174513,0.03311900365985588,-0.4279524282796813,4.363340377807617,-1.4755538702011108,0.04257013648748398,4.137678623199463,1.5233981609344482,-0.017484072595834732,5.243016242980957,-1.9074705839157104,0.6155171394348145,4.996100902557373,1.7327489852905273,0.5086149573326111
214.225,214103,214,224500000,,"['FL_calf_joint', 'FL_hip_joint', 'FL_thigh_joint', 'FR_calf_joint', 'FR_hip_joint', 'FR_thigh_joint', 'RL_calf_joint', 'RL_hip_joint', 'RL_thigh_joint', 'RR_calf_joint', 'RR_hip_joint', 'RR_thigh_joint']",-1.5796137969347996,-0.004206869071418318,0.8253264780700889,-1.5705715738647381,0.016785695239757814,0.8203557186610686,-1.5934380033803848,-0.0012424169187701395,0.769517324536765,-1.5864701761569608,0.017145382423392697,0.7686593905996544,0.798842125503726,-0.026468956731937804,-0.4617907216535183,0.8116602030856936,-0.033024818155982634,-0.4193690931361918,0.9396645452601121,0.03904588961347427,-0.511459665502216,0.8731402021703958,0.032907916573384856,-0.4283804954496506,4.363340377807617,-1.4755538702011108,0.04257013648748398,4.137678623199463,1.5233981609344482,-0.017484072595834732,5.243016242980957,-1.9074705839157104,0.6155171394348145,4.996100902557373,1.7327489852905273,0.5086149573326111
214.2325,214104,214,225500000,,"['FL_calf_joint', 'FL_hip_joint', 'FL_thigh_joint', 'FR_calf_joint', 'FR_hip_joint', 'FR_thigh_joint', 'RL_calf_joint', 'RL_hip_joint', 'RL_thigh_joint', 'RR_calf_joint', 'RR_hip_joint', 'RR_thigh_joint']",-1.5796360009407437,-0.004236847890262574,0.8253147682334969,-1.5705491696598788,0.01675583280094628,0.8203683647786697,-1.593419428090539,-0.001206407547140742,0.7694834219134412,-1.5864881238597017,0.017181402094248455,0.7686938715864766,0.7989996541539928,-0.025961569574131156,-0.46162873360727935,0.8114849784343348,-0.032516261454700844,-0.419559547663479,0.9394510762610331,0.03882876318697913,-0.5110968201093568,0.8733932522040198,0.03269367886380513,-0.42880618154359096,4.363340377807617,-1.4755538702011108,0.04257013648748398,4.137678623199463,1.5233981609344482,-0.017484072595834732,5.243016242980957,-1.9074705839157104,0.6155171394348145,4.996100902557373,1.7327489852905273,0.5086149573326111
214.2325,214105,214,226500000,,"['FL_calf_joint', 'FL_hip_joint', 'FL_thigh_joint', 'FR_calf_joint', 'FR_hip_joint', 'FR_thigh_joint', 'RL_calf_joint', 'RL_hip_joint', 'RL_thigh_joint', 'RR_calf_joint', 'RR_hip_joint', 'RR_thigh_joint']",-1.5796579416303005,-0.004266256723048478,0.8253032093493964,-1.5705270441296975,0.016726541375891912,0.8203808290638497,-1.5934011520620235,-0.0011707086498562447,0.7694499733570472,-1.5865057433134981,0.017217113615275892,0.7687278407796896,0.7993021147691719,-0.02534623225318439,-0.46145767125182585,0.8111688736808195,-0.03190057623106765,-0.419763302854263,0.9391444623461594,0.0384609111165566,-0.5105950007536205,0.8737246434650174,0.032328647063686204,-0.42936427855126563,4.372199535369873,-1.4549278020858765,0.057894181460142136,4.128782749176025,1.5440587997436523,-0.03286409750580788,5.2510576248168945,-1.9285284280776978,0.6313034296035767,4.987948894500732,1.7115662097930908,0.4928371012210846
214.2325,214106,214,227500000,,"['FL_calf_joint', 'FL_hip_joint', 'FL_thigh_joint', 'FR_calf_joint', 'FR_hip_joint', 'FR_thigh_joint', 'RL_calf_joint', 'RL_hip_joint', 'RL_thigh_joint', 'RR_calf_joint', 'RR_hip_joint', 'RR_thigh_joint']",-1.5796796289737416,-0.0042950477017962285,0.825291845818704,-1.5705051835872386,0.016697869375876806,0.8203930720390122,-1.5933832239519994,-0.0011353247198462313,0.7694170418085475,-1.5865230327534046,0.01725251543656725,0.7687612667265817,0.7995686181374655,-0.02461206525217161,-0.4612437743054043,0.8109081250647616,-0.03116440957760301,-0.4199907263304335,0.9386351826858679,0.038181102793863886,-0.5099642704351878,0.874062990768533,0.03206400870492513,-0.42991894114868,4.3768792152404785,-1.4436360597610474,0.06645961850881577,4.124032497406006,1.5553282499313354,-0.04132205992937088,5.2510576248168945,-1.9401013851165771,0.639909029006958,4.987948894500732,1.7115662097930908,0.4928371012210846
214.2325,214107,214,228500000,,"['FL_calf_joint', 'FL_hip_joint', 'FL_thigh_joint', 'FR_calf_joint', 'FR_hip_joint', 'FR_thigh_joint', 'RL_calf_joint', 'RL_hip_joint', 'RL_thigh_joint', 'RR_calf_joint', 'RR_hip_joint', 'RR_thigh_joint']",-1.5797010511216283,-0.004323130249523466,0.8252807138495974,-1.5704835911792774,0.01666990542760871,0.8204050688756785,-1.5933656551531028,-0.001100270099962053,0.7693846770681452,-1.5865399603012587,0.017287584537901246,0.7687941053021836,0.7998599596233795,-0.023973368832451044,-0.4610193374730832,0.8105934583162614,-0.03052754397789511,-0.4202415459237249,0.938434779476071,0.03775316037327312,-0.5094712030316827,0.8743956596146149,0.031625581724014314,-0.43052328654728556,4.3768792152404785,-1.4436360597610474,0.06645961850881577,4.124032497406006,1.5553282499313354,-0.04132205992937088,5.255707263946533,-1.9401013851165771,0.639909029006958,4.983461856842041,1.6999444961547852,0.4844106137752533
214.2325,214108,214,229500000,,"['FL_calf_joint', 'FL_hip_joint', 'FL_thigh_joint', 'FR_calf_joint', 'FR_hip_joint', 'FR_thigh_joint', 'RL_calf_joint', 'RL_hip_joint', 'RL_thigh_joint', 'RR_calf_joint', 'RR_hip_joint', 'RR_thigh_joint']",-1.5797221869480436,-0.004350572383676088,0.8252698018569458,-1.570462305394102,0.016642582862942845,0.8204168162985859,-1.5933483471915135,-0.0010656473720898063,0.7693528286208489,-1.5865565258009169,0.01732222526140692,0.7688263323072047,0.8001655769688216,-0.023298388509423396,-0.4607941407332542,0.8102620971534668,-0.029852712299535105,-0.4204934019476434,0.938148088875564,0.037282154925898904,-0.5089219954010129,0.8747599924726375,0.031156855729826474,-0.43115549100732536,4.3810954093933105,-1.4329038858413696,0.07454515993595123,4.119747161865234,1.5660370588302612,-0.04927317798137665,5.2599053382873535,-1.9508966207504272,0.6480100750923157,4.979452133178711,1.6891206502914429,0.4765051305294037
214.2325,214109,214,230500000,,"['FL_calf_joint', 'FL_hip_joint', 'FL_thigh_joint', 'FR_calf_joint', 'FR_hip_joint', 'FR_thigh_joint', 'RL_calf_joint', 'RL_hip_joint', 'RL_thigh_joint', 'RR_calf_joint', 'RR_hip_joint', 'RR_thigh_joint']",-1.5797430153238463,-0.004377325439761215,0.8252591316968214,-1.5704413514919136,0.01661594968539859,0.8204282944878711,-1.5933313936860927,-0.001031498300863909,0.7693215790141119,-1.5865726908985596,0.017356394109357076,0.7688578939155919,0.8004669408965888,-0.0225952057133009,-0.4605328988379421,0.8099310935086619,-0.029149582022129698,-0.42077925296649393,0.9378301757420798,0.03680054303852298,-0.5083246051211721,0.8751356473109246,0.030677395270341273,-0.43182565699769787,4.3810954093933105,-1.4329038858413696,0.07454515993595123,4.119747161865234,1.5660370588302612,-0.04927317798137665,5.2599053382873535,-1.9508966207504272,0.6480100750923157,4.979452133178711,1.6891206502914429,0.4765051305294037
214.2325,214110,214,231500000,,"['FL_calf_joint', 'FL_hip_joint', 'FL_thigh_joint', 'FR_calf_joint', 'FR_hip_joint', 'FR_thigh_joint', 'RL_calf_joint', 'RL_hip_joint', 'RL_thigh_joint', 'RR_calf_joint', 'RR_hip_joint', 'RR_thigh_joint']",-1.5797635186946022,-0.004403382526857236,0.8252487009904943,-1.5704207404715405,0.016590012483039374,0.8204395021550317,-1.5933148113538937,-0.0009978303567121927,0.7692909441396933,-1.5865884594917516,0.017390083382827548,0.7688887850916579,0.8007824329702671,-0.021888220305211967,-0.4602812487305595,0.8095917110227279,-0.0284429416007745,-0.42105870779569854,0.9374949094765119,0.03630527130806581,-0.5077190101664644,0.8755143966772729,0.030184011925698695,-0.43249624820981514,4.3810954093933105,-1.4329038858413696,0.07454515993595123,4.119747161865234,1.5660370588302612,-0.04927317798137665,5.2599053382873535,-1.9508966207504272,0.6480100750923157,4.979452133178711,1.6891206502914429,0.4765051305294037
214.2325,214111,214,232500000,,"['FL_calf_joint', 'FL_hip_joint', 'FL_thigh_joint', 'FR_calf_joint', 'FR_hip_joint', 'FR_thigh_joint', 'RL_calf_joint', 'RL_hip_joint', 'RL_thigh_joint', 'RR_calf_joint', 'RR_hip_joint', 'RR_thigh_joint']",-1.5797836984330886,-0.004428651734358802,0.8252385135821321,-1.5704003901684827,0.01656486187654238,0.8204503955933529,-1.5932986272813183,-0.0009645645744793541,0.7692609416894785,-1.5866038074505542,0.017423371540230548,0.76891899437818,0.8010659244749889,-0.0208053292268923,-0.4599953313614529,0.8096021419346693,-0.027364985716144118,-0.42152907296121034,0.9370503601017235,0.03613722596807429,-0.5070388077326218,0.8759971155473028,0.030016311899748897,-0.4332208966169916,4.388907432556152,-1.4141674041748047,0.08824774622917175,4.119747161865234,1.5846054553985596,-0.06305989623069763,5.2599053382873535,-1.9508966207504272,0.6480100750923157,4.979452133178711,1.6891206502914429,0.4765051305294037
214.23375,214112,214,233500000,,"['FL_calf_joint', 'FL_hip_joint', 'FL_thigh_joint', 'FR_calf_joint', 'FR_hip_joint', 'FR_thigh_joint', 'RL_calf_joint', 'RL_hip_joint', 'RL_thigh_joint', 'RR_calf_joint', 'RR_hip_joint', 'RR_thigh_joint']",-1.5798035215750592,-0.004452911475385513,0.8252286115658425,-1.570380355774308,0.016540720190176827,0.8204609541335897,-1.5932829564001318,-0.000931641146253881,0.7692316931755228,-1.586618625260273,0.01745631806203285,0.7689484129808468,0.8014795389478893,-0.020036840855347376,-0.459717986304427,0.8090222864691188,-0.026594638526108567,-0.42175633040119376,0.9366206635968877,0.03549700528938909,-0.5063034444307444,0.8764472773348079,0.02937817324406045,-0.43400839565621585,4.388907432556152,-1.4141674041748047,0.08824774622917175,4.11184024810791,1.5846054553985596,-0.06305989623069763,5.266990661621094,-1.969954013824463,0.6620190143585205,4.9723639488220215,1.6700445413589478,0.4626779854297638
214.235,214113,214,234500000,,"['FL_calf_joint', 'FL_hip_joint', 'FL_thigh_joint', 'FR_calf_joint', 'FR_hip_joint', 'FR_thigh_joint', 'RL_calf_joint', 'RL_hip_joint', 'RL_thigh_joint', 'RR_calf_joint', 'RR_hip_joint', 'RR_thigh_joint']",-1.579822956424437,-0.004476299267092365,0.8252189987380287,-1.570360779626088,0.016517449241803206,0.8204712249059005,-1.5932677416551808,-0.0008992449542315484,0.7692031895917628,-1.5866329650082203,0.01748873788312899,0.7689770381998606,0.801857325674888,-0.019057647197926936,-0.4594037755279596,0.8086782185361204,-0.02561708994676405,-0.42212153580475414,0.9361404814271774,0.035006700728834605,-0.5055233167926795,0.8769543728680465,0.028888660106739635,-0.434835008644519,4.3926005363464355,-1.404821515083313,0.09534172713756561,4.108125686645508,1.5939276218414307,-0.06996934860944748,5.270676612854004,-1.979417085647583,0.6691438555717468,4.968876838684082,1.6605463027954102,0.45581209659576416
214.24225,214114,214,235500000,,"['FL_calf_joint', 'FL_hip_joint', 'FL_thigh_joint', 'FR_calf_joint', 'FR_hip_joint', 'FR_thigh_joint', 'RL_calf_joint', 'RL_hip_joint', 'RL_thigh_joint', 'RR_calf_joint', 'RR_hip_joint', 'RR_thigh_joint']",-1.5798419917121191,-0.004498782199040541,0.8252096987292266,-1.5703416629180165,0.0164950821189791,0.8204811797106251,-1.5932530030381002,-0.0008674247449267369,0.7691754719737132,-1.5866468004819558,0.01752058218772934,0.7690048272279846,0.8022768104143609,-0.018219816421057064,-0.45909300233186273,0.8081479612004057,-0.02478119284945928,-0.42241205321136494,0.935710847444716,0.034343205145095944,-0.5047510190820658,0.8774133030702396,0.028226212639109127,-0.43566239789918004,4.3926005363464355,-1.404821515083313,0.09534172713756561,4.108125686645508,1.5939276218414307,-0.06996934860944748,5.270676612854004,-1.979417085647583,0.6691438555717468,4.968876838684082,1.6605463027954102,0.45581209659576416
214.24225,214115,214,236500000,,"['FL_calf_joint', 'FL_hip_joint', 'FL_thigh_joint', 'FR_calf_joint', 'FR_hip_joint', 'FR_thigh_joint', 'RL_calf_joint', 'RL_hip_joint', 'RL_thigh_joint', 'RR_calf_joint', 'RR_hip_joint', 'RR_thigh_joint']",-1.5798605936543297,-0.004520441000683384,0.825200694200042,-1.5703230251816827,0.016473537659116744,0.8204908235735475,-1.5932387130908774,-0.0008362698529662538,0.769148527392228,-1.5866601630046087,0.01755176158987748,0.7690317908372002,0.8027023523891204,-0.017386290850814064,-0.4587871299119758,0.8076615218717647,-0.023949488506259633,-0.4227250834473969,0.9352791858915204,0.03366536015487932,-0.5039784708302343,0.8778716318957602,0.027549200046545406,-0.43648846090520005,4.3926005363464355,-1.404821515083313,0.09534172713756561,4.108125686645508,1.5939276218414307,-0.06996934860944748,5.270676612854004,-1.979417085647583,0.6691438555717468,4.968876838684082,1.6605463027954102,0.45581209659576416
214.24225,214116,214,237500000,,"['FL_calf_joint', 'FL_hip_joint', 'FL_thigh_joint', 'FR_calf_joint', 'FR_hip_joint', 'FR_thigh_joint', 'RL_calf_joint', 'RL_hip_joint', 'RL_thigh_joint', 'RR_calf_joint', 'RR_hip_joint', 'RR_thigh_joint']",-1.5798787296846464,-0.004541259852193669,0.8251919782118566,-1.5703048666669845,0.01645283107726847,0.8205001454541723,-1.5932248850816002,-0.0008058145369735925,0.7691223748719507,-1.5866730395836224,0.017582241608110394,0.7690579104090851,0.803193203770646,-0.016514538649873626,-0.4584853554596844,0.8071195668510627,-0.02308016497167422,-0.42303972447683397,0.9348240903182552,0.032916332464029766,-0.503160405819098,0.8783555115548295,0.026800749667151173,-0.4373606995689335,4.399186134338379,-1.3895759582519531,0.10676919668912888,4.101321697235107,1.6089282035827637,-0.08135275542736053,5.27703857421875,-1.9949312210083008,0.6811403036117554,4.962801456451416,1.6449594497680664,0.4442419111728668
214.24225,214117,214,238500000,,"['FL_calf_joint', 'FL_hip_joint', 'FL_thigh_joint', 'FR_calf_joint', 'FR_hip_joint', 'FR_thigh_joint', 'RL_calf_joint', 'RL_hip_joint', 'RL_thigh_joint', 'RR_calf_joint', 'RR_hip_joint', 'RR_thigh_joint']",-1.5798963463634643,-0.004561200560240231,0.8251835705076864,-1.5702872432344819,0.016433000430561506,0.8205091266867806,-1.5932115414839485,-0.0007761322821417949,0.7690970751293742,-1.5866854085315913,0.017611948531732757,0.7690831259110507,0.8037068314268996,-0.01562612199623328,-0.4581639459278714,0.8065629340062371,-0.022194282922572656,-0.42337857769716625,0.9343641098918832,0.03213056670645114,-0.5023085346330312,0.8788419030101624,0.026015312293607,-0.4382653809773593,4.399186134338379,-1.3895759582519531,0.10676919668912888,4.101321697235107,1.6089282035827637,-0.08135275542736053,5.27703857421875,-1.9949312210083008,0.6811403036117554,4.962801456451416,1.6449594497680664,0.4442419111728668
214.24225,214118,214,239500000,,"['FL_calf_joint', 'FL_hip_joint', 'FL_thigh_joint', 'FR_calf_joint', 'FR_hip_joint', 'FR_thigh_joint', 'RL_calf_joint', 'RL_hip_joint', 'RL_thigh_joint', 'RR_calf_joint', 'RR_hip_joint', 'RR_thigh_joint']",-1.5799134631410099,-0.004580262979552607,0.825175484488355,-1.5702701272235888,0.016414045689211676,0.8205177493285714,-1.5931986912852283,-0.0007472312819469806,0.7690726358249664,-1.5866972657963863,0.01764087387108404,0.7691074325000287,0.8042093004180788,-0.014738509950145022,-0.457838159510949,0.8060295154550259,-0.02130950128797313,-0.4237285130696286,0.933897373788126,0.031338501677091415,-0.5014543626370983,0.8793316409760499,0.02522350972302256,-0.43917032278956225,4.399186134338379,-1.3895759582519531,0.10676919668912888,4.101321697235107,1.6089282035827637,-0.08135275542736053,5.27703857421875,-1.9949312210083008,0.6811403036117554,4.962801456451416,1.6449594497680664,0.4442419111728668
214.24225,214119,214,240500000,,"['FL_calf_joint', 'FL_hip_joint', 'FL_thigh_joint', 'FR_calf_joint', 'FR_hip_joint', 'FR_thigh_joint', 'RL_calf_joint', 'RL_hip_joint', 'RL_thigh_joint', 'RR_calf_joint', 'RR_hip_joint', 'RR_thigh_joint']",-1.5799301026398767,-0.004598291411043398,0.8251677516911702,-1.5702534304558533,0.01639612150803771,0.8205259537348883,-1.5931863912583744,-0.0007190110181261034,0.7690491066170102,-1.5867085518236688,0.017669117571080584,0.7691307873661426,0.8046917044091966,-0.013686918451208854,-0.4574697022105096,0.8055799520301145,-0.020261534697936817,-0.42414778503530304,0.9333700128142295,0.03062742428780209,-0.5005360559558892,0.8798884089786047,0.024512196078668853,-0.4401338955100245,4.402215957641602,-1.3820343017578125,0.11259465664625168,4.098223686218262,1.616395115852356,-0.08693399280309677,5.2801384925842285,-2.0027496814727783,0.6869927048683167,4.9599761962890625,1.637146234512329,0.4386984705924988
214.24225,214120,214,241500000,,"['FL_calf_joint', 'FL_hip_joint', 'FL_thigh_joint', 'FR_calf_joint', 'FR_hip_joint', 'FR_thigh_joint', 'RL_calf_joint', 'RL_hip_joint', 'RL_thigh_joint', 'RR_calf_joint', 'RR_hip_joint', 'RR_thigh_joint']",-1.5799462184706479,-0.00461541936620069,0.8251603587191045,-1.570237335969276,0.016379095237498476,0.8205338217752391,-1.5931746072731237,-0.0006916308087516754,0.7690264815542127,-1.5867193031955096,0.017696520729070464,0.7691531918208891,0.8052096911910435,-0.0127764431006878,-0.45712181204186986,0.8049993124893513,-0.019354227757111948,-0.42450118581857227,0.9328824806315545,0.029777173038962698,-0.4996397498210665,0.8804001997992021,0.023661897794461553,-0.441079426599296,4.402215957641602,-1.3820343017578125,0.11259465664625168,4.098223686218262,1.616395115852356,-0.08693399280309677,5.2801384925842285,-2.0027496814727783,0.6869927048683167,4.9599761962890625,1.637146234512329,0.4386984705924988
214.251,214121,214,242500000,,"['FL_calf_joint', 'FL_hip_joint', 'FL_thigh_joint', 'FR_calf_joint', 'FR_hip_joint', 'FR_thigh_joint', 'RL_calf_joint', 'RL_hip_joint', 'RL_thigh_joint', 'RR_calf_joint', 'RR_hip_joint', 'RR_thigh_joint']",-1.5799618313315364,-0.0046315188760575055,0.8251533259728134,-1.5702217759312012,0.016363093849376398,0.8205413070170504,-1.5931633853734795,-0.0006650024035899094,0.7690047945376444,-1.5867294731124928,0.017723171050883835,0.7691746117764477,0.8056852030671954,-0.011686321551204078,-0.45672875365396615,0.8044688052482819,-0.01826801278107109,-0.42490375160490407,0.9323236375341903,0.029035931979795655,-0.4986835229924069,0.8809932280177541,0.0229198882597544,-0.44208932847005844,4.4053730964660645,-1.3736052513122559,0.11901257932186127,4.094966888427734,1.6247310638427734,-0.09308144450187683,5.283398151397705,-2.0112338066101074,0.6934202909469604,4.957069396972656,1.6286954879760742,0.432613343000412
214.251,214122,214,243500000,,"['FL_calf_joint', 'FL_hip_joint', 'FL_thigh_joint', 'FR_calf_joint', 'FR_hip_joint', 'FR_thigh_joint', 'RL_calf_joint', 'RL_hip_joint', 'RL_thigh_joint', 'RR_calf_joint', 'RR_hip_joint', 'RR_thigh_joint']",-1.5799769066826514,-0.00464663237185281,0.8251466585191167,-1.570206773191149,0.016348075004705365,0.8205483985339548,-1.5931527260225202,-0.0006392193935580437,0.7689840697944961,-1.586739059057368,0.01774897489753169,0.7691950228582458,0.8062136010399286,-0.010726596093378938,-0.4563527920460316,0.8038983512407878,-0.017311693715463573,-0.4252958618436963,0.9317986055297274,0.02814758399828274,-0.49773336678362595,0.8815473456980425,0.02203094145975683,-0.44308977505814023,4.4053730964660645,-1.3736052513122559,0.11901257932186127,4.094966888427734,1.6247310638427734,-0.09308144450187683,5.283398151397705,-2.0112338066101074,0.6934202909469604,4.957069396972656,1.6286954879760742,0.432613343000412
214.251,214123,214,244500000,,"['FL_calf_joint', 'FL_hip_joint', 'FL_thigh_joint', 'FR_calf_joint', 'FR_hip_joint', 'FR_thigh_joint', 'RL_calf_joint', 'RL_hip_joint', 'RL_thigh_joint', 'RR_calf_joint', 'RR_hip_joint', 'RR_thigh_joint']",-1.5799914113681894,-0.004660735642379343,0.8251403477734609,-1.5701923371851834,0.016334061294712043,0.8205551020967174,-1.5931426392104653,-0.0006142821650234609,0.7689643228459095,-1.5867480713809399,0.017773931439686308,0.7692144308170814,0.8067693777583714,-0.009648574009645156,-0.45596637217904057,0.80333200864537,-0.01623266515433232,-0.4256940590666281,0.9312079201533006,0.02730682657727053,-0.49672191049273906,0.8821409411364892,0.02119003962005491,-0.4441158518167691,4.4101715087890625,-1.3621569871902466,0.12761862576007843,4.090062618255615,1.6361204385757446,-0.10153644531965256,5.287919044494629,-2.0229921340942383,0.7023643255233765,4.95278263092041,1.6168943643569946,0.42405232787132263
214.251,214124,214,245500000,,"['FL_calf_joint', 'FL_hip_joint', 'FL_thigh_joint', 'FR_calf_joint', 'FR_hip_joint', 'FR_thigh_joint', 'RL_calf_joint', 'RL_hip_joint', 'RL_thigh_joint', 'RR_calf_joint', 'RR_hip_joint', 'RR_thigh_joint']",-1.5800053079964695,-0.004673797370185362,0.8251344107694276,-1.5701785181573493,0.016321086086795944,0.8205614090752027,-1.5931331572030984,-0.0005902511102791053,0.7689456083928397,-1.5867564813593371,0.017797980794654222,0.7692327846186711,0.8073646032828949,-0.00864442537651276,-0.45557908920341184,0.8026993192284191,-0.01523714719514839,-0.4260994123372459,0.9306492000044444,0.026349365840446764,-0.4957060861915631,0.8827168301986987,0.020230820321477154,-0.4451740819643224,4.4101715087890625,-1.3621569871902466,0.12761862576007843,4.090062618255615,1.6361204385757446,-0.10153644531965256,5.287919044494629,-2.0229921340942383,0.7023643255233765,4.95278263092041,1.6168943643569946,0.42405232787132263
214.251,214125,214,246500000,,"['FL_calf_joint', 'FL_hip_joint', 'FL_thigh_joint', 'FR_calf_joint', 'FR_hip_joint', 'FR_thigh_joint', 'RL_calf_joint', 'RL_hip_joint', 'RL_thigh_joint', 'RR_calf_joint', 'RR_hip_joint', 'RR_thigh_joint']",-1.5800185917790501,-0.004685861837917749,0.8251288461555628,-1.5701653266512352,0.016309103034906514,0.8205673136059888,-1.5931242531606538,-0.0005671835103946421,0.7689279138323775,-1.586764308752,0.01782106499556413,0.7692500831830156,0.8079617896103507,-0.0076420927087617165,-0.4551940319575055,0.8020724498556997,-0.014238870342374962,-0.42650615154185223,0.9300894741531409,0.025376764536119083,-0.49469002793207767,0.8832893624582854,0.01925700082420162,-0.4462294802121042,4.4101715087890625,-1.3621569871902466,0.12761862576007843,4.090062618255615,1.6361204385757446,-0.10153644531965256,5.287919044494629,-2.0229921340942383,0.7023643255233765,4.95278263092041,1.6168943643569946,0.42405232787132263
214.251,214126,214,247500000,,"['FL_calf_joint', 'FL_hip_joint', 'FL_thigh_joint', 'FR_calf_joint', 'FR_hip_joint', 'FR_thigh_joint', 'RL_calf_joint', 'RL_hip_joint', 'RL_thigh_joint', 'RR_calf_joint', 'RR_hip_joint', 'RR_thigh_joint']",-1.5800312725294163,-0.004696896992920863,0.825123661875514,-1.5701527554448376,0.016298143932120368,0.8205728091196729,-1.5931159385303113,-0.0005450647010691867,0.7689112483393332,-1.5867715406583982,0.017843199214048866,0.7692663169612741,0.808539512484101,-0.00657280073987275,-0.4547883489272416,0.8014585716452577,-0.013173873167085477,-0.4269292212414917,0.9295023187301903,0.024434784980231765,-0.49364910649695753,0.8838948565486902,0.018309853869942785,-0.4473117119832416,4.412405490875244,-1.3561314344406128,0.13224591314792633,4.0877509117126465,1.6420559883117676,-0.10590304434299469,5.2902679443359375,-2.0290911197662354,0.7069992423057556,4.950765132904053,1.610840916633606,0.41973623633384705
214.251,214127,214,248500000,,"['FL_calf_joint', 'FL_hip_joint', 'FL_thigh_joint', 'FR_calf_joint', 'FR_hip_joint', 'FR_thigh_joint', 'RL_calf_joint', 'RL_hip_joint', 'RL_thigh_joint', 'RR_calf_joint', 'RR_hip_joint', 'RR_thigh_joint']",-1.5800433471581425,-0.004706877925788611,0.8251188751915208,-1.5701408148628762,0.01628823301091309,0.8205778832262265,-1.593108231081871,-0.0005239133608307966,0.7688956402353258,-1.5867781488318662,0.01786436294780014,0.7692814533903238,0.8091337970867276,-0.00553832965369993,-0.4543780503430819,0.8008270517353451,-0.012142453039229933,-0.4273562756841977,0.9289225011853681,0.02343513202513694,-0.4925985231673461,0.884496451994996,0.017311959879199208,-0.4484046229613863,4.412405490875244,-1.3561314344406128,0.13224591314792633,4.0877509117126465,1.6420559883117676,-0.10590304434299469,5.2902679443359375,-2.0290911197662354,0.7069992423057556,4.950765132904053,1.610840916633606,0.41973623633384705
214.251,214128,214,249500000,,"['FL_calf_joint', 'FL_hip_joint', 'FL_thigh_joint', 'FR_calf_joint', 'FR_hip_joint', 'FR_thigh_joint', 'RL_calf_joint', 'RL_hip_joint', 'RL_thigh_joint', 'RR_calf_joint', 'RR_hip_joint', 'RR_thigh_joint']",-1.5800547888691328,-0.004715824279888814,0.8251144730959208,-1.5701295202535572,0.01627934961599209,0.8205825429004534,-1.593101122520884,-0.0005037548654485136,0.7688810870926348,-1.586784153049455,0.017884532097289352,0.7692955015068783,0.8097426847754765,-0.004496308035941254,-0.45397555994785393,0.8001956577261278,-0.011102739640385571,-0.42778123616119523,0.9283410007047702,0.022441710365255232,-0.4915467292587693,0.8850909033577894,0.01631673701658791,-0.4494918733534002,4.4128804206848145,-1.3555196523666382,0.1328825205564499,4.0877509117126465,1.6426950693130493,-0.10590304434299469,5.2902679443359375,-2.0290911197662354,0.7069992423057556,4.950765132904053,1.610840916633606,0.41973623633384705
214.251,214129,214,250500000,,"['FL_calf_joint', 'FL_hip_joint', 'FL_thigh_joint', 'FR_calf_joint', 'FR_hip_joint', 'FR_thigh_joint', 'RL_calf_joint', 'RL_hip_joint', 'RL_thigh_joint', 'RR_calf_joint', 'RR_hip_joint', 'RR_thigh_joint']",-1.5800655821725376,-0.004723734914921174,0.8251104492016701,-1.5701188742448071,0.01627149340854217,0.8205867895240324,-1.593094622737456,-0.00048459463542993575,0.7688675963610203,-1.5867895506958116,0.01790370079820569,0.7693084599296434,0.8103725706550031,-0.0034896870310085057,-0.45358263226230167,0.7995466282687183,-0.010096751276230598,-0.42819854930213785,0.9277512564102975,0.021408864505948085,-0.49048867755135916,0.8856842548803356,0.01528207170174804,-0.450580487963727,4.4128804206848145,-1.3555196523666382,0.1328825205564499,4.0872602462768555,1.6426950693130493,-0.10654012858867645,5.290499687194824,-2.0304129123687744,0.7077982425689697,4.950493335723877,1.6095584630966187,0.41896119713783264
214.259,214130,214,251500000,,"['FL_calf_joint', 'FL_hip_joint', 'FL_thigh_joint', 'FR_calf_joint', 'FR_hip_joint', 'FR_thigh_joint', 'RL_calf_joint', 'RL_hip_joint', 'RL_thigh_joint', 'RR_calf_joint', 'RR_hip_joint', 'RR_thigh_joint']",-1.5800757229182278,-0.004730656745464579,0.8251068012163891,-1.570108908737775,0.016264617575991736,0.8205906386490414,-1.5930887179973547,-0.00046648107722457866,0.768855160832552,-1.586794354621826,0.01792181966336237,0.7693203335236714,0.8110051234266433,-0.002504955019220172,-0.4531926101525655,0.7988818683010219,-0.009113592145938031,-0.42860709665564,0.927174895955182,0.02035497569790935,-0.4894387997203207,0.8862632408609894,0.014226649521525294,-0.45166126660390327,4.4128804206848145,-1.3555196523666382,0.1328825205564499,4.0872602462768555,1.6426950693130493,-0.10654012858867645,5.290499687194824,-2.0304129123687744,0.7077982425689697,4.950493335723877,1.6095584630966187,0.41896119713783264
214.259,214131,214,252500000,,"['FL_calf_joint', 'FL_hip_joint', 'FL_thigh_joint', 'FR_calf_joint', 'FR_hip_joint', 'FR_thigh_joint', 'RL_calf_joint', 'RL_hip_joint', 'RL_thigh_joint', 'RR_calf_joint', 'RR_hip_joint', 'RR_thigh_joint']",-1.5800852201652007,-0.004736554528105508,0.825103537044825,-1.5700996013689252,0.016258753308035168,0.8205940807955576,-1.5930834107249954,-0.0004493842081512156,0.7688437847558101,-1.5867985629373957,0.017938916797073823,0.7693311241288567,0.811647254091007,-0.0013090995897414841,-0.45279810693389244,0.7982553922374539,-0.007983594752104941,-0.42903156735344533,0.9265603890741355,0.019441867246498167,-0.4883592806833884,0.8868652943395723,0.01331068341038235,-0.4527470972301965,4.418213844299316,-1.3412352800369263,0.14354613423347473,4.0872602462768555,1.6426950693130493,-0.10654012858867645,5.290499687194824,-2.0304129123687744,0.7077982425689697,4.950493335723877,1.6095584630966187,0.41896119713783264
214.259,214132,214,253500000,,"['FL_calf_joint', 'FL_hip_joint', 'FL_thigh_joint', 'FR_calf_joint', 'FR_hip_joint', 'FR_thigh_joint', 'RL_calf_joint', 'RL_hip_joint', 'RL_thigh_joint', 'RR_calf_joint', 'RR_hip_joint', 'RR_thigh_joint']",-1.58009407797543,-0.0047412867511011925,0.8251007051956964,-1.570090953761846,0.016254045789123595,0.8205970840477486,-1.593078773254863,-0.00043328237026507566,0.7688335528113823,-1.58680209423011,0.01795501504107122,0.7693407557593686,0.8123792120689007,-0.0002134595392695544,-0.4524201115231009,0.7975391313485196,-0.006931371909371229,-0.42948067065235224,0.9259569686570178,0.01830878164975348,-0.48725163465707855,0.8875018213079606,0.012190052817997017,-0.4539280632080178,4.418213844299316,-1.3412352800369263,0.14354613423347473,4.081700801849365,1.656737208366394,-0.11678794026374817,5.29608678817749,-2.0442709922790527,0.7185576558113098,4.945593357086182,1.5957183837890625,0.4088801145553589
214.259,214133,214,254500000,,"['FL_calf_joint', 'FL_hip_joint', 'FL_thigh_joint', 'FR_calf_joint', 'FR_hip_joint', 'FR_thigh_joint', 'RL_calf_joint', 'RL_hip_joint', 'RL_thigh_joint', 'RR_calf_joint', 'RR_hip_joint', 'RR_thigh_joint']",-1.5801021934686852,-0.004745209869841283,0.8250982550566857,-1.5700830846999523,0.01625014480479159,0.8205996899394119,-1.593074702657539,-0.0004185359378547915,0.7688244164573943,-1.5868050442971646,0.0179697560167158,0.7693492555794261,0.813005678189741,3.1715470299577796e-05,-0.45195312508511276,0.7966963759772641,-0.006520607599901924,-0.42982073811174903,0.9254789547755039,0.016534422873630578,-0.4861776187423517,0.8880012133301253,0.010410629503868478,-0.4549978758109197,4.419419765472412,-1.3383445739746094,0.1459929645061493,4.0804877281188965,1.65949547290802,-0.1189369186758995,5.297215461730957,-2.0477724075317383,0.7211036086082458,4.944718360900879,1.5922147035598755,0.40668076276779175
214.259,214134,214,255500000,,"['FL_calf_joint', 'FL_hip_joint', 'FL_thigh_joint', 'FR_calf_joint', 'FR_hip_joint', 'FR_thigh_joint', 'RL_calf_joint', 'RL_hip_joint', 'RL_thigh_joint', 'RR_calf_joint', 'RR_hip_joint', 'RR_thigh_joint']",-1.5801094482135913,-0.004748723903888141,0.8250961223303772,-1.5700761258942793,0.016246652395478733,0.8206019720840985,-1.5930710956821326,-0.0004055519421068965,0.7688163238540104,-1.5868075595920916,0.017982733219169766,0.7693567009761964,0.8138311792950648,0.000410395148320778,-0.451614572305579,0.7957951057998105,-0.006134432448689477,-0.43015000264709896,0.9250368829735278,0.014741670352978648,-0.4851407244479216,0.8884193007206052,0.008620034896465172,-0.4560448870490205,4.419419765472412,-1.3383445739746094,0.1459929645061493,4.0804877281188965,1.65949547290802,-0.1189369186758995,5.297215461730957,-2.0477724075317383,0.7211036086082458,4.944718360900879,1.5922147035598755,0.40668076276779175
