Time,header.seq,header.stamp.secs,header.stamp.nsecs,header.frame_id,orientation.x,orientation.y,orientation.z,orientation.w,orientation_covariance_0,orientation_covariance_1,orientation_covariance_2,orientation_covariance_3,orientation_covariance_4,orientation_covariance_5,orientation_covariance_6,orientation_covariance_7,orientation_covariance_8,angular_velocity.x,angular_velocity.y,angular_velocity.z,angular_velocity_covariance_0,angular_velocity_covariance_1,angular_velocity_covariance_2,angular_velocity_covariance_3,angular_velocity_covariance_4,angular_velocity_covariance_5,angular_velocity_covariance_6,angular_velocity_covariance_7,angular_velocity_covariance_8,linear_acceleration.x,linear_acceleration.y,linear_acceleration.z,linear_acceleration_covariance_0,linear_acceleration_covariance_1,linear_acceleration_covariance_2,linear_acceleration_covariance_3,linear_acceleration_covariance_4,linear_acceleration_covariance_5,linear_acceleration_covariance_6,linear_acceleration_covariance_7,linear_acceleration_covariance_8
214.20425,212694,214,174000000,imu_link,-0.0045163071407581055,-0.0031387503905399862,0.0021776133256456573,0.9999825044549532,0.0,0.0,0.0,0.0,0.0,0.0,0.0,0.0,0.0,0.003407249050776508,-0.0009371507524646419,0.02197589656842082,0.0,0.0,0.0,0.0,0.0,0.0,0.0,0.0,0.0,0.06399516295082323,-0.07977614468139593,9.809067306161815,0.0,0.0,0.0,0.0,0.0,0.0,0.0,0.0,0.0
214.20425,212695,214,175000000,imu_link,-0.004514839689735937,-0.003138930591311019,0.002189408484344628,0.999982484760512,0.0,0.0,0.0,0.0,0.0,0.0,0.0,0.0,0.0,0.0036468571630739253,-0.0009498281753551709,0.023761219381317564,0.0,0.0,0.0,0.0,0.0,0.0,0.0,0.0,0.0,0.06403882495123292,-0.08008960671846686,9.809154299653477,0.0,0.0,0.0,0.0,0.0,0.0,0.0,0.0,0.0
214.20425,212696,214,176000000,imu_link,-0.004512850402089666,-0.0031391563703000837,0.0022054000152728188,0.9999824578907892,0.0,0.0,0.0,0.0,0.0,0.0,0.0,0.0,0.0,0.0038724897185538273,-0.0009590000359345765,0.025534887979612272,0.0,0.0,0.0,0.0,0.0,0.0,0.0,0.0,0.0,0.06377973082883509,-0.08017615133509204,9.80921197399433,0.0,0.0,0.0,0.0,0.0,0.0,0.0,0.0,0.0
214.20425,212697,214,177000000,imu_link,-0.004511606412498624,-0.0031392912319298987,0.0022156528425055872,0.9999824404161413,0.0,0.0,0.0,0.0,0.0,0.0,0.0,0.0,0.0,0.0040396837867497535,-0.00096517813402378,0.027715901569165185,0.0,0.0,0.0,0.0,0.0,0.0,0.0,0.0,0.0,0.06362159556422045,-0.08087124231667264,9.809794986762437,0.0,0.0,0.0,0.0,0.0,0.0,0.0,0.0,0.0
214.20425,212698,214,178000000,imu_link,-0.004509903202867413,-0.0031394668589694217,0.0022300706254270524,0.9999824154983666,0.0,0.0,0.0,0.0,0.0,0.0,0.0,0.0,0.0,0.004119703228022007,-0.000963948327447554,0.028996976908390263,0.0,0.0,0.0,0.0,0.0,0.0,0.0,0.0,0.0,0.06341979184331964,-0.08069157049573925,9.810461090418269,0.0,0.0,0.0,0.0,0.0,0.0,0.0,0.0,0.0
214.20425,212699,214,179000000,imu_link,-0.004508144965609336,-0.003139640313926745,0.0022453432275628066,0.9999823887056505,0.0,0.0,0.0,0.0,0.0,0.0,0.0,0.0,0.0,0.004268234894941662,-0.0009704939069642193,0.0311342134849943,0.0,0.0,0.0,0.0,0.0,0.0,0.0,0.0,0.0,0.06350649499461768,-0.08078307376042351,9.809674648093,0.0,0.0,0.0,0.0,0.0,0.0,0.0,0.0,0.0
214.20425,212700,214,180000000,imu_link,-0.004506352343704594,-0.003139810880442876,0.0022614510651524193,0.999982359952049,0.0,0.0,0.0,0.0,0.0,0.0,0.0,0.0,0.0,0.004298935038478262,-0.0009689327142376408,0.032765014595157266,0.0,0.0,0.0,0.0,0.0,0.0,0.0,0.0,0.0,0.06315753982029787,-0.08125784170249414,9.810507871480022,0.0,0.0,0.0,0.0,0.0,0.0,0.0,0.0,0.0
214.20425,212701,214,181000000,imu_link,-0.004504554917354573,-0.0031399792319938857,0.002278361934593814,0.9999823291350273,0.0,0.0,0.0,0.0,0.0,0.0,0.0,0.0,0.0,0.004315110524133591,-0.0009732172226768548,0.033970117604663404,0.0,0.0,0.0,0.0,0.0,0.0,0.0,0.0,0.0,0.0631550523735293,-0.08154706446780705,9.80967320947972,0.0,0.0,0.0,0.0,0.0,0.0,0.0,0.0,0.0
214.20425,212702,214,182000000,imu_link,-0.004502751785628156,-0.003140146917095076,0.0022960741095781985,0.9999822962169779,0.0,0.0,0.0,0.0,0.0,0.0,0.0,0.0,0.0,0.004335116230942779,-0.000979020129881852,0.035577562436216945,0.0,0.0,0.0,0.0,0.0,0.0,0.0,0.0,0.0,0.06315176985980935,-0.08150028033062111,9.809667008035763,0.0,0.0,0.0,0.0,0.0,0.0,0.0,0.0,0.0
214.20425,212703,214,183000000,imu_link,-0.0045009641400569214,-0.0031403137259282668,0.0023145593156135426,0.9999822611260099,0.0,0.0,0.0,0.0,0.0,0.0,0.0,0.0,0.0,0.004298913045307521,-0.0009837500560902004,0.037109489463221956,0.0,0.0,0.0,0.0,0.0,0.0,0.0,0.0,0.0,0.06283787530163286,-0.08205391716472651,9.809750439975238,0.0,0.0,0.0,0.0,0.0,0.0,0.0,0.0,0.0
214.20425,212704,214,184000000,imu_link,-0.0044991977011001475,-0.0031404796233611893,0.002333810845868358,0.9999822238093622,0.0,0.0,0.0,0.0,0.0,0.0,0.0,0.0,0.0,0.004252126305213697,-0.0009897608274803931,0.03902574490606056,0.0,0.0,0.0,0.0,0.0,0.0,0.0,0.0,0.0,0.06284366636289468,-0.08198675275736565,9.809742958050192,0.0,0.0,0.0,0.0,0.0,0.0,0.0,0.0,0.0
214.20425,212705,214,185000000,imu_link,-0.0044974851739511285,-0.003140647175097783,0.0023538217991005525,0.9999821840839814,0.0,0.0,0.0,0.0,0.0,0.0,0.0,0.0,0.0,0.004100075138167749,-0.0010030307754880677,0.040166103862249926,0.0,0.0,0.0,0.0,0.0,0.0,0.0,0.0,0.0,0.06374366911304001,-0.0837008682684022,9.809832118858138,0.0,0.0,0.0,0.0,0.0,0.0,0.0,0.0,0.0
214.20425,212706,214,186000000,imu_link,-0.004495853773314571,-0.003140815933428685,0.002374536233034312,0.9999821419164441,0.0,0.0,0.0,0.0,0.0,0.0,0.0,0.0,0.0,0.003991528388218576,-0.001006277192980501,0.041550496762876726,0.0,0.0,0.0,0.0,0.0,0.0,0.0,0.0,0.0,0.062391524540906976,-0.08290989376447656,9.810008453210713,0.0,0.0,0.0,0.0,0.0,0.0,0.0,0.0,0.0
214.20425,212707,214,187000000,imu_link,-0.00449428052873951,-0.003140983152622963,0.0023959433465850833,0.9999820974011704,0.0,0.0,0.0,0.0,0.0,0.0,0.0,0.0,0.0,0.0038522734935113163,-0.0010097568346306154,0.0432830897209512,0.0,0.0,0.0,0.0,0.0,0.0,0.0,0.0,0.0,0.06241408300192155,-0.08283789076927212,9.809896703453255,0.0,0.0,0.0,0.0,0.0,0.0,0.0,0.0,0.0
214.20425,212708,214,188000000,imu_link,-0.004492795417028689,-0.0031411488793776626,0.002418033187627946,0.9999820503831867,0.0,0.0,0.0,0.0,0.0,0.0,0.0,0.0,0.0,0.003689510614578121,-0.0010119144408818706,0.04429548564372831,0.0,0.0,0.0,0.0,0.0,0.0,0.0,0.0,0.0,0.062303186806975316,-0.08409213959455414,9.810144317988401,0.0,0.0,0.0,0.0,0.0,0.0,0.0,0.0,0.0
214.20425,212709,214,189000000,imu_link,-0.004491387811371413,-0.003141312831448407,0.0024407723720788737,0.9999820009477425,0.0,0.0,0.0,0.0,0.0,0.0,0.0,0.0,0.0,0.0035213478262931005,-0.001013815256971352,0.04591416530082769,0.0,0.0,0.0,0.0,0.0,0.0,0.0,0.0,0.0,0.0621546638398356,-0.08332035171340493,9.80990499791273,0.0,0.0,0.0,0.0,0.0,0.0,0.0,0.0,0.0
214.20425,212710,214,190000000,imu_link,-0.0044900634453454245,-0.003141476206368838,0.0024641580487501347,0.9999819490283876,0.0,0.0,0.0,0.0,0.0,0.0,0.0,0.0,0.0,0.003422043541181155,-0.0010151663442951153,0.0468864548683305,0.0,0.0,0.0,0.0,0.0,0.0,0.0,0.0,0.0,0.0621594745459893,-0.08326809903555672,9.80992225250957,0.0,0.0,0.0,0.0,0.0,0.0,0.0,0.0,0.0
214.20425,212711,214,191000000,imu_link,-0.004488860244631425,-0.00314164138201236,0.0024881426898640258,0.9999818945206388,0.0,0.0,0.0,0.0,0.0,0.0,0.0,0.0,0.0,0.003148696422936009,-0.0010255230403531414,0.048064698852802984,0.0,0.0,0.0,0.0,0.0,0.0,0.0,0.0,0.0,0.0625008328185152,-0.0851576497948267,9.810192328107796,0.0,0.0,0.0,0.0,0.0,0.0,0.0,0.0,0.0
214.20425,212712,214,192000000,imu_link,-0.004487741377151417,-0.003141804071014144,0.0025127038059438852,0.9999818376171113,0.0,0.0,0.0,0.0,0.0,0.0,0.0,0.0,0.0,0.002984354245789475,-0.0010253265523042926,0.04921839054013687,0.0,0.0,0.0,0.0,0.0,0.0,0.0,0.0,0.0,0.06177634951420958,-0.08401872661754392,9.810006849752604,0.0,0.0,0.0,0.0,0.0,0.0,0.0,0.0,0.0
214.20425,212713,214,193000000,imu_link,-0.00448670597736361,-0.003141964294904399,0.002537833026598361,0.9999817783006706,0.0,0.0,0.0,0.0,0.0,0.0,0.0,0.0,0.0,0.0027790225607626034,-0.0010245985328749875,0.050613791457156415,0.0,0.0,0.0,0.0,0.0,0.0,0.0,0.0,0.0,0.061680741443086315,-0.08418083579717622,9.81000364735752,0.0,0.0,0.0,0.0,0.0,0.0,0.0,0.0,0.0
214.20425,212714,214,194000000,imu_link,-0.004485755398029031,-0.0031421217705315187,0.0025634944209594972,0.9999817166156798,0.0,0.0,0.0,0.0,0.0,0.0,0.0,0.0,0.0,0.002654017672379667,-0.0010236347361936334,0.05140825510139979,0.0,0.0,0.0,0.0,0.0,0.0,0.0,0.0,0.0,0.06153266879421078,-0.08444547190840586,9.810001729097666,0.0,0.0,0.0,0.0,0.0,0.0,0.0,0.0,0.0
214.20425,212715,214,195000000,imu_link,-0.004484905649833856,-0.0031422779311688635,0.0025896819250401,0.9999816524608052,0.0,0.0,0.0,0.0,0.0,0.0,0.0,0.0,0.0,0.0023137007741781184,-0.001033039004202359,0.0527032385013111,0.0,0.0,0.0,0.0,0.0,0.0,0.0,0.0,0.0,0.06207657463336559,-0.08566195489269365,9.810253135293744,0.0,0.0,0.0,0.0,0.0,0.0,0.0,0.0,0.0
214.20425,212716,214,196000000,imu_link,-0.004484192263450799,-0.003142435652902216,0.0026163374028382843,0.9999815857787113,0.0,0.0,0.0,0.0,0.0,0.0,0.0,0.0,0.0,0.0021390969293903716,-0.0010305497932009558,0.0536033640830572,0.0,0.0,0.0,0.0,0.0,0.0,0.0,0.0,0.0,0.06116540143189646,-0.08521820739497794,9.809898203142726,0.0,0.0,0.0,0.0,0.0,0.0,0.0,0.0,0.0
214.20425,212717,214,197000000,imu_link,-0.004483568418883281,-0.0031425900089147056,0.0026434434589159422,0.9999815168036601,0.0,0.0,0.0,0.0,0.0,0.0,0.0,0.0,0.0,0.0020075050972405443,-0.0010282298485024231,0.05428007024319117,0.0,0.0,0.0,0.0,0.0,0.0,0.0,0.0,0.0,0.06115885954967242,-0.08519149600897888,9.810028030492445,0.0,0.0,0.0,0.0,0.0,0.0,0.0,0.0,0.0
214.20425,212718,214,198000000,imu_link,-0.004483032657702033,-0.003142741091941919,0.0026710012007121727,0.9999814455024678,0.0,0.0,0.0,0.0,0.0,0.0,0.0,0.0,0.0,0.001791139255929381,-0.0010244660675983246,0.05541074802671397,0.0,0.0,0.0,0.0,0.0,0.0,0.0,0.0,0.0,0.06116858630974851,-0.08514967875261605,9.810015657556566,0.0,0.0,0.0,0.0,0.0,0.0,0.0,0.0,0.0
214.20425,212719,214,199000000,imu_link,-0.0044825812102667634,-0.0031428887846728214,0.002698990228248921,0.9999813719102613,0.0,0.0,0.0,0.0,0.0,0.0,0.0,0.0,0.0,0.0016301493766341228,-0.0010205425316497823,0.05623170322365792,0.0,0.0,0.0,0.0,0.0,0.0,0.0,0.0,0.0,0.06097643979532084,-0.08550945520685783,9.809988967652668,0.0,0.0,0.0,0.0,0.0,0.0,0.0,0.0,0.0
214.20425,212720,214,200000000,imu_link,-0.004482209324476604,-0.0031430328157940443,0.0027273759049281547,0.999981296107564,0.0,0.0,0.0,0.0,0.0,0.0,0.0,0.0,0.0,0.00155173054702871,-0.00101844206208909,0.05662876605290949,0.0,0.0,0.0,0.0,0.0,0.0,0.0,0.0,0.0,0.060916639860776584,-0.08560987849853544,9.8099750869632,0.0,0.0,0.0,0.0,0.0,0.0,0.0,0.0,0.0
214.20425,212721,214,201000000,imu_link,-0.004481916025752137,-0.003143173194102499,0.0027561550031361356,0.9999812180739239,0.0,0.0,0.0,0.0,0.0,0.0,0.0,0.0,0.0,0.0013182160546051013,-0.0010117585961685203,0.057787954646862046,0.0,0.0,0.0,0.0,0.0,0.0,0.0,0.0,0.0,0.06086655436462659,-0.08571825982704238,9.809974486951582,0.0,0.0,0.0,0.0,0.0,0.0,0.0,0.0,0.0
214.20425,212722,214,202000000,imu_link,-0.004481704510577464,-0.003143309391891161,0.002785275434177497,0.999981137907862,0.0,0.0,0.0,0.0,0.0,0.0,0.0,0.0,0.0,0.0011945500330413274,-0.0010070483736583395,0.05828097243680376,0.0,0.0,0.0,0.0,0.0,0.0,0.0,0.0,0.0,0.06058652831961427,-0.08630220206962017,9.81000686232748,0.0,0.0,0.0,0.0,0.0,0.0,0.0,0.0,0.0
214.20425,212723,214,203000000,imu_link,-0.0044816294232750305,-0.0031434414218146902,0.002814696617638955,0.9999810554488974,0.0,0.0,0.0,0.0,0.0,0.0,0.0,0.0,0.0,0.0008457337533636789,-0.0009988164534439625,0.05898527672626665,0.0,0.0,0.0,0.0,0.0,0.0,0.0,0.0,0.0,0.060397580637317476,-0.08797021873554878,9.81019776654443,0.0,0.0,0.0,0.0,0.0,0.0,0.0,0.0,0.0
214.20425,212724,214,204000000,imu_link,-0.004481655804480393,-0.003143569083880747,0.0028443605654122684,0.9999809709927681,0.0,0.0,0.0,0.0,0.0,0.0,0.0,0.0,0.0,0.0007210505335372397,-0.0009932390768651758,0.05934789263942497,0.0,0.0,0.0,0.0,0.0,0.0,0.0,0.0,0.0,0.06024303940658437,-0.08711355096162499,9.810020818551338,0.0,0.0,0.0,0.0,0.0,0.0,0.0,0.0,0.0
214.207,212725,214,205000000,imu_link,-0.004481764643688017,-0.0031436922908494947,0.002874267019817759,0.9999808846040799,0.0,0.0,0.0,0.0,0.0,0.0,0.0,0.0,0.0,0.00051714213350432,-0.0009841708210100854,0.05995573988658213,0.0,0.0,0.0,0.0,0.0,0.0,0.0,0.0,0.0,0.06025466128379763,-0.08708787173031761,9.809994713609107,0.0,0.0,0.0,0.0,0.0,0.0,0.0,0.0,0.0
214.20725,212726,214,207000000,imu_link,-0.004482224526898663,-0.0031439255145137364,0.0029348132063983187,0.9999807059474165,0.0,0.0,0.0,0.0,0.0,0.0,0.0,0.0,0.0,0.00023837116523412093,-0.0009717814104786152,0.06081426462246785,0.0,0.0,0.0,0.0,0.0,0.0,0.0,0.0,0.0,0.06026943414361589,-0.08705443403966884,9.80997683696621,0.0,0.0,0.0,0.0,0.0,0.0,0.0,0.0,0.0
214.20825,212727,214,208000000,imu_link,-0.00448257830070921,-0.0031440354406867014,0.0029654086278685333,0.9999806137543844,0.0,0.0,0.0,0.0,0.0,0.0,0.0,0.0,0.0,6.926704147779392e-05,-0.0009638498559540785,0.06119561123263371,0.0,0.0,0.0,0.0,0.0,0.0,0.0,0.0,0.0,0.06005149049517246,-0.08764269994463089,9.809996067060258,0.0,0.0,0.0,0.0,0.0,0.0,0.0,0.0,0.0
214.21025,212728,214,209000000,imu_link,-0.004483141956739476,-0.0031441663628454446,0.0030038961963927166,0.9999804959416558,0.0,0.0,0.0,0.0,0.0,0.0,0.0,0.0,0.0,-0.00010235810178619209,-0.0009556466488407643,0.06154231040914681,0.0,0.0,0.0,0.0,0.0,0.0,0.0,0.0,0.0,0.05998490623103856,-0.08781995676873873,9.809995969625446,0.0,0.0,0.0,0.0,0.0,0.0,0.0,0.0,0.0
214.21025,212729,214,210000000,imu_link,-0.004483596240476858,-0.003144246025694069,0.0030270913194245467,0.9999804237082974,0.0,0.0,0.0,0.0,0.0,0.0,0.0,0.0,0.0,-0.0004090221646890412,-0.0009593424794076114,0.06181675476968033,0.0,0.0,0.0,0.0,0.0,0.0,0.0,0.0,0.0,0.060641769293645634,-0.08961431748947213,9.810125404334016,0.0,0.0,0.0,0.0,0.0,0.0,0.0,0.0,0.0
214.21125,212730,214,211000000,imu_link,-0.004484280125373438,-0.003144347957391921,0.003058098401094454,0.9999803259773912,0.0,0.0,0.0,0.0,0.0,0.0,0.0,0.0,0.0,-0.0006337449210741037,-0.0009468687824230169,0.06204763073026131,0.0,0.0,0.0,0.0,0.0,0.0,0.0,0.0,0.0,0.05968690878615572,-0.08860749346824441,9.810051210855484,0.0,0.0,0.0,0.0,0.0,0.0,0.0,0.0,0.0
214.212,212731,214,212000000,imu_link,-0.0044850501900255205,-0.003144444906426588,0.00308916993995438,0.9999802267145614,0.0,0.0,0.0,0.0,0.0,0.0,0.0,0.0,0.0,-0.0007603901131194035,-0.0009391907401585133,0.06211181846880608,0.0,0.0,0.0,0.0,0.0,0.0,0.0,0.0,0.0,0.05952223649058378,-0.08908704154233492,9.809972419754141,0.0,0.0,0.0,0.0,0.0,0.0,0.0,0.0,0.0
214.21325,212732,214,213000000,imu_link,-0.00448590274360553,-0.0031445367239409066,0.003120259810511061,0.9999801260745543,0.0,0.0,0.0,0.0,0.0,0.0,0.0,0.0,0.0,-0.0009254042216155832,-0.000928548954297514,0.06214943193692556,0.0,0.0,0.0,0.0,0.0,0.0,0.0,0.0,0.0,0.05944225173088852,-0.08930756621005344,9.80995522910769,0.0,0.0,0.0,0.0,0.0,0.0,0.0,0.0,0.0
214.215,212733,214,214000000,imu_link,-0.0044868363046311885,-0.0031446234160836177,0.0031513481113236495,0.999980024124796,0.0,0.0,0.0,0.0,0.0,0.0,0.0,0.0,0.0,-0.0010866711544609635,-0.0009177401694139471,0.06213272602123466,0.0,0.0,0.0,0.0,0.0,0.0,0.0,0.0,0.0,0.05933932724887392,-0.08962138149440425,9.809948168459732,0.0,0.0,0.0,0.0,0.0,0.0,0.0,0.0,0.0
214.2155,212734,214,215000000,imu_link,-0.004487852097967953,-0.003144704702784722,0.0031823505597731176,0.9999799211288163,0.0,0.0,0.0,0.0,0.0,0.0,0.0,0.0,0.0,-0.0012943248304798092,-0.0009023262245682937,0.06190209489284873,0.0,0.0,0.0,0.0,0.0,0.0,0.0,0.0,0.0,0.05901972368737515,-0.09044643080104267,9.809951449754454,0.0,0.0,0.0,0.0,0.0,0.0,0.0,0.0,0.0
214.21625,212735,214,216000000,imu_link,-0.004488948682276895,-0.0031447806105312465,0.0032132616836382023,0.9999798171183216,0.0,0.0,0.0,0.0,0.0,0.0,0.0,0.0,0.0,-0.0014156549511177181,-0.0008932466401689992,0.06176616815978588,0.0,0.0,0.0,0.0,0.0,0.0,0.0,0.0,0.0,0.05902931711487653,-0.0904571978675729,9.809941276766807,0.0,0.0,0.0,0.0,0.0,0.0,0.0,0.0,0.0
214.2175,212736,214,217000000,imu_link,-0.004490140221905401,-0.0031448516172852834,0.003244082110763738,0.9999797120343751,0.0,0.0,0.0,0.0,0.0,0.0,0.0,0.0,0.0,-0.0017402276773477356,-0.0008812560733517721,0.06153557293403346,0.0,0.0,0.0,0.0,0.0,0.0,0.0,0.0,0.0,0.05956599099423051,-0.09132163396090084,9.809467784672265,0.0,0.0,0.0,0.0,0.0,0.0,0.0,0.0,0.0
214.218,212737,214,218000000,imu_link,-0.004491512963943426,-0.0031449205699731154,0.0032747804660866707,0.9999796055914351,0.0,0.0,0.0,0.0,0.0,0.0,0.0,0.0,0.0,-0.00199915722731559,-0.0008723639771642815,0.061247151513898986,0.0,0.0,0.0,0.0,0.0,0.0,0.0,0.0,0.0,0.05950102554198632,-0.09184707826479818,9.809436819374488,0.0,0.0,0.0,0.0,0.0,0.0,0.0,0.0,0.0
214.2195,212738,214,219000000,imu_link,-0.00449295048836099,-0.0031449839475566842,0.0033053222063924984,0.9999794984483384,0.0,0.0,0.0,0.0,0.0,0.0,0.0,0.0,0.0,-0.0020965278246093686,-0.0008627608732262042,0.06101314882489484,0.0,0.0,0.0,0.0,0.0,0.0,0.0,0.0,0.0,0.058827733198161536,-0.09090207149361075,9.809842487767932,0.0,0.0,0.0,0.0,0.0,0.0,0.0,0.0,0.0
214.2195,212739,214,220000000,imu_link,-0.004494528718370049,-0.0031450455102459435,0.0033356971886652157,0.999979390299922,0.0,0.0,0.0,0.0,0.0,0.0,0.0,0.0,0.0,-0.0025377084386907296,-0.0008633871946857652,0.06068219934292173,0.0,0.0,0.0,0.0,0.0,0.0,0.0,0.0,0.0,0.059667681198136126,-0.09430711182848048,9.810358686974864,0.0,0.0,0.0,0.0,0.0,0.0,0.0,0.0,0.0
214.222,212740,214,221000000,imu_link,-0.004496254148878911,-0.0031451049578159426,0.0033658354868287403,0.9999792813678235,0.0,0.0,0.0,0.0,0.0,0.0,0.0,0.0,0.0,-0.0027150254402093983,-0.0008454046436787572,0.06006160805071512,0.0,0.0,0.0,0.0,0.0,0.0,0.0,0.0,0.0,0.05855100713201832,-0.09197981748629172,9.809868915116164,0.0,0.0,0.0,0.0,0.0,0.0,0.0,0.0,0.0
214.222,212741,214,222000000,imu_link,-0.004498051466539119,-0.003145158691647251,0.0033957268893225687,0.9999791720574494,0.0,0.0,0.0,0.0,0.0,0.0,0.0,0.0,0.0,-0.0028593077697349704,-0.0008312340361048853,0.05956961124860443,0.0,0.0,0.0,0.0,0.0,0.0,0.0,0.0,0.0,0.058565354510566894,-0.09199837426117613,9.809871538389636,0.0,0.0,0.0,0.0,0.0,0.0,0.0,0.0,0.0
214.225,212742,214,223000000,imu_link,-0.004499919078196962,-0.003145206730053409,0.0034253606482587537,0.9999790624344814,0.0,0.0,0.0,0.0,0.0,0.0,0.0,0.0,0.0,-0.0029652090903732106,-0.0008205411428674802,0.05916946406426016,0.0,0.0,0.0,0.0,0.0,0.0,0.0,0.0,0.0,0.05851056998654673,-0.09224593967007937,9.809865250108974,0.0,0.0,0.0,0.0,0.0,0.0,0.0,0.0,0.0
214.225,212743,214,224000000,imu_link,-0.004501857170972138,-0.003145248947734406,0.003454688622441287,0.9999789526873009,0.0,0.0,0.0,0.0,0.0,0.0,0.0,0.0,0.0,-0.0031442641057046992,-0.0008017728987314368,0.05839636132047676,0.0,0.0,0.0,0.0,0.0,0.0,0.0,0.0,0.0,0.058397044053457935,-0.09265119935410736,9.809859313341915,0.0,0.0,0.0,0.0,0.0,0.0,0.0,0.0,0.0
214.22575,212744,214,225000000,imu_link,-0.004503864259019638,-0.003145285358902791,0.003483708447339115,0.9999788428572884,0.0,0.0,0.0,0.0,0.0,0.0,0.0,0.0,0.0,-0.003248784453820841,-0.0007906309603935593,0.05793511957192718,0.0,0.0,0.0,0.0,0.0,0.0,0.0,0.0,0.0,0.05840694207557922,-0.09267574603283336,9.80985196572557,0.0,0.0,0.0,0.0,0.0,0.0,0.0,0.0,0.0
214.22625,212745,214,226000000,imu_link,-0.0045059365312941375,-0.0031453159864045055,0.003512401639399513,0.9999787330528811,0.0,0.0,0.0,0.0,0.0,0.0,0.0,0.0,0.0,-0.0033786545735872966,-0.0007756639191935712,0.05726905593829013,0.0,0.0,0.0,0.0,0.0,0.0,0.0,0.0,0.0,0.05831623397767157,-0.0929545771948074,9.809828052603011,0.0,0.0,0.0,0.0,0.0,0.0,0.0,0.0,0.0
214.22725,212746,214,227000000,imu_link,-0.0045080657028877345,-0.003145340694895507,0.00354068915592213,0.9999786236194416,0.0,0.0,0.0,0.0,0.0,0.0,0.0,0.0,0.0,-0.003495121069350642,-0.0007595613470172402,0.05644520741591184,0.0,0.0,0.0,0.0,0.0,0.0,0.0,0.0,0.0,0.05803515773884847,-0.09363454305508107,9.809771096224829,0.0,0.0,0.0,0.0,0.0,0.0,0.0,0.0,0.0
214.22825,212747,214,228000000,imu_link,-0.00451028632745677,-0.003145364715333727,0.0035685459171947258,0.9999785145082313,0.0,0.0,0.0,0.0,0.0,0.0,0.0,0.0,0.0,-0.0037287980485157138,-0.0007528691146172795,0.05533748617053743,0.0,0.0,0.0,0.0,0.0,0.0,0.0,0.0,0.0,0.05843784901779438,-0.09463552979476142,9.809385550487352,0.0,0.0,0.0,0.0,0.0,0.0,0.0,0.0,0.0
214.22925,212748,214,229000000,imu_link,-0.0045125657374225706,-0.0031453845920812193,0.0035959358139153277,0.9999784060427783,0.0,0.0,0.0,0.0,0.0,0.0,0.0,0.0,0.0,-0.0037760257650831667,-0.0007445932196635828,0.05487040791734821,0.0,0.0,0.0,0.0,0.0,0.0,0.0,0.0,0.0,0.057903803300876217,-0.09415780295688375,9.809721806138583,0.0,0.0,0.0,0.0,0.0,0.0,0.0,0.0,0.0
214.23025,212749,214,230000000,imu_link,-0.00451489039376215,-0.0031453984922496115,0.003622839282075707,0.999978298398817,0.0,0.0,0.0,0.0,0.0,0.0,0.0,0.0,0.0,-0.0038938040959308885,-0.000723718434763591,0.05365124456073069,0.0,0.0,0.0,0.0,0.0,0.0,0.0,0.0,0.0,0.057871967240041275,-0.09440457694914542,9.80970729603586,0.0,0.0,0.0,0.0,0.0,0.0,0.0,0.0,0.0
214.2315,212750,214,231000000,imu_link,-0.004517261705267411,-0.003145406363959876,0.0036492236169410326,0.9999781917284423,0.0,0.0,0.0,0.0,0.0,0.0,0.0,0.0,0.0,-0.003990429566812263,-0.0007066792479978009,0.05261370467821783,0.0,0.0,0.0,0.0,0.0,0.0,0.0,0.0,0.0,0.0578178478887559,-0.09473193291580777,9.809704114958251,0.0,0.0,0.0,0.0,0.0,0.0,0.0,0.0,0.0
214.23225,212751,214,232000000,imu_link,-0.004519678179473129,-0.0031454082332027867,0.0036750905981060727,0.999978086072538,0.0,0.0,0.0,0.0,0.0,0.0,0.0,0.0,0.0,-0.004106737883532477,-0.000685478844554981,0.05132173121600455,0.0,0.0,0.0,0.0,0.0,0.0,0.0,0.0,0.0,0.057829907101999506,-0.09476434924743192,9.809700250727033,0.0,0.0,0.0,0.0,0.0,0.0,0.0,0.0,0.0
214.23325,212752,214,233000000,imu_link,-0.004522259055467228,-0.0031454080808751964,0.0037004140349521123,0.9999779810160873,0.0,0.0,0.0,0.0,0.0,0.0,0.0,0.0,0.0,-0.004491001680718246,-0.0006818208703932004,0.05047514374348236,0.0,0.0,0.0,0.0,0.0,0.0,0.0,0.0,0.0,0.05758608266237592,-0.09935800625115747,9.811853183684523,0.0,0.0,0.0,0.0,0.0,0.0,0.0,0.0,0.0
214.235,212753,214,234000000,imu_link,-0.004524914468990003,-0.0031454034494076393,0.0037251296991229507,0.9999778772527489,0.0,0.0,0.0,0.0,0.0,0.0,0.0,0.0,0.0,-0.0045833926001634965,-0.0006598520400793821,0.0489504978428832,0.0,0.0,0.0,0.0,0.0,0.0,0.0,0.0,0.0,0.057552453988222306,-0.095602065586056,9.80962745737852,0.0,0.0,0.0,0.0,0.0,0.0,0.0,0.0,0.0
214.235,212754,214,235000000,imu_link,-0.004527683978836098,-0.003145395607012445,0.003749211875120374,0.9999777747403082,0.0,0.0,0.0,0.0,0.0,0.0,0.0,0.0,0.0,-0.004797662030574991,-0.0006512023967793135,0.04797712205885822,0.0,0.0,0.0,0.0,0.0,0.0,0.0,0.0,0.0,0.057462443456353776,-0.09803930181646855,9.810639881170516,0.0,0.0,0.0,0.0,0.0,0.0,0.0,0.0,0.0
214.237,212755,214,236000000,imu_link,-0.004531188888477042,-0.003145377960785925,0.0037783931906111394,0.9999776490850373,0.0,0.0,0.0,0.0,0.0,0.0,0.0,0.0,0.0,-0.004879607551937941,-0.0006295396283802364,0.04634007123888373,0.0,0.0,0.0,0.0,0.0,0.0,0.0,0.0,0.0,0.057502037268713675,-0.09608384388086108,9.809594223722822,0.0,0.0,0.0,0.0,0.0,0.0,0.0,0.0,0.0
214.23725,212756,214,237000000,imu_link,-0.004533313766799169,-0.0031453631548126306,0.003795411831445234,0.9999775750515337,0.0,0.0,0.0,0.0,0.0,0.0,0.0,0.0,0.0,-0.0049263904293354015,-0.0006165462851037037,0.045360342580429085,0.0,0.0,0.0,0.0,0.0,0.0,0.0,0.0,0.0,0.057505788103408347,-0.09611908452971409,9.8095864027863,0.0,0.0,0.0,0.0,0.0,0.0,0.0,0.0,0.0
214.23825,212757,214,238000000,imu_link,-0.0045361632355772515,-0.0031453384704215287,0.0038174832655867713,0.999977478191646,0.0,0.0,0.0,0.0,0.0,0.0,0.0,0.0,0.0,-0.004976555660634515,-0.0005941541431026714,0.04357257477354148,0.0,0.0,0.0,0.0,0.0,0.0,0.0,0.0,0.0,0.057384153285016136,-0.0967257082713925,9.809488540050753,0.0,0.0,0.0,0.0,0.0,0.0,0.0,0.0,0.0
214.23925,212758,214,239000000,imu_link,-0.0045390272944803925,-0.003145308075889763,0.003838824922777605,0.999977383590019,0.0,0.0,0.0,0.0,0.0,0.0,0.0,0.0,0.0,-0.005009560794185919,-0.0005760685757091571,0.042114339380945956,0.0,0.0,0.0,0.0,0.0,0.0,0.0,0.0,0.0,0.057360075416500754,-0.09691445186239184,9.809460505676448,0.0,0.0,0.0,0.0,0.0,0.0,0.0,0.0,0.0
214.24025,212759,214,240000000,imu_link,-0.004541937163313631,-0.0031452730598930875,0.003859433333763993,0.9999772911614172,0.0,0.0,0.0,0.0,0.0,0.0,0.0,0.0,0.0,-0.005166447629387762,-0.0005617193370377546,0.04062936548531413,0.0,0.0,0.0,0.0,0.0,0.0,0.0,0.0,0.0,0.057341574704986395,-0.09830661603425898,9.810067287339148,0.0,0.0,0.0,0.0,0.0,0.0,0.0,0.0,0.0
214.24125,212760,214,241000000,imu_link,-0.004544886270262131,-0.003145233638775076,0.003879280726108813,0.9999772010877028,0.0,0.0,0.0,0.0,0.0,0.0,0.0,0.0,0.0,-0.005182981327608661,-0.0005438108478592057,0.03909932261094334,0.0,0.0,0.0,0.0,0.0,0.0,0.0,0.0,0.0,0.05738305382628618,-0.09720587448701443,9.809401579485499,0.0,0.0,0.0,0.0,0.0,0.0,0.0,0.0,0.0
214.24225,212761,214,242000000,imu_link,-0.004547857373812297,-0.003145188825787984,0.0038983624815013443,0.9999771135133646,0.0,0.0,0.0,0.0,0.0,0.0,0.0,0.0,0.0,-0.005192568698797417,-0.0005304048105097911,0.03795372865038726,0.0,0.0,0.0,0.0,0.0,0.0,0.0,0.0,0.0,0.05738505198074542,-0.0972662198587495,9.809395756660345,0.0,0.0,0.0,0.0,0.0,0.0,0.0,0.0,0.0
214.2435,212762,214,243000000,imu_link,-0.0045508854934549195,-0.0031451388055091524,0.003916649917796346,0.9999770284344242,0.0,0.0,0.0,0.0,0.0,0.0,0.0,0.0,0.0,-0.0053532858337256625,-0.0005077932468936101,0.03594979493150651,0.0,0.0,0.0,0.0,0.0,0.0,0.0,0.0,0.0,0.05737882266262502,-0.09879189134794947,9.809561852894296,0.0,0.0,0.0,0.0,0.0,0.0,0.0,0.0,0.0
214.24425,212763,214,244000000,imu_link,-0.004553920214558415,-0.0031450833850805346,0.0039341330957715056,0.999976946163243,0.0,0.0,0.0,0.0,0.0,0.0,0.0,0.0,0.0,-0.005370040645353239,-0.0004897129647155969,0.03434236359730324,0.0,0.0,0.0,0.0,0.0,0.0,0.0,0.0,0.0,0.057396415328269425,-0.0976926042854082,9.80938130363846,0.0,0.0,0.0,0.0,0.0,0.0,0.0,0.0,0.0
214.2455,212764,214,245000000,imu_link,-0.0045570043066997185,-0.003145027140268248,0.003950786763640162,0.9999768666324157,0.0,0.0,0.0,0.0,0.0,0.0,0.0,0.0,0.0,-0.00546729811609395,-0.0004847943170708245,0.03307051589302514,0.0,0.0,0.0,0.0,0.0,0.0,0.0,0.0,0.0,0.058055343463234925,-0.09942363501448638,9.809564042865476,0.0,0.0,0.0,0.0,0.0,0.0,0.0,0.0,0.0
214.24625,212765,214,246000000,imu_link,-0.004560085137082716,-0.0031449658030668526,0.003966579275884969,0.9999767902618982,0.0,0.0,0.0,0.0,0.0,0.0,0.0,0.0,0.0,-0.0054662601099128546,-0.00046679984923383625,0.03134856179212397,0.0,0.0,0.0,0.0,0.0,0.0,0.0,0.0,0.0,0.05733353163825971,-0.098211341628664,9.809283824256807,0.0,0.0,0.0,0.0,0.0,0.0,0.0,0.0,0.0
214.24675,212766,214,247000000,imu_link,-0.004563161751975728,-0.003144899359266092,0.003981512066019475,0.9999767170912099,0.0,0.0,0.0,0.0,0.0,0.0,0.0,0.0,0.0,-0.005462834293912665,-0.0004488645063081668,0.029629424417883667,0.0,0.0,0.0,0.0,0.0,0.0,0.0,0.0,0.0,0.057338127713321356,-0.09827400709637506,9.809290500874502,0.0,0.0,0.0,0.0,0.0,0.0,0.0,0.0,0.0
214.2485,212767,214,248000000,imu_link,-0.004566258983125126,-0.0031448279704944073,0.003995569552885392,0.9999766471072626,0.0,0.0,0.0,0.0,0.0,0.0,0.0,0.0,0.0,-0.005509353774658468,-0.0004265019717331169,0.02742738181282819,0.0,0.0,0.0,0.0,0.0,0.0,0.0,0.0,0.0,0.05736146909468315,-0.09890350959113806,9.809331893042215,0.0,0.0,0.0,0.0,0.0,0.0,0.0,0.0,0.0
214.24925,212768,214,249000000,imu_link,-0.0045693529137073394,-0.0031447516044606225,0.004008739157456503,0.9999765805065957,0.0,0.0,0.0,0.0,0.0,0.0,0.0,0.0,0.0,-0.0055077112481696005,-0.00041311536193253383,0.02609599072469596,0.0,0.0,0.0,0.0,0.0,0.0,0.0,0.0,0.0,0.057383824101923275,-0.09859193949665931,9.809287785477657,0.0,0.0,0.0,0.0,0.0,0.0,0.0,0.0,0.0
214.25,212769,214,250000000,imu_link,-0.004572447853075027,-0.0031446706654345994,0.00402102133592988,0.9999765173015079,0.0,0.0,0.0,0.0,0.0,0.0,0.0,0.0,0.0,-0.005524561137105805,-0.00039665544546902293,0.024321301023893155,0.0,0.0,0.0,0.0,0.0,0.0,0.0,0.0,0.0,0.05742022260839107,-0.09887747732439019,9.809409287259498,0.0,0.0,0.0,0.0,0.0,0.0,0.0,0.0,0.0
214.25125,212770,214,251000000,imu_link,-0.004575524221577007,-0.0031445849901630117,0.004032413871708692,0.9999764576237307,0.0,0.0,0.0,0.0,0.0,0.0,0.0,0.0,0.0,-0.005462556243874388,-0.000374796010521683,0.022096161446061413,0.0,0.0,0.0,0.0,0.0,0.0,0.0,0.0,0.0,0.05738688112995394,-0.09828838015567473,9.809194134007695,0.0,0.0,0.0,0.0,0.0,0.0,0.0,0.0,0.0
214.25225,212771,214,252000000,imu_link,-0.004578573327702544,-0.003144494368605625,0.004042917405226723,0.9999764015417081,0.0,0.0,0.0,0.0,0.0,0.0,0.0,0.0,0.0,-0.005425524921546367,-0.0003614531135714545,0.02076296131872567,0.0,0.0,0.0,0.0,0.0,0.0,0.0,0.0,0.0,0.057395906305464206,-0.09835779201236919,9.809163720828613,0.0,0.0,0.0,0.0,0.0,0.0,0.0,0.0,0.0
214.25325,212772,214,253000000,imu_link,-0.004581643207457692,-0.003144402631430065,0.0040525156793755485,0.9999763489174529,0.0,0.0,0.0,0.0,0.0,0.0,0.0,0.0,0.0,-0.005516608452323358,-0.000349898819076503,0.01894249724161453,0.0,0.0,0.0,0.0,0.0,0.0,0.0,0.0,0.0,0.05805480683941919,-0.0999966962715656,9.808869531363136,0.0,0.0,0.0,0.0,0.0,0.0,0.0,0.0,0.0
214.254,212773,214,254000000,imu_link,-0.004584687774024175,-0.0031443071106958247,0.004061160365672677,0.9999763001928059,0.0,0.0,0.0,0.0,0.0,0.0,0.0,0.0,0.0,-0.00516628077628277,-0.0003268494361074567,0.016564651240944066,0.0,0.0,0.0,0.0,0.0,0.0,0.0,0.0,0.0,0.057391424911877174,-0.09632698045712114,9.809061069835415,0.0,0.0,0.0,0.0,0.0,0.0,0.0,0.0,0.0
214.2555,212774,214,255000000,imu_link,-0.004587459990188711,-0.0031442055258451064,0.004068853019351815,0.9999762565269021,0.0,0.0,0.0,0.0,0.0,0.0,0.0,0.0,0.0,-0.004454394352491422,-0.0003156612362664361,0.01465433858595821,0.0,0.0,0.0,0.0,0.0,0.0,0.0,0.0,0.0,0.05770072339049361,-0.09212188166491203,9.808585142998265,0.0,0.0,0.0,0.0,0.0,0.0,0.0,0.0,0.0
214.25625,212775,214,256000000,imu_link,-0.004589883283654414,-0.0031440980661330614,0.00407559336676043,0.9999762182959662,0.0,0.0,0.0,0.0,0.0,0.0,0.0,0.0,0.0,-0.003934768829311041,-0.00030290261402600514,0.013224342196714818,0.0,0.0,0.0,0.0,0.0,0.0,0.0,0.0,0.0,0.057670901805813725,-0.09208676840553562,9.807985356712104,0.0,0.0,0.0,0.0,0.0,0.0,0.0,0.0,0.0
214.259,212776,214,257000000,imu_link,-0.004591961651871943,-0.0031439846898687015,0.0040813824022781255,0.9999761854995068,0.0,0.0,0.0,0.0,0.0,0.0,0.0,0.0,0.0,-0.003249350949958531,-0.00028590444307703775,0.011319283377313064,0.0,0.0,0.0,0.0,0.0,0.0,0.0,0.0,0.0,0.05768077776033987,-0.09220965943585775,9.80801882359991,0.0,0.0,0.0,0.0,0.0,0.0,0.0,0.0,0.0
214.259,212777,214,258000000,imu_link,-0.0045937039078627106,-0.0031438654361162772,0.004086211815295086,0.9999761581495467,0.0,0.0,0.0,0.0,0.0,0.0,0.0,0.0,0.0,-0.0024225483298196434,-0.00026492076572771645,0.008903397217605122,0.0,0.0,0.0,0.0,0.0,0.0,0.0,0.0,0.0,0.05772200833282176,-0.09267712185983203,9.808129302255795,0.0,0.0,0.0,0.0,0.0,0.0,0.0,0.0,0.0
214.26075,212778,214,259000000,imu_link,-0.004595121480408189,-0.003143740376812156,0.004090067061215095,0.9999761362684902,0.0,0.0,0.0,0.0,0.0,0.0,0.0,0.0,0.0,-0.0017797152704716942,-0.00024848625060646236,0.006952753641096807,0.0,0.0,0.0,0.0,0.0,0.0,0.0,0.0,0.0,0.05777652252735768,-0.09304342620838164,9.808347342053507,0.0,0.0,0.0,0.0,0.0,0.0,0.0,0.0,0.0
214.26075,212779,214,260000000,imu_link,-0.004596218552609413,-0.0031436091703154097,0.004092948944071694,0.9999761198475403,0.0,0.0,0.0,0.0,0.0,0.0,0.0,0.0,0.0,-0.0011127013174513844,-0.00024230766360874191,0.004999571966412207,0.0,0.0,0.0,0.0,0.0,0.0,0.0,0.0,0.0,0.05769824328929314,-0.09315541534531728,9.80739750442571,0.0,0.0,0.0,0.0,0.0,0.0,0.0,0.0,0.0
214.26225,212780,214,261000000,imu_link,-0.004597075853314322,-0.003143470024848192,0.004094861914948247,0.999976108512448,0.0,0.0,0.0,0.0,0.0,0.0,0.0,0.0,0.0,-0.0010513133263212772,-0.00022012077725343316,0.003558779094199046,0.0,0.0,0.0,0.0,0.0,0.0,0.0,0.0,0.0,0.058146784679094385,-0.09863103328024218,9.812090561184853,0.0,0.0,0.0,0.0,0.0,0.0,0.0,0.0,0.0
214.26225,212781,214,262000000,imu_link,-0.004597808215521171,-0.0031433418840521405,0.004095817937268744,0.999976101632853,0.0,0.0,0.0,0.0,0.0,0.0,0.0,0.0,0.0,-0.0011127292216135472,-0.00021046894691812906,0.0016405994036226322,0.0,0.0,0.0,0.0,0.0,0.0,0.0,0.0,0.0,0.05769161052492747,-0.10031692065093266,9.810009162468466,0.0,0.0,0.0,0.0,0.0,0.0,0.0,0.0,0.0
214.263,212782,214,263000000,imu_link,-0.00459845332222429,-0.003143225668992323,0.004095827444015017,0.9999760989928639,0.0,0.0,0.0,0.0,0.0,0.0,0.0,0.0,0.0,-0.0013462540334933546,-0.00018358258711857368,-0.0007530309173012336,0.0,0.0,0.0,0.0,0.0,0.0,0.0,0.0,0.0,0.05794399090410282,-0.0999549600014621,9.810294616620563,0.0,0.0,0.0,0.0,0.0,0.0,0.0,0.0,0.0
214.265,212783,214,264000000,imu_link,-0.004599196080395429,-0.003143088622091396,0.004094890626548774,0.9999760998444336,0.0,0.0,0.0,0.0,0.0,0.0,0.0,0.0,0.0,-0.001221037111535513,-0.00015480859026420073,-0.002183125746777324,0.0,0.0,0.0,0.0,0.0,0.0,0.0,0.0,0.0,0.0581147666238751,-0.0960059309840905,9.809023799194351,0.0,0.0,0.0,0.0,0.0,0.0,0.0,0.0,0.0
214.265,212784,214,265000000,imu_link,-0.004599915216250072,-0.003142948856070073,0.004093016545900558,0.9999761046485294,0.0,0.0,0.0,0.0,0.0,0.0,0.0,0.0,0.0,-0.0007133963742809484,-0.00014122028400543156,-0.004074089285203136,0.0,0.0,0.0,0.0,0.0,0.0,0.0,0.0,0.0,0.0579879259552004,-0.09386853538255374,9.807890635908766,0.0,0.0,0.0,0.0,0.0,0.0,0.0,0.0,0.0
214.26725,212785,214,266000000,imu_link,-0.004600423108997232,-0.0031427953317216956,0.004090201120561794,0.9999761143144942,0.0,0.0,0.0,0.0,0.0,0.0,0.0,0.0,0.0,-0.0004751508895401112,-0.0001386356925279886,-0.005952622502298422,0.0,0.0,0.0,0.0,0.0,0.0,0.0,0.0,0.0,0.05776982438397277,-0.09544653148773999,9.805902362104908,0.0,0.0,0.0,0.0,0.0,0.0,0.0,0.0,0.0
214.26725,212786,214,267000000,imu_link,-0.004601006360530157,-0.0031426405594644517,0.004086462857530446,0.9999761274010988,0.0,0.0,0.0,0.0,0.0,0.0,0.0,0.0,0.0,-0.0008007082472300217,-0.00011638505464647494,-0.008248919327108202,0.0,0.0,0.0,0.0,0.0,0.0,0.0,0.0,0.0,0.05806388450265866,-0.1001454159315279,9.809055490805891,0.0,0.0,0.0,0.0,0.0,0.0,0.0,0.0,0.0
214.26825,212787,214,268000000,imu_link,-0.004601737643164982,-0.0031424849818099876,0.0040818075163932665,0.9999761435385355,0.0,0.0,0.0,0.0,0.0,0.0,0.0,0.0,0.0,-0.0010997732081052618,-0.00010480581437101001,-0.010081498475028022,0.0,0.0,0.0,0.0,0.0,0.0,0.0,0.0,0.0,0.05821413901054322,-0.10023942908096348,9.80899446869902,0.0,0.0,0.0,0.0,0.0,0.0,0.0,0.0,0.0
214.27,212788,214,269000000,imu_link,-0.004602610377682111,-0.0031423281372891017,0.004076235304689322,0.9999761627445575,0.0,0.0,0.0,0.0,0.0,0.0,0.0,0.0,0.0,-0.0013799800886076705,-9.311479542323946e-05,-0.011914412512927455,0.0,0.0,0.0,0.0,0.0,0.0,0.0,0.0,0.0,0.058277194852180615,-0.10008961723171378,9.809256445619436,0.0,0.0,0.0,0.0,0.0,0.0,0.0,0.0,0.0
214.27,212789,214,270000000,imu_link,-0.004603615720883823,-0.0031421699976335923,0.004069746143050823,0.9999761850445897,0.0,0.0,0.0,0.0,0.0,0.0,0.0,0.0,0.0,-0.0016504107935114433,-8.157579954820299e-05,-0.013747012445636357,0.0,0.0,0.0,0.0,0.0,0.0,0.0,0.0,0.0,0.05830318208323941,-0.10003745859960128,9.80939533353996,0.0,0.0,0.0,0.0,0.0,0.0,0.0,0.0,0.0
214.27175,212790,214,271000000,imu_link,-0.0046047508075971475,-0.003142010557122473,0.004062340358668612,0.9999762104322629,0.0,0.0,0.0,0.0,0.0,0.0,0.0,0.0,0.0,-0.001915374853333629,-7.005290939648075e-05,-0.015579042452641944,0.0,0.0,0.0,0.0,0.0,0.0,0.0,0.0,0.0,0.05831321504615155,-0.10003012028153493,9.809466947032961,0.0,0.0,0.0,0.0,0.0,0.0,0.0,0.0,0.0
214.27225,212791,214,272000000,imu_link,-0.004606017950591828,-0.0031418502596614623,0.004054026809316933,0.9999762388388107,0.0,0.0,0.0,0.0,0.0,0.0,0.0,0.0,0.0,-0.0021223824145838247,-6.251674511054943e-05,-0.016932145061874272,0.0,0.0,0.0,0.0,0.0,0.0,0.0,0.0,0.0,0.05866159481540012,-0.09969514952343293,9.809510590468575,0.0,0.0,0.0,0.0,0.0,0.0,0.0,0.0,0.0
214.2735,212792,214,273000000,imu_link,-0.004607417623885656,-0.003141689346899641,0.004044810870225621,0.9999762702164041,0.0,0.0,0.0,0.0,0.0,0.0,0.0,0.0,0.0,-0.00246025691493473,-4.982297229521705e-05,-0.01918684616960301,0.0,0.0,0.0,0.0,0.0,0.0,0.0,0.0,0.0,0.05866207983964816,-0.09968107731737992,9.809528896093362,0.0,0.0,0.0,0.0,0.0,0.0,0.0,0.0,0.0
214.274,212793,214,274000000,imu_link,-0.004608928122585482,-0.0031415279026653256,0.00403470142509268,0.9999763046034682,0.0,0.0,0.0,0.0,0.0,0.0,0.0,0.0,0.0,-0.002618745796524092,-4.264095184468064e-05,-0.020517078809010634,0.0,0.0,0.0,0.0,0.0,0.0,0.0,0.0,0.0,0.05882398808450002,-0.09895166964690999,9.80944555691548,0.0,0.0,0.0,0.0,0.0,0.0,0.0,0.0,0.0
214.27525,212794,214,275000000,imu_link,-0.004610558744295368,-0.003141366256239257,0.004023710322026877,0.9999763418808237,0.0,0.0,0.0,0.0,0.0,0.0,0.0,0.0,0.0,-0.002863794349937856,-3.337599506680027e-05,-0.02227963353790302,0.0,0.0,0.0,0.0,0.0,0.0,0.0,0.0,0.0,0.058889139962017265,-0.09931963957520687,9.80954245029944,0.0,0.0,0.0,0.0,0.0,0.0,0.0,0.0,0.0
214.27625,212795,214,276000000,imu_link,-0.004612304037070215,-0.003141204602850315,0.004011839718972945,0.999976382034687,0.0,0.0,0.0,0.0,0.0,0.0,0.0,0.0,0.0,-0.003140859121172773,-2.3728805610576286e-05,-0.024466024864885406,0.0,0.0,0.0,0.0,0.0,0.0,0.0,0.0,0.0,0.0589271660844158,-0.09925232023341365,9.809342426609641,0.0,0.0,0.0,0.0,0.0,0.0,0.0,0.0,0.0
214.27725,212796,214,277000000,imu_link,-0.004614133171514992,-0.003141043718296768,0.003999114139812869,0.9999764250748774,0.0,0.0,0.0,0.0,0.0,0.0,0.0,0.0,0.0,-0.003261741268939245,-1.7677769682961212e-05,-0.025739286906909634,0.0,0.0,0.0,0.0,0.0,0.0,0.0,0.0,0.0,0.058997760901139534,-0.09889954124525689,9.809390535359706,0.0,0.0,0.0,0.0,0.0,0.0,0.0,0.0,0.0
214.27825,212797,214,278000000,imu_link,-0.0046160385038570215,-0.0031408829401540655,0.003985539450615882,0.9999764709822802,0.0,0.0,0.0,0.0,0.0,0.0,0.0,0.0,0.0,-0.0034195512038229818,-9.457648384000276e-06,-0.02743707231669148,0.0,0.0,0.0,0.0,0.0,0.0,0.0,0.0,0.0,0.058997289983036744,-0.0989261989102078,9.809396058809613,0.0,0.0,0.0,0.0,0.0,0.0,0.0,0.0,0.0
214.27925,212798,214,279000000,imu_link,-0.004617988407075918,-0.003140721106147155,0.003971119616432541,0.9999765198558402,0.0,0.0,0.0,0.0,0.0,0.0,0.0,0.0,0.0,-0.0034609818046605605,2.9320228779827877e-06,-0.02912747062858973,0.0,0.0,0.0,0.0,0.0,0.0,0.0,0.0,0.0,0.05873010270527596,-0.09775195926804046,9.809228335080348,0.0,0.0,0.0,0.0,0.0,0.0,0.0,0.0,0.0
214.28,212799,214,280000000,imu_link,-0.004619956033931305,-0.0031405584122058557,0.003955879085837628,0.9999765716854383,0.0,0.0,0.0,0.0,0.0,0.0,0.0,0.0,0.0,-0.003545998625146383,1.0053492739272605e-05,-0.03076029163271942,0.0,0.0,0.0,0.0,0.0,0.0,0.0,0.0,0.0,0.059260726282405,-0.09829675444366531,9.809258198698236,0.0,0.0,0.0,0.0,0.0,0.0,0.0,0.0,0.0
214.2815,212800,214,281250000,imu_link,-0.004622467615017813,-0.003140355423353187,0.0039356797380656165,0.9999766404201462,0.0,0.0,0.0,0.0,0.0,0.0,0.0,0.0,0.0,-0.0036449058122889856,1.913897579588646e-05,-0.0328022459635791,0.0,0.0,0.0,0.0,0.0,0.0,0.0,0.0,0.0,0.059257679769034864,-0.09834272893032606,9.809245717050556,0.0,0.0,0.0,0.0,0.0,0.0,0.0,0.0,0.0
214.28275,212801,214,282250000,imu_link,-0.004624365863267517,-0.0031401885752691066,0.00391862097904048,0.9999766991613841,0.0,0.0,0.0,0.0,0.0,0.0,0.0,0.0,0.0,-0.0033738108843919773,3.6664308750013206e-05,-0.034772487754437954,0.0,0.0,0.0,0.0,0.0,0.0,0.0,0.0,0.0,0.059115769482978205,-0.09544637936054613,9.808428192757395,0.0,0.0,0.0,0.0,0.0,0.0,0.0,0.0,0.0
214.28375,212802,214,283250000,imu_link,-0.004626244494881139,-0.003140021850679306,0.0039007918244639774,0.9999767607038642,0.0,0.0,0.0,0.0,0.0,0.0,0.0,0.0,0.0,-0.0033764872749230874,4.232936103640338e-05,-0.036310909273486264,0.0,0.0,0.0,0.0,0.0,0.0,0.0,0.0,0.0,0.05956818716259255,-0.09784356509333893,9.809069014066452,0.0,0.0,0.0,0.0,0.0,0.0,0.0,0.0,0.0
214.2845,212803,214,284250000,imu_link,-0.004628121484587972,-0.0031398558007521594,0.0038821932382256457,0.9999768249178255,0.0,0.0,0.0,0.0,0.0,0.0,0.0,0.0,0.0,-0.003378120435284344,4.8030440845831634e-05,-0.0378501226087555,0.0,0.0,0.0,0.0,0.0,0.0,0.0,0.0,0.0,0.059567706715544205,-0.09788904621180089,9.809065859367776,0.0,0.0,0.0,0.0,0.0,0.0,0.0,0.0,0.0
214.2855,212804,214,285250000,imu_link,-0.004629964212952269,-0.003139688601622952,0.003862835156681882,0.9999768918787193,0.0,0.0,0.0,0.0,0.0,0.0,0.0,0.0,0.0,-0.0033066612701472225,5.550686093285206e-05,-0.03898012694007356,0.0,0.0,0.0,0.0,0.0,0.0,0.0,0.0,0.0,0.059518115800874405,-0.09701257776533881,9.809093203231114,0.0,0.0,0.0,0.0,0.0,0.0,0.0,0.0,0.0
214.2865,212805,214,286250000,imu_link,-0.004631773644140686,-0.0031395222993856986,0.003842724626312297,0.9999769615046578,0.0,0.0,0.0,0.0,0.0,0.0,0.0,0.0,0.0,-0.0032449607450373897,6.0320870072743445e-05,-0.04048542693836741,0.0,0.0,0.0,0.0,0.0,0.0,0.0,0.0,0.0,0.05976109677236372,-0.09738659904707045,9.808945165128828,0.0,0.0,0.0,0.0,0.0,0.0,0.0,0.0,0.0
214.2865,212806,214,287250000,imu_link,-0.00463354452178203,-0.0031393569969659137,0.0038218783582653635,0.9999770337105873,0.0,0.0,0.0,0.0,0.0,0.0,0.0,0.0,0.0,-0.0031699753796058604,6.471373293529074e-05,-0.04194573154489861,0.0,0.0,0.0,0.0,0.0,0.0,0.0,0.0,0.0,0.05987418317492341,-0.09718010074805918,9.808913432186372,0.0,0.0,0.0,0.0,0.0,0.0,0.0,0.0,0.0
214.28975,212807,214,288250000,imu_link,-0.004635254501211744,-0.003139193210748889,0.0038003645587365133,0.9999771082934427,0.0,0.0,0.0,0.0,0.0,0.0,0.0,0.0,0.0,-0.003017957537981129,6.772019255433926e-05,-0.04360129821134061,0.0,0.0,0.0,0.0,0.0,0.0,0.0,0.0,0.0,0.0602162429571206,-0.09657986750455283,9.808814891847591,0.0,0.0,0.0,0.0,0.0,0.0,0.0,0.0,0.0
214.28975,212808,214,289250000,imu_link,-0.00463690196366945,-0.003139030952617257,0.003778188263100547,0.9999771851988957,0.0,0.0,0.0,0.0,0.0,0.0,0.0,0.0,0.0,-0.002897885656212385,7.027877900264433e-05,-0.04492723311231224,0.0,0.0,0.0,0.0,0.0,0.0,0.0,0.0,0.0,0.06021207395657151,-0.09663102366973977,9.808813575250909,0.0,0.0,0.0,0.0,0.0,0.0,0.0,0.0,0.0
214.28975,212809,214,290250000,imu_link,-0.004638479545654512,-0.003138870508820854,0.0037553791473073903,0.9999772643049908,0.0,0.0,0.0,0.0,0.0,0.0,0.0,0.0,0.0,-0.0027459842528417206,7.093764401874103e-05,-0.046133250099029334,0.0,0.0,0.0,0.0,0.0,0.0,0.0,0.0,0.0,0.060581132045255066,-0.09590046301641059,9.808757821314996,0.0,0.0,0.0,0.0,0.0,0.0,0.0,0.0,0.0
214.2915,212810,214,291250000,imu_link,-0.004639973765828746,-0.003138712414782345,0.003731986975250098,0.9999773454439088,0.0,0.0,0.0,0.0,0.0,0.0,0.0,0.0,0.0,-0.0025838059448972947,7.098093793297033e-05,-0.047300534159595946,0.0,0.0,0.0,0.0,0.0,0.0,0.0,0.0,0.0,0.06070084148729584,-0.09570648422716695,9.808739547551383,0.0,0.0,0.0,0.0,0.0,0.0,0.0,0.0,0.0
214.2925,212811,214,292250000,imu_link,-0.004641354334958972,-0.0031385538755637275,0.003708023374455743,0.999977428681349,0.0,0.0,0.0,0.0,0.0,0.0,0.0,0.0,0.0,-0.0023391226247851432,7.768491355634733e-05,-0.048410690067731355,0.0,0.0,0.0,0.0,0.0,0.0,0.0,0.0,0.0,0.06038400164698776,-0.09456124074864912,9.808580475494903,0.0,0.0,0.0,0.0,0.0,0.0,0.0,0.0,0.0
214.2945,212812,214,293250000,imu_link,-0.004642641041746359,-0.003138397077786015,0.003683524289852253,0.9999775137455572,0.0,0.0,0.0,0.0,0.0,0.0,0.0,0.0,0.0,-0.002175131019470033,7.645511608165819e-05,-0.04947835932247436,0.0,0.0,0.0,0.0,0.0,0.0,0.0,0.0,0.0,0.06096757433998121,-0.0952515465314311,9.808734485713021,0.0,0.0,0.0,0.0,0.0,0.0,0.0,0.0,0.0
214.2945,212813,214,294250000,imu_link,-0.004643844914659051,-0.0031382429861842804,0.003658491067269029,0.9999776005383715,0.0,0.0,0.0,0.0,0.0,0.0,0.0,0.0,0.0,-0.002013392159066692,7.53223921444786e-05,-0.05054789570419309,0.0,0.0,0.0,0.0,0.0,0.0,0.0,0.0,0.0,0.06096419939246877,-0.09529430981724515,9.808730488898519,0.0,0.0,0.0,0.0,0.0,0.0,0.0,0.0,0.0
214.29525,212814,214,295250000,imu_link,-0.004644965977267539,-0.0031380916020765336,0.0036329281630294945,0.9999776890036745,0.0,0.0,0.0,0.0,0.0,0.0,0.0,0.0,0.0,-0.0018933465838922646,7.452141446040268e-05,-0.05135132763114955,0.0,0.0,0.0,0.0,0.0,0.0,0.0,0.0,0.0,0.06096066720451638,-0.09533396042720592,9.808730320906413,0.0,0.0,0.0,0.0,0.0,0.0,0.0,0.0,0.0
214.2965,212815,214,296250000,imu_link,-0.004645991153033382,-0.003137943314157996,0.003606899410448217,0.9999777789304151,0.0,0.0,0.0,0.0,0.0,0.0,0.0,0.0,0.0,-0.0016490667994352821,7.080027396406652e-05,-0.05247687044739222,0.0,0.0,0.0,0.0,0.0,0.0,0.0,0.0,0.0,0.06135523083565579,-0.09437880220476456,9.808699168935636,0.0,0.0,0.0,0.0,0.0,0.0,0.0,0.0,0.0
214.2975,212816,214,297250000,imu_link,-0.004646918655628029,-0.003137798268772911,0.0035804314343652896,0.9999778701950242,0.0,0.0,0.0,0.0,0.0,0.0,0.0,0.0,0.0,-0.0015065190415622493,6.83438362094334e-05,-0.05312311109128101,0.0,0.0,0.0,0.0,0.0,0.0,0.0,0.0,0.0,0.061448751233503185,-0.09421334308492162,9.808710832086273,0.0,0.0,0.0,0.0,0.0,0.0,0.0,0.0,0.0
214.2985,212817,214,298250000,imu_link,-0.0046477519813254665,-0.0031376567752221573,0.003553568991209497,0.9999779625866291,0.0,0.0,0.0,0.0,0.0,0.0,0.0,0.0,0.0,-0.0012745151699966883,6.295387728379995e-05,-0.0541013120367415,0.0,0.0,0.0,0.0,0.0,0.0,0.0,0.0,0.0,0.06163684118241486,-0.09387858601608558,9.808726572474823,0.0,0.0,0.0,0.0,0.0,0.0,0.0,0.0,0.0
214.3005,212818,214,299250000,imu_link,-0.0046484926895618865,-0.003137518832830901,0.0035263147341666867,0.999978056057074,0.0,0.0,0.0,0.0,0.0,0.0,0.0,0.0,0.0,-0.001092429332413805,5.878439464266039e-05,-0.054886432206907323,0.0,0.0,0.0,0.0,0.0,0.0,0.0,0.0,0.0,0.061632899389007394,-0.09390929263799874,9.808731290292544,0.0,0.0,0.0,0.0,0.0,0.0,0.0,0.0,0.0
214.3005,212819,214,300250000,imu_link,-0.004649065359452286,-0.0031373821637809027,0.003498679071335785,0.9999781508959072,0.0,0.0,0.0,0.0,0.0,0.0,0.0,0.0,0.0,-0.0006081352814571286,6.2241448652447e-05,-0.0556057456142236,0.0,0.0,0.0,0.0,0.0,0.0,0.0,0.0,0.0,0.06183476744948425,-0.09074305361461155,9.807254155826568,0.0,0.0,0.0,0.0,0.0,0.0,0.0,0.0,0.0
214.3025,212820,214,301250000,imu_link,-0.004649462387470422,-0.0031372469793597944,0.003470727591788713,0.9999782468788416,0.0,0.0,0.0,0.0,0.0,0.0,0.0,0.0,0.0,-0.0004013736478622866,5.638678344152616e-05,-0.05621805429580872,0.0,0.0,0.0,0.0,0.0,0.0,0.0,0.0,0.0,0.061992056689271324,-0.0931008775605567,9.808700700554793,0.0,0.0,0.0,0.0,0.0,0.0,0.0,0.0,0.0
214.3025,212821,214,302250000,imu_link,-0.004649816253161288,-0.0031370835270741067,0.003435357178653422,0.9999783678844313,0.0,0.0,0.0,0.0,0.0,0.0,0.0,0.0,0.0,-0.00020173119049790589,5.060135567571729e-05,-0.05683252202340715,0.0,0.0,0.0,0.0,0.0,0.0,0.0,0.0,0.0,0.06199819972136037,-0.093125838557133,9.808715142096352,0.0,0.0,0.0,0.0,0.0,0.0,0.0,0.0,0.0
214.30325,212822,214,303250000,imu_link,-0.0046499563979918454,-0.0031369885438468858,0.003413928726013489,0.9999784409171161,0.0,0.0,0.0,0.0,0.0,0.0,0.0,0.0,0.0,-6.03958826319166e-05,4.567787687715027e-05,-0.057229327281972386,0.0,0.0,0.0,0.0,0.0,0.0,0.0,0.0,0.0,0.06219006232558262,-0.09273918161692576,9.80874427870514,0.0,0.0,0.0,0.0,0.0,0.0,0.0,0.0,0.0
214.3045,212823,214,304250000,imu_link,-0.004650062443915488,-0.003136865680821844,0.0033851443517503373,0.9999785386650487,0.0,0.0,0.0,0.0,0.0,0.0,0.0,0.0,0.0,0.00012291698967948568,3.866018348323501e-05,-0.057717139410309114,0.0,0.0,0.0,0.0,0.0,0.0,0.0,0.0,0.0,0.06228334587017031,-0.0925703508730119,9.80876134795842,0.0,0.0,0.0,0.0,0.0,0.0,0.0,0.0,0.0
214.306,212824,214,305250000,imu_link,-0.0046500776862609386,-0.0031367471004684648,0.003356115187423282,0.9999786368148011,0.0,0.0,0.0,0.0,0.0,0.0,0.0,0.0,0.0,0.00034758034364739684,2.998601727929373e-05,-0.05833072066304244,0.0,0.0,0.0,0.0,0.0,0.0,0.0,0.0,0.0,0.06228055892688922,-0.09258982631617618,9.80876792444395,0.0,0.0,0.0,0.0,0.0,0.0,0.0,0.0,0.0
214.307,212825,214,306250000,imu_link,-0.004650005785730453,-0.003136633023023243,0.0033268964639109055,0.999978735143598,0.0,0.0,0.0,0.0,0.0,0.0,0.0,0.0,0.0,0.00047585930166250305,2.3615103353384e-05,-0.058565109623080036,0.0,0.0,0.0,0.0,0.0,0.0,0.0,0.0,0.0,0.0625885808138172,-0.09172854504181546,9.80883101441244,0.0,0.0,0.0,0.0,0.0,0.0,0.0,0.0,0.0
214.307,212826,214,307250000,imu_link,-0.004649848536719768,-0.0031365236422091305,0.0032975206105659532,0.9999788335189153,0.0,0.0,0.0,0.0,0.0,0.0,0.0,0.0,0.0,0.0006872305264460478,1.29736251361619e-05,-0.05895950942433016,0.0,0.0,0.0,0.0,0.0,0.0,0.0,0.0,0.0,0.06258541619622235,-0.09175349761869915,9.80883775514482,0.0,0.0,0.0,0.0,0.0,0.0,0.0,0.0,0.0
214.30875,212827,214,308250000,imu_link,-0.004649450630831973,-0.0031363858387445705,0.0032605965314717674,0.999978956880074,0.0,0.0,0.0,0.0,0.0,0.0,0.0,0.0,0.0,0.0010052522268631824,2.341924714009127e-05,-0.059181638633415225,0.0,0.0,0.0,0.0,0.0,0.0,0.0,0.0,0.0,0.06114772388182301,-0.08892554723557494,9.80846524234779,0.0,0.0,0.0,0.0,0.0,0.0,0.0,0.0,0.0
214.3095,212828,214,309250000,imu_link,-0.00464912996917289,-0.0031363048433459503,0.0032383623921996936,0.9999790308758859,0.0,0.0,0.0,0.0,0.0,0.0,0.0,0.0,0.0,0.0011641178523948115,1.4020121962638524e-05,-0.05938177446978942,0.0,0.0,0.0,0.0,0.0,0.0,0.0,0.0,0.0,0.0628204079500739,-0.09123194846501952,9.80884078834897,0.0,0.0,0.0,0.0,0.0,0.0,0.0,0.0,0.0
214.31025,212829,214,310250000,imu_link,-0.004648633258813393,-0.003136201192327425,0.003208628198005176,0.9999791293602048,0.0,0.0,0.0,0.0,0.0,0.0,0.0,0.0,0.0,0.0013217917273407034,4.473892099288938e-06,-0.059585090490082725,0.0,0.0,0.0,0.0,0.0,0.0,0.0,0.0,0.0,0.06281199134671185,-0.0912423592629763,9.808891345139847,0.0,0.0,0.0,0.0,0.0,0.0,0.0,0.0,0.0
214.31125,212830,214,311250000,imu_link,-0.004648055329344187,-0.003136102657870771,0.0031788597227392678,0.999979227430569,0.0,0.0,0.0,0.0,0.0,0.0,0.0,0.0,0.0,0.001486042128125463,-6.257479654110237e-06,-0.059627254039219,0.0,0.0,0.0,0.0,0.0,0.0,0.0,0.0,0.0,0.06307534190348738,-0.09049238881970806,9.808892358791258,0.0,0.0,0.0,0.0,0.0,0.0,0.0,0.0,0.0
214.31225,212831,214,312250000,imu_link,-0.004647394265164455,-0.0031360094147060537,0.0031490963388074045,0.9999793249681435,0.0,0.0,0.0,0.0,0.0,0.0,0.0,0.0,0.0,0.001692637350977332,-2.0210343682495496e-05,-0.05961615509351339,0.0,0.0,0.0,0.0,0.0,0.0,0.0,0.0,0.0,0.06315975970624842,-0.0902660631754306,9.808900655268342,0.0,0.0,0.0,0.0,0.0,0.0,0.0,0.0,0.0
214.3135,212832,214,313250000,imu_link,-0.004646651727502138,-0.0031359215153973236,0.0031193596810852897,0.9999794218978472,0.0,0.0,0.0,0.0,0.0,0.0,0.0,0.0,0.0,0.0018557345117842276,-3.212417736291212e-05,-0.05951812877290389,0.0,0.0,0.0,0.0,0.0,0.0,0.0,0.0,0.0,0.06331818955996775,-0.08985915724191547,9.808915309232582,0.0,0.0,0.0,0.0,0.0,0.0,0.0,0.0,0.0
214.31475,212833,214,314250000,imu_link,-0.004645828244235906,-0.0031358391493753308,0.003089686685411973,0.9999795181047163,0.0,0.0,0.0,0.0,0.0,0.0,0.0,0.0,0.0,0.0019769069237022666,-4.125429345054302e-05,-0.05942363550006772,0.0,0.0,0.0,0.0,0.0,0.0,0.0,0.0,0.0,0.06336926599214153,-0.08973010940001237,9.808925296652282,0.0,0.0,0.0,0.0,0.0,0.0,0.0,0.0,0.0
214.3155,212834,214,315250000,imu_link,-0.004644925623418484,-0.003135762293155822,0.003060081817319475,0.9999796135722294,0.0,0.0,0.0,0.0,0.0,0.0,0.0,0.0,0.0,0.0021736494133386985,-5.663914383399306e-05,-0.0592213881582318,0.0,0.0,0.0,0.0,0.0,0.0,0.0,0.0,0.0,0.06343822955876185,-0.08952614411885607,9.808934825205393,0.0,0.0,0.0,0.0,0.0,0.0,0.0,0.0,0.0
214.3165,212835,214,316250000,imu_link,-0.004643944717439475,-0.003135691163819427,0.0030306163429249166,0.9999797080856033,0.0,0.0,0.0,0.0,0.0,0.0,0.0,0.0,0.0,0.0023320248530352148,-7.028979520725938e-05,-0.05890807709758799,0.0,0.0,0.0,0.0,0.0,0.0,0.0,0.0,0.0,0.06371522201682721,-0.08881831585683432,9.808945904167057,0.0,0.0,0.0,0.0,0.0,0.0,0.0,0.0,0.0
214.3175,212836,214,317250000,imu_link,-0.004642886741306946,-0.003135625805509556,0.0030013067995627546,0.9999798016015176,0.0,0.0,0.0,0.0,0.0,0.0,0.0,0.0,0.0,0.002486022592479806,-8.376894807528378e-05,-0.058597969817287265,0.0,0.0,0.0,0.0,0.0,0.0,0.0,0.0,0.0,0.06371377004606196,-0.08879846431484009,9.808956684663618,0.0,0.0,0.0,0.0,0.0,0.0,0.0,0.0,0.0
214.3185,212837,214,318250000,imu_link,-0.004641754153886366,-0.003135566182716322,0.002972162937660627,0.9999798940931566,0.0,0.0,0.0,0.0,0.0,0.0,0.0,0.0,0.0,0.002596903998539652,-9.38846604298423e-05,-0.05833704180699278,0.0,0.0,0.0,0.0,0.0,0.0,0.0,0.0,0.0,0.06377220464062502,-0.08859801681030827,9.808972856253668,0.0,0.0,0.0,0.0,0.0,0.0,0.0,0.0,0.0
214.3195,212838,214,319250000,imu_link,-0.004640550405981775,-0.0031355123292451698,0.002943228611354961,0.9999799854295605,0.0,0.0,0.0,0.0,0.0,0.0,0.0,0.0,0.0,0.0027407913685895883,-0.00010793698903128737,-0.057911339942521484,0.0,0.0,0.0,0.0,0.0,0.0,0.0,0.0,0.0,0.06388701263858254,-0.08827087053168352,9.808995287763098,0.0,0.0,0.0,0.0,0.0,0.0,0.0,0.0,0.0
214.32075,212839,214,320250000,imu_link,-0.004639277231872038,-0.003135464227808364,0.0029145059081221885,0.9999800756145862,0.0,0.0,0.0,0.0,0.0,0.0,0.0,0.0,0.0,0.0028808102077596625,-0.00012185646379847603,-0.057488946941574595,0.0,0.0,0.0,0.0,0.0,0.0,0.0,0.0,0.0,0.06388577876229633,-0.08825033764780389,9.809005872926551,0.0,0.0,0.0,0.0,0.0,0.0,0.0,0.0,0.0
214.322,212840,214,321250000,imu_link,-0.004637936185454562,-0.0031354218584706446,0.0028859931328686504,0.9999801646639529,0.0,0.0,0.0,0.0,0.0,0.0,0.0,0.0,0.0,0.003051457826446317,-0.00013916217430981785,-0.05696569611468048,0.0,0.0,0.0,0.0,0.0,0.0,0.0,0.0,0.0,0.06388371303135885,-0.08823898275869488,9.809016902498144,0.0,0.0,0.0,0.0,0.0,0.0,0.0,0.0,0.0
214.322,212841,214,322250000,imu_link,-0.004636528756988506,-0.0031353852019445727,0.002857688600520814,0.9999802525933118,0.0,0.0,0.0,0.0,0.0,0.0,0.0,0.0,0.0,0.003184645800201151,-0.00015292424279417208,-0.05655086680854595,0.0,0.0,0.0,0.0,0.0,0.0,0.0,0.0,0.0,0.0638817964301556,-0.0882266942023461,9.809027396197392,0.0,0.0,0.0,0.0,0.0,0.0,0.0,0.0,0.0
214.3235,212842,214,323250000,imu_link,-0.004634968877532874,-0.0031353426278415016,0.0028296355569469855,0.9999803397330996,0.0,0.0,0.0,0.0,0.0,0.0,0.0,0.0,0.0,0.003550042303593591,-0.00013714903466712132,-0.05595451530749115,0.0,0.0,0.0,0.0,0.0,0.0,0.0,0.0,0.0,0.0627949381541769,-0.0855549321808838,9.810027435409316,0.0,0.0,0.0,0.0,0.0,0.0,0.0,0.0,0.0
214.32525,212843,214,324250000,imu_link,-0.004633312876234571,-0.003135301906641553,0.0028019173307008392,0.9999804255849296,0.0,0.0,0.0,0.0,0.0,0.0,0.0,0.0,0.0,0.0036523794782310766,-0.0001487702831302896,-0.0554511719986203,0.0,0.0,0.0,0.0,0.0,0.0,0.0,0.0,0.0,0.064233292037883,-0.0872578097923969,9.809024824729402,0.0,0.0,0.0,0.0,0.0,0.0,0.0,0.0,0.0
214.32525,212844,214,325250000,imu_link,-0.004631591216203401,-0.0031352671735099882,0.0027745336106541276,0.9999805100229705,0.0,0.0,0.0,0.0,0.0,0.0,0.0,0.0,0.0,0.003785238289190252,-0.0001641803427637536,-0.05478300524102215,0.0,0.0,0.0,0.0,0.0,0.0,0.0,0.0,0.0,0.06421972638893347,-0.0872311878465922,9.80904615578555,0.0,0.0,0.0,0.0,0.0,0.0,0.0,0.0,0.0
214.3265,212845,214,326250000,imu_link,-0.004629748314270843,-0.0031352351291989225,0.002747502042157847,0.9999805932935696,0.0,0.0,0.0,0.0,0.0,0.0,0.0,0.0,0.0,0.004107350599497427,-0.0001713977588824196,-0.05385747597548194,0.0,0.0,0.0,0.0,0.0,0.0,0.0,0.0,0.0,0.06367166943797646,-0.08550549599158043,9.808832848423258,0.0,0.0,0.0,0.0,0.0,0.0,0.0,0.0,0.0
214.3275,212846,214,327250000,imu_link,-0.004627809652205326,-0.003135206235159991,0.0027208864401300596,0.9999806751316077,0.0,0.0,0.0,0.0,0.0,0.0,0.0,0.0,0.0,0.004267191405201302,-0.00018856937323859962,-0.053016305374438126,0.0,0.0,0.0,0.0,0.0,0.0,0.0,0.0,0.0,0.06449201624965237,-0.08609190355157462,9.809034262143578,0.0,0.0,0.0,0.0,0.0,0.0,0.0,0.0,0.0
214.3285,212847,214,328250000,imu_link,-0.004625796435897746,-0.0031351838249512316,0.0026947031876426407,0.9999807554170471,0.0,0.0,0.0,0.0,0.0,0.0,0.0,0.0,0.0,0.004409693144602495,-0.00020616283741898439,-0.05211140867489188,0.0,0.0,0.0,0.0,0.0,0.0,0.0,0.0,0.0,0.06459511933082968,-0.0859382645318813,9.809049881245949,0.0,0.0,0.0,0.0,0.0,0.0,0.0,0.0,0.0
214.3295,212848,214,329250000,imu_link,-0.004623719490851988,-0.0031351680386929675,0.0026690007910471964,0.9999808340034407,0.0,0.0,0.0,0.0,0.0,0.0,0.0,0.0,0.0,0.004537663028980036,-0.0002242246158626072,-0.051143030592081216,0.0,0.0,0.0,0.0,0.0,0.0,0.0,0.0,0.0,0.0646959059739217,-0.08580276313847529,9.80907694035285,0.0,0.0,0.0,0.0,0.0,0.0,0.0,0.0,0.0
214.3305,212849,214,330250000,imu_link,-0.004621581224863131,-0.0031351588533769467,0.0026437817401575273,0.9999809109098315,0.0,0.0,0.0,0.0,0.0,0.0,0.0,0.0,0.0,0.004661984869493348,-0.00024219696106744687,-0.05017800792392715,0.0,0.0,0.0,0.0,0.0,0.0,0.0,0.0,0.0,0.06469518244089846,-0.0857699874170894,9.809088321248561,0.0,0.0,0.0,0.0,0.0,0.0,0.0,0.0,0.0
214.3315,212850,214,331250000,imu_link,-0.00461938476562581,-0.0031351561983245734,0.0026190599498870652,0.9999809861217253,0.0,0.0,0.0,0.0,0.0,0.0,0.0,0.0,0.0,0.004776272498582826,-0.0002603279098188281,-0.049133166721796406,0.0,0.0,0.0,0.0,0.0,0.0,0.0,0.0,0.0,0.06481831526861585,-0.08526545639676465,9.809117117610095,0.0,0.0,0.0,0.0,0.0,0.0,0.0,0.0,0.0
214.33275,212851,214,332250000,imu_link,-0.004617136194775772,-0.003135160019759595,0.00259489597349891,0.9999810594905767,0.0,0.0,0.0,0.0,0.0,0.0,0.0,0.0,0.0,0.00488254181186266,-0.00027876637505961814,-0.04800878416261789,0.0,0.0,0.0,0.0,0.0,0.0,0.0,0.0,0.0,0.06494071172076608,-0.08477344814296638,9.809146214018687,0.0,0.0,0.0,0.0,0.0,0.0,0.0,0.0,0.0
214.3335,212852,214,333250000,imu_link,-0.0046148376684634436,-0.003135170285050727,0.002571293309225306,0.9999811310376289,0.0,0.0,0.0,0.0,0.0,0.0,0.0,0.0,0.0,0.0049597962733812315,-0.00029251594016683894,-0.04716766737641119,0.0,0.0,0.0,0.0,0.0,0.0,0.0,0.0,0.0,0.0649415508019483,-0.08472599367008245,9.809156326996673,0.0,0.0,0.0,0.0,0.0,0.0,0.0,0.0,0.0
214.3345,212853,214,334250000,imu_link,-0.004612503341094669,-0.003135186954468578,0.0025482546765601918,0.9999812007301899,0.0,0.0,0.0,0.0,0.0,0.0,0.0,0.0,0.0,0.00502999944943403,-0.00031073546640747056,-0.0460384781573621,0.0,0.0,0.0,0.0,0.0,0.0,0.0,0.0,0.0,0.06495125880853446,-0.08498137016069124,9.809209007965963,0.0,0.0,0.0,0.0,0.0,0.0,0.0,0.0,0.0
214.336,212854,214,335250000,imu_link,-0.004610141738026544,-0.0031352100029944127,0.0025257810715869026,0.9999812685652523,0.0,0.0,0.0,0.0,0.0,0.0,0.0,0.0,0.0,0.005102046064191051,-0.00033339243009209384,-0.04462713365823099,0.0,0.0,0.0,0.0,0.0,0.0,0.0,0.0,0.0,0.0649542520072913,-0.08503703890963883,9.809234186159953,0.0,0.0,0.0,0.0,0.0,0.0,0.0,0.0,0.0
214.3365,212855,214,336250000,imu_link,-0.004607672967787344,-0.0031352326846944482,0.002503901522520416,0.9999813348973072,0.0,0.0,0.0,0.0,0.0,0.0,0.0,0.0,0.0,0.005384655906735083,-0.00033477845569982286,-0.04335717459816224,0.0,0.0,0.0,0.0,0.0,0.0,0.0,0.0,0.0,0.0640325178507219,-0.08199795458438748,9.808886044528768,0.0,0.0,0.0,0.0,0.0,0.0,0.0,0.0,0.0
214.3375,212856,214,337250000,imu_link,-0.004605131303137028,-0.0031352597200336174,0.00248270484826365,0.999981399371411,0.0,0.0,0.0,0.0,0.0,0.0,0.0,0.0,0.0,0.005461665501488094,-0.0003498064318165301,-0.04232534064066469,0.0,0.0,0.0,0.0,0.0,0.0,0.0,0.0,0.0,0.06536357901883623,-0.08348331122912718,9.809194573719637,0.0,0.0,0.0,0.0,0.0,0.0,0.0,0.0,0.0
214.33925,212857,214,338250000,imu_link,-0.004602542972562714,-0.0031352922415083325,0.002462202781812402,0.9999814618772727,0.0,0.0,0.0,0.0,0.0,0.0,0.0,0.0,0.0,0.0055549919197378835,-0.00036339267954206317,-0.040932431196855405,0.0,0.0,0.0,0.0,0.0,0.0,0.0,0.0,0.0,0.06494478998454223,-0.08337402792044248,9.80923442174762,0.0,0.0,0.0,0.0,0.0,0.0,0.0,0.0,0.0
