Time,header.seq,header.stamp.secs,header.stamp.nsecs,header.frame_id,name,position_0,position_1,position_2,position_3,position_4,position_5,position_6,position_7,position_8,position_9,position_10,position_11,position_12,position_13,position_14,position_15,velocity_0,velocity_1,velocity_2,velocity_3,velocity_4,velocity_5,velocity_6,velocity_7,velocity_8,velocity_9,velocity_10,velocity_11,velocity_12,velocity_13,velocity_14,velocity_15,effort_0,effort_1,effort_2,effort_3,effort_4,effort_5,effort_6,effort_7,effort_8,effort_9,effort_10,effort_11,effort_12,effort_13,effort_14,effort_15
1646243927.4703298,6045,1646243927,469386564,,"['FL0', 'FL1', 'FL2', 'FR0', 'FR1', 'FR2', 'RL0', 'RL1', 'RL2', 'RR0', 'RR1', 'RR2', 'FL_foot', 'FR_foot', 'RL_foot', 'RR_foot']",0.24931401014328003,1.0440759658813477,-2.0882787704467773,-0.12482557445764542,0.8847780227661133,-2.1601736545562744,0.013780534267425537,1.1345133781433105,-2.2074153423309326,-0.3177110254764557,0.7289779186248779,-1.9577641487121582,0.0,0.0,0.0,0.0,0.0781249925494194,-0.0017170329811051488,0.0,0.0712568610906601,-0.018028846010565758,-0.0,0.0008585164323449135,-0.0935782939195633,0.048076923936605453,-0.11761675029993057,0.1674107164144516,0.1493818759918213,0.0,0.0,0.0,0.0,-3.125,0.63671875,6.359375,2.5234375,1.2421875,5.7578125,-2.44921875,0.2109375,6.9296875,4.12109375,1.91796875,6.04296875,24.8,30.8,55.6,32.8
1646243927.471932,6046,1646243927,471633298,,"['FL0', 'FL1', 'FL2', 'FR0', 'FR1', 'FR2', 'RL0', 'RL1', 'RL2', 'RR0', 'RR1', 'RR2', 'FL_foot', 'FR_foot', 'RL_foot', 'RR_foot']",0.24927186965942383,1.0440337657928467,-2.0882787704467773,-0.12482557445764542,0.8847780227661133,-2.1601736545562744,0.013780534267425537,1.1345977783203125,-2.2074153423309326,-0.3176688849925995,0.7289779186248779,-1.9577641487121582,0.0,0.0,0.0,0.0,-0.09443680942058563,-0.02317994460463524,0.0,0.005151098594069481,0.11589972674846649,-0.0,-0.04120878875255585,0.2034684121608734,0.005151099059730768,0.1519574075937271,0.0446428582072258,0.13135302066802979,0.0,0.0,0.0,0.0,-3.234375,0.921875,6.21875,2.5234375,1.20703125,5.7578125,-2.30859375,0.0,6.96484375,4.15625,1.953125,6.078125,24.6,30.6,55.8,32.8
1646243927.474204,6047,1646243927,473849895,,"['FL0', 'FL1', 'FL2', 'FR0', 'FR1', 'FR2', 'RL0', 'RL1', 'RL2', 'RR0', 'RR1', 'RR2', 'FL_foot', 'FR_foot', 'RL_foot', 'RR_foot']",0.24931401014328003,1.0440337657928467,-2.0882787704467773,-0.12486772239208221,0.8846936225891113,-2.1601736545562744,0.013780534267425537,1.1345977783203125,-2.2074153423309326,-0.3176688849925995,0.7289779186248779,-1.9577641487121582,0.0,0.0,0.0,0.0,0.11761675029993057,0.0,0.0,-0.06524725258350372,-0.15281593799591064,-0.0,-0.009443680755794048,0.07039835304021835,0.007726648356765509,0.09100273996591568,-0.004292582627385855,0.06438873708248138,0.0,0.0,0.0,0.0,-3.19921875,0.671875,6.00390625,2.55859375,1.3125,5.61328125,-2.76953125,-0.0703125,7.21484375,4.12109375,2.05859375,6.25390625,24.4,30.2,56.2,32.8
1646243927.4764676,6048,1646243927,476078496,,"['FL0', 'FL1', 'FL2', 'FR0', 'FR1', 'FR2', 'RL0', 'RL1', 'RL2', 'RR0', 'RR1', 'RR2', 'FL_foot', 'FR_foot', 'RL_foot', 'RR_foot']",0.24927186965942383,1.0439918041229248,-2.0882787704467773,-0.12490986287593842,0.8846516609191895,-2.1601736545562744,0.013780534267425537,1.1345977783203125,-2.2073731422424316,-0.3176688849925995,0.7289779186248779,-1.9577641487121582,0.0,0.0,0.0,0.0,-0.10388048738241196,-0.020604396238923073,-0.030906593427062035,-0.16569367051124573,0.012877747416496277,-0.0,-0.0,0.018887363374233246,0.17513737082481384,0.030906591564416885,0.0008585164905525744,0.002575549529865384,0.0,0.0,0.0,0.0,-3.375,0.6015625,6.18359375,2.44921875,1.3828125,5.578125,-2.6640625,0.2109375,7.35546875,4.2265625,2.203125,6.359375,24.4,29.8,56.4,33.0
1646243927.4787552,6049,1646243927,478286977,,"['FL0', 'FL1', 'FL2', 'FR0', 'FR1', 'FR2', 'RL0', 'RL1', 'RL2', 'RR0', 'RR1', 'RR2', 'FL_foot', 'FR_foot', 'RL_foot', 'RR_foot']",0.24927186965942383,1.0439918041229248,-2.0882787704467773,-0.12486772239208221,0.8845672607421875,-2.1601736545562744,0.013780534267425537,1.1345555782318115,-2.2074153423309326,-0.3177110254764557,0.7290198802947998,-1.9578063488006592,0.0,0.0,0.0,0.0,-0.12620191276073456,0.006009615492075682,0.0,0.0,-0.09787087887525558,-0.0,-0.03949175775051117,-0.1674107164144516,0.0,-0.20604394376277924,0.08155906945466995,-0.13221153616905212,0.0,0.0,0.0,0.0,-3.234375,0.63671875,5.86328125,2.37890625,1.3125,5.5078125,-2.55859375,0.0703125,7.390625,4.265625,2.05859375,6.609375,24.2,29.4,56.8,33.2
1646243927.4808693,6050,1646243927,480481351,,"['FL0', 'FL1', 'FL2', 'FR0', 'FR1', 'FR2', 'RL0', 'RL1', 'RL2', 'RR0', 'RR1', 'RR2', 'FL_foot', 'FR_foot', 'RL_foot', 'RR_foot']",0.24931401014328003,1.0439918041229248,-2.0882787704467773,-0.12482557445764542,0.8845250606536865,-2.1601736545562744,0.013780534267425537,1.1346399784088135,-2.2074153423309326,-0.3176688849925995,0.7289779186248779,-1.9577641487121582,0.0,0.0,0.0,0.0,0.01717032864689827,0.06353022158145905,0.0,0.12105081975460052,-0.048076923936605453,0.030906593427062035,0.012877746485173702,0.1674107164144516,0.0,-0.0025755492970347404,-0.04635988920927048,0.06095467135310173,0.0,0.0,0.0,0.0,-3.08984375,0.6015625,6.04296875,2.203125,1.13671875,5.33203125,-2.48828125,0.28125,7.42578125,4.30078125,2.0234375,6.32421875,24.2,29.2,57.2,33.4
1646243927.4830854,6051,1646243927,482750366,,"['FL0', 'FL1', 'FL2', 'FR0', 'FR1', 'FR2', 'RL0', 'RL1', 'RL2', 'RR0', 'RR1', 'RR2', 'FL_foot', 'FR_foot', 'RL_foot', 'RR_foot']",0.24931401014328003,1.0438652038574219,-2.0883209705352783,-0.12490986287593842,0.8844830989837646,-2.1601736545562744,0.013738393783569336,1.1346399784088135,-2.2073731422424316,-0.3176688849925995,0.7289779186248779,-1.9577219486236572,0.0,0.0,0.0,0.0,0.0,-0.18801511824131012,-0.10302197933197021,-0.024896975606679916,0.09958790987730026,0.009443681687116623,-0.12448488175868988,0.13221153616905212,0.0626717060804367,-0.007726647891104221,0.0017170329811051488,0.1674107164144516,0.0,0.0,0.0,0.0,-3.19921875,0.63671875,6.1484375,2.4140625,0.95703125,5.3671875,-2.4140625,0.28125,7.42578125,4.30078125,2.23828125,6.46875,24.4,28.8,57.6,33.6
1646243927.4853706,6052,1646243927,485003463,,"['FL0', 'FL1', 'FL2', 'FR0', 'FR1', 'FR2', 'RL0', 'RL1', 'RL2', 'RR0', 'RR1', 'RR2', 'FL_foot', 'FR_foot', 'RL_foot', 'RR_foot']",0.24931401014328003,1.0438232421875,-2.0882787704467773,-0.12490986287593842,0.8843145370483398,-2.1601736545562744,0.013738393783569336,1.1346399784088135,-2.2073731422424316,-0.3176267147064209,0.7289779186248779,-1.9577641487121582,0.0,0.0,0.0,0.0,-0.06353021413087845,-0.006009615492075682,0.0008585164905525744,-0.0008585164323449135,-0.06782279908657074,0.06095467135310173,-0.008585164323449135,-0.015453296713531017,0.06868132203817368,0.009443680755794048,-0.006009615492075682,-0.010302198119461536,0.0,0.0,0.0,0.0,-3.08984375,0.35546875,5.828125,2.44921875,1.13671875,5.2578125,-2.8046875,0.10546875,7.890625,4.4765625,2.16796875,6.6796875,24.6,28.8,57.8,33.8
1646243927.4875004,6053,1646243927,487191430,,"['FL0', 'FL1', 'FL2', 'FR0', 'FR1', 'FR2', 'RL0', 'RL1', 'RL2', 'RR0', 'RR1', 'RR2', 'FL_foot', 'FR_foot', 'RL_foot', 'RR_foot']",0.24935615062713623,1.043781042098999,-2.0883209705352783,-0.12490986287593842,0.8842301368713379,-2.1602158546447754,0.013738393783569336,1.1346819400787354,-2.2073731422424316,-0.3176267147064209,0.728935718536377,-1.9577219486236572,0.0,0.0,0.0,0.0,0.042067304253578186,0.0034340659622102976,-0.07726648449897766,0.0,-0.0626717060804367,-0.07383241504430771,0.06267169862985611,0.0,0.11589972674846649,-0.11418268829584122,-0.16912774741649628,0.11332418024539948,0.0,0.0,0.0,0.0,-2.87890625,0.6015625,5.93359375,2.23828125,1.3125,5.1875,-2.87890625,0.2109375,7.74609375,4.37109375,1.98828125,6.21875,24.4,28.8,58.0,34.0
1646243927.4897323,6054,1646243927,489414773,,"['FL0', 'FL1', 'FL2', 'FR0', 'FR1', 'FR2', 'RL0', 'RL1', 'RL2', 'RR0', 'RR1', 'RR2', 'FL_foot', 'FR_foot', 'RL_foot', 'RR_foot']",0.24935615062713623,1.043696641921997,-2.0882787704467773,-0.12495200335979462,0.8841879367828369,-2.1602158546447754,0.013696253299713135,1.1347663402557373,-2.2074153423309326,-0.3175845742225647,0.7289779186248779,-1.9577219486236572,0.0,0.0,0.0,0.0,0.005151098594069481,-0.10216346383094788,0.06868132203817368,0.12791894376277924,-0.006009615492075682,-0.004292582627385855,-0.07554944604635239,0.02146291173994541,-0.08756868541240692,0.10731455683708191,-0.030906593427062035,0.07726648449897766,0.0,0.0,0.0,0.0,-2.55859375,0.63671875,5.828125,2.23828125,0.9921875,5.22265625,-2.734375,0.24609375,7.78125,4.62109375,1.953125,6.609375,24.2,28.8,58.0,33.8
1646243927.4922256,6055,1646243927,491677727,,"['FL0', 'FL1', 'FL2', 'FR0', 'FR1', 'FR2', 'RL0', 'RL1', 'RL2', 'RR0', 'RR1', 'RR2', 'FL_foot', 'FR_foot', 'RL_foot', 'RR_foot']",0.24935615062713623,1.043696641921997,-2.0883209705352783,-0.12495200335979462,0.8840615749359131,-2.1602580547332764,0.013696253299713135,1.1348085403442383,-2.2074153423309326,-0.3175424337387085,0.7289779186248779,-1.9577219486236572,0.0,0.0,0.0,0.0,-0.09443680942058563,0.1073145642876625,-0.010302198119461536,0.0,-0.11246565729379654,-0.06353022158145905,-0.0025755492970347404,0.07297389954328537,-0.17771291732788086,0.10903158783912659,-0.0008585164905525744,0.004292582627385855,0.0,0.0,0.0,0.0,-2.76953125,0.56640625,5.578125,2.05859375,0.95703125,4.76171875,-2.9140625,0.31640625,8.17578125,4.9375,1.91796875,6.9296875,24.2,28.8,58.0,33.8
1646243927.4943135,6056,1646243927,493959708,,"['FL0', 'FL1', 'FL2', 'FR0', 'FR1', 'FR2', 'RL0', 'RL1', 'RL2', 'RR0', 'RR1', 'RR2', 'FL_foot', 'FR_foot', 'RL_foot', 'RR_foot']",0.24944044649600983,1.0436124801635742,-2.0883209705352783,-0.12499414384365082,0.8839352130889893,-2.1603002548217773,0.013654112815856934,1.1348505020141602,-2.2073309421539307,-0.3175424337387085,0.728935718536377,-1.9576798677444458,0.0,0.0,0.0,0.0,0.02833104133605957,-0.024038461968302727,-0.006868131924420595,0.0,-0.18801511824131012,-0.01116071455180645,-0.0025755492970347404,0.01717033050954342,0.09529533237218857,-0.0,0.0017170329811051488,-0.0,0.0,0.0,0.0,0.0,-2.59375,0.390625,5.6484375,2.23828125,1.02734375,4.83203125,-2.984375,0.31640625,7.99609375,4.76171875,2.16796875,6.75390625,24.0,29.0,58.2,33.6
1646243927.496668,6057,1646243927,496204839,,"['FL0', 'FL1', 'FL2', 'FR0', 'FR1', 'FR2', 'RL0', 'RL1', 'RL2', 'RR0', 'RR1', 'RR2', 'FL_foot', 'FR_foot', 'RL_foot', 'RR_foot']",0.24952472746372223,1.0435702800750732,-2.0883209705352783,-0.12503628432750702,0.8838930130004883,-2.160342216491699,0.013654112815856934,1.1348505020141602,-2.2073309421539307,-0.3175424337387085,0.7289779186248779,-1.9576798677444458,0.0,0.0,0.0,0.0,0.08585163950920105,-0.0008585164905525744,0.0,-0.09443680942058563,-0.11675824224948883,-0.10216346383094788,-0.03434065729379654,-0.01373626384884119,0.02833104506134987,-0.03863323852419853,0.01373626384884119,0.024038461968302727,0.0,0.0,0.0,0.0,-2.8046875,0.53125,5.5078125,2.1328125,1.13671875,4.7265625,-2.84375,0.0703125,8.17578125,4.7265625,2.1328125,7.109375,23.8,29.0,58.4,33.6
1646243927.4988413,6058,1646243927,498393457,,"['FL0', 'FL1', 'FL2', 'FR0', 'FR1', 'FR2', 'RL0', 'RL1', 'RL2', 'RR0', 'RR1', 'RR2', 'FL_foot', 'FR_foot', 'RL_foot', 'RR_foot']",0.24952472746372223,1.0435280799865723,-2.0883209705352783,-0.12503628432750702,0.8838086128234863,-2.160342216491699,0.013654112815856934,1.1348927021026611,-2.2073309421539307,-0.3175002932548523,0.728935718536377,-1.9576798677444458,0.0,0.0,0.0,0.0,-0.03777472302317619,-0.06610576808452606,0.0,0.0,-0.09271977841854095,-0.024896977469325066,-0.0025755492970347404,0.16826923191547394,0.015453296713531017,0.05151098594069481,-0.0008585164905525744,-0.06181318685412407,0.0,0.0,0.0,0.0,-2.5234375,0.671875,5.33203125,2.1328125,1.02734375,4.76171875,-2.84375,-0.03515625,8.2109375,4.7265625,2.09375,7.0,23.8,29.0,58.6,33.4
1646243927.5008657,6059,1646243927,500586072,,"['FL0', 'FL1', 'FL2', 'FR0', 'FR1', 'FR2', 'RL0', 'RL1', 'RL2', 'RR0', 'RR1', 'RR2', 'FL_foot', 'FR_foot', 'RL_foot', 'RR_foot']",0.24956686794757843,1.0435702800750732,-2.0883209705352783,-0.12507842481136322,0.8838086128234863,-2.160342216491699,0.013654112815856934,1.1348505020141602,-2.2073731422424316,-0.3175002932548523,0.728935718536377,-1.9576798677444458,0.0,0.0,0.0,0.0,0.0,0.09100274741649628,0.0,-0.06782279908657074,0.09186126291751862,-0.0,0.02317994460463524,0.13135302066802979,-0.06438873708248138,0.05666208267211914,-0.0008585164905525744,-0.002575549529865384,0.0,0.0,0.0,0.0,-2.44921875,0.49609375,5.29296875,1.73828125,0.9921875,4.69140625,-2.984375,0.17578125,7.99609375,4.8671875,2.0234375,7.0,24.0,29.0,58.8,33.4
1646243927.5030951,6060,1646243927,502783161,,"['FL0', 'FL1', 'FL2', 'FR0', 'FR1', 'FR2', 'RL0', 'RL1', 'RL2', 'RR0', 'RR1', 'RR2', 'FL_foot', 'FR_foot', 'RL_foot', 'RR_foot']",0.24960900843143463,1.0435280799865723,-2.0883209705352783,-0.12507842481136322,0.8837244510650635,-2.160426616668701,0.013611972332000732,1.1347663402557373,-2.2073309421539307,-0.3175424337387085,0.728935718536377,-1.9576376676559448,0.0,0.0,0.0,0.0,0.08585163950920105,-0.078125,0.009443681687116623,0.02317994460463524,-0.0334821417927742,-0.20690247416496277,0.026614010334014893,-0.052369505167007446,0.0034340659622102976,-0.16397663950920105,-0.0,0.07039835304021835,0.0,0.0,0.0,0.0,-2.69921875,0.53125,5.15234375,1.84765625,1.06640625,4.4765625,-2.94921875,0.0,8.17578125,5.01171875,1.91796875,6.859375,24.0,29.0,59.0,33.4
1646243927.5433762,6061,1646243927,505078039,,"['FL0', 'FL1', 'FL2', 'FR0', 'FR1', 'FR2', 'RL0', 'RL1', 'RL2', 'RR0', 'RR1', 'RR2', 'FL_foot', 'FR_foot', 'RL_foot', 'RR_foot']",0.24965114891529083,1.0435702800750732,-2.0883631706237793,-0.12512058019638062,0.8837244510650635,-2.160468578338623,0.013569831848144531,1.1346819400787354,-2.2072887420654297,-0.3174581527709961,0.728893518447876,-1.9576376676559448,0.0,0.0,0.0,0.0,0.03863323852419853,0.07125686854124069,-0.05494505539536476,0.06009615212678909,-0.041208792477846146,-0.13478708267211914,-0.13564559817314148,-0.10645604133605957,-0.030048077926039696,0.0781249925494194,0.03777472674846649,-0.018887363374233246,0.0,0.0,0.0,0.0,-2.55859375,0.390625,5.33203125,1.91796875,1.2421875,4.30078125,-3.125,-0.140625,8.38671875,4.796875,2.0234375,7.109375,24.0,29.0,59.2,33.4
1646243927.5434136,6062,1646243927,507281083,,"['FL0', 'FL1', 'FL2', 'FR0', 'FR1', 'FR2', 'RL0', 'RL1', 'RL2', 'RR0', 'RR1', 'RR2', 'FL_foot', 'FR_foot', 'RL_foot', 'RR_foot']",0.24965114891529083,1.0435280799865723,-2.0883631706237793,-0.12512058019638062,0.8837244510650635,-2.160510778427124,0.01352769136428833,1.1346399784088135,-2.207246780395508,-0.3174581527709961,0.728893518447876,-1.9576376676559448,0.0,0.0,0.0,0.0,0.001717032864689827,-0.08499313145875931,0.004292582627385855,0.06009615212678909,0.03863324224948883,-0.006009615492075682,-0.08070054650306702,0.036916207522153854,-0.024896977469325066,0.013736262917518616,0.053228020668029785,-0.005151099059730768,0.0,0.0,0.0,0.0,-2.5234375,0.671875,5.08203125,1.77734375,1.06640625,4.44140625,-3.3046875,0.0703125,8.38671875,5.1171875,1.91796875,7.109375,24.0,29.0,59.2,33.4
1646243927.5434334,6063,1646243927,509472580,,"['FL0', 'FL1', 'FL2', 'FR0', 'FR1', 'FR2', 'RL0', 'RL1', 'RL2', 'RR0', 'RR1', 'RR2', 'FL_foot', 'FR_foot', 'RL_foot', 'RR_foot']",0.24969328939914703,1.0435702800750732,-2.0883631706237793,-0.12516272068023682,0.8837244510650635,-2.160510778427124,0.013569831848144531,1.1345555782318115,-2.207246780395508,-0.3174581527709961,0.728851318359375,-1.9576376676559448,0.0,0.0,0.0,0.0,0.0025755492970347404,0.02747252769768238,0.00858516525477171,0.0,-0.0,-0.012019230984151363,0.07640796154737473,0.015453296713531017,-0.053228020668029785,-0.005151098594069481,0.08499313145875931,-0.048076923936605453,0.0,0.0,0.0,0.0,-2.44921875,0.63671875,5.1171875,1.98828125,1.06640625,4.30078125,-3.01953125,-0.03515625,8.38671875,5.08203125,1.91796875,7.3203125,24.0,29.0,59.2,33.6
1646243927.5434463,6064,1646243927,511662594,,"['FL0', 'FL1', 'FL2', 'FR0', 'FR1', 'FR2', 'RL0', 'RL1', 'RL2', 'RR0', 'RR1', 'RR2', 'FL_foot', 'FR_foot', 'RL_foot', 'RR_foot']",0.24977758526802063,1.0435702800750732,-2.0883631706237793,-0.12520486116409302,0.8837244510650635,-2.160510778427124,0.01352769136428833,1.1345133781433105,-2.207204580307007,-0.3174160122871399,0.7288093566894531,-1.9575955867767334,0.0,0.0,0.0,0.0,0.1648351550102234,0.0,0.15024039149284363,-0.0008585164323449135,-0.06353022158145905,0.04979395493865013,-0.009443680755794048,0.025755494832992554,0.05408653989434242,0.006009615026414394,-0.007726648356765509,0.078125,0.0,0.0,0.0,0.0,-2.34375,0.53125,5.08203125,1.77734375,1.06640625,4.40625,-3.234375,0.140625,8.53125,5.01171875,1.8125,7.35546875,24.2,29.0,59.2,33.8
1646243927.5434933,6065,1646243927,513888383,,"['FL0', 'FL1', 'FL2', 'FR0', 'FR1', 'FR2', 'RL0', 'RL1', 'RL2', 'RR0', 'RR1', 'RR2', 'FL_foot', 'FR_foot', 'RL_foot', 'RR_foot']",0.24981972575187683,1.0435702800750732,-2.0884475708007812,-0.12524700164794922,0.8837244510650635,-2.160595178604126,0.013485550880432129,1.1344714164733887,-2.207204580307007,-0.3174160122871399,0.7287671566009521,-1.9575955867767334,0.0,0.0,0.0,0.0,-0.10388048738241196,-0.002575549529865384,-0.01373626384884119,0.03434065729379654,0.006009615492075682,-0.0446428582072258,-0.12620191276073456,-0.0017170329811051488,0.00858516525477171,-0.05236950144171715,-0.07469093799591064,-0.0,0.0,0.0,0.0,0.0,-2.44921875,0.7109375,4.90234375,1.8125,1.171875,4.015625,-3.19921875,-0.140625,8.6015625,5.08203125,1.77734375,7.3203125,24.2,29.0,59.2,33.8
1646243927.5435135,6066,1646243927,516080895,,"['FL0', 'FL1', 'FL2', 'FR0', 'FR1', 'FR2', 'RL0', 'RL1', 'RL2', 'RR0', 'RR1', 'RR2', 'FL_foot', 'FR_foot', 'RL_foot', 'RR_foot']",0.24994614720344543,1.0436124801635742,-2.0884475708007812,-0.12528914213180542,0.8837244510650635,-2.160637378692627,0.013485550880432129,1.1344714164733887,-2.207204580307007,-0.3173738718032837,0.7287671566009521,-1.9575955867767334,0.0,0.0,0.0,0.0,0.1004464253783226,0.07211538404226303,0.0,-0.020604394376277924,-0.002575549529865384,-0.029189560562372208,-0.0008585164323449135,0.009443681687116623,0.0,-0.0,-0.04378434270620346,-0.0,0.0,0.0,0.0,0.0,-2.05859375,0.63671875,5.046875,1.8828125,1.13671875,4.12109375,-3.3046875,-0.140625,8.53125,5.1875,1.84765625,7.53515625,24.2,29.0,59.0,34.0
1646243927.5435276,6067,1646243927,518316248,,"['FL0', 'FL1', 'FL2', 'FR0', 'FR1', 'FR2', 'RL0', 'RL1', 'RL2', 'RR0', 'RR1', 'RR2', 'FL_foot', 'FR_foot', 'RL_foot', 'RR_foot']",0.25007256865501404,1.0436124801635742,-2.088489532470703,-0.12541556358337402,0.8837666511535645,-2.16072154045105,0.013443410396575928,1.1344292163848877,-2.207120418548584,-0.3173317313194275,0.7287671566009521,-1.9575955867767334,0.0,0.0,0.0,0.0,0.04550136998295784,-0.01631181314587593,-0.12190934270620346,-0.1631181240081787,0.11418269574642181,-0.14594779908657074,-0.059237632900476456,0.0,0.11847527325153351,0.02232142724096775,-0.0,-0.10216346383094788,0.0,0.0,0.0,0.0,-2.55859375,0.6015625,4.8671875,1.52734375,1.171875,4.015625,-3.33984375,-0.2109375,8.77734375,5.3671875,1.8828125,7.53515625,24.2,29.0,59.0,34.0
1646243927.543552,6068,1646243927,520553078,,"['FL0', 'FL1', 'FL2', 'FR0', 'FR1', 'FR2', 'RL0', 'RL1', 'RL2', 'RR0', 'RR1', 'RR2', 'FL_foot', 'FR_foot', 'RL_foot', 'RR_foot']",0.25019899010658264,1.043696641921997,-2.088489532470703,-0.12545770406723022,0.8837244510650635,-2.16072154045105,0.013443410396575928,1.1343870162963867,-2.207120418548584,-0.3172895908355713,0.7287249565124512,-1.9575955867767334,0.0,0.0,0.0,0.0,0.19144916534423828,0.11418269574642181,0.012019230984151363,-0.12877745926380157,-0.005151099059730768,-0.0017170329811051488,-0.021462909877300262,0.06009615585207939,0.0017170329811051488,0.08413460850715637,-0.1116071417927742,-0.08585164695978165,0.0,0.0,0.0,0.0,-2.16796875,1.06640625,4.8671875,1.52734375,1.3125,3.91015625,-3.375,-0.42578125,8.84765625,5.3671875,1.84765625,7.74609375,24.2,29.2,59.0,34.0
1646243927.5436225,6069,1646243927,522731121,,"['FL0', 'FL1', 'FL2', 'FR0', 'FR1', 'FR2', 'RL0', 'RL1', 'RL2', 'RR0', 'RR1', 'RR2', 'FL_foot', 'FR_foot', 'RL_foot', 'RR_foot']",0.25028330087661743,1.0436546802520752,-2.088531732559204,-0.12549985945224762,0.8837244510650635,-2.1608059406280518,0.013401269912719727,1.1343026161193848,-2.207120418548584,-0.3172895908355713,0.7287249565124512,-1.9575111865997314,0.0,0.0,0.0,0.0,0.1116071343421936,-0.11761675775051117,-0.012877747416496277,-0.004292582161724567,-0.07984203100204468,-0.03863324224948883,-0.003434065729379654,-0.01373626384884119,-0.07726648449897766,-0.0008585164323449135,-0.0,0.16397665441036224,0.0,0.0,0.0,0.0,-2.203125,0.921875,4.546875,1.703125,1.02734375,3.765625,-3.4453125,-0.31640625,8.63671875,5.3671875,1.66796875,7.5703125,24.0,29.4,59.0,34.0
1646243927.543638,6070,1646243927,524992903,,"['FL0', 'FL1', 'FL2', 'FR0', 'FR1', 'FR2', 'RL0', 'RL1', 'RL2', 'RR0', 'RR1', 'RR2', 'FL_foot', 'FR_foot', 'RL_foot', 'RR_foot']",0.25045186281204224,1.043696641921997,-2.088573932647705,-0.12558414041996002,0.8837244510650635,-2.1608481407165527,0.013359129428863525,1.134176254272461,-2.206993818283081,-0.3172474503517151,0.7287249565124512,-1.9575533866882324,0.0,0.0,0.0,0.0,0.16569367051124573,-0.030906593427062035,0.0,-0.006009615026414394,-0.006868131924420595,0.13307005167007446,0.006009615026414394,-0.03777472674846649,0.14852334558963776,0.007726647891104221,0.1073145642876625,-0.13736264407634735,0.0,0.0,0.0,0.0,-2.0234375,0.7109375,4.796875,1.45703125,1.13671875,3.87109375,-3.48046875,-0.49609375,8.88671875,5.578125,1.77734375,7.53515625,24.2,29.6,59.0,34.0
1646243927.543722,6071,1646243927,527216980,,"['FL0', 'FL1', 'FL2', 'FR0', 'FR1', 'FR2', 'RL0', 'RL1', 'RL2', 'RR0', 'RR1', 'RR2', 'FL_foot', 'FR_foot', 'RL_foot', 'RR_foot']",0.25049400329589844,1.043738842010498,-2.088573932647705,-0.12562628090381622,0.8837244510650635,-2.1608901023864746,0.013316988945007324,1.13413405418396,-2.206993818283081,-0.3172474503517151,0.7286827564239502,-1.9575111865997314,0.0,0.0,0.0,0.0,0.0008585164323449135,0.13221153616905212,0.1004464328289032,-0.001717032864689827,0.03519917652010918,0.12019231170415878,0.020604394376277924,0.024038461968302727,0.02317994460463524,-0.04035027325153351,-0.030906593427062035,0.10130494832992554,0.0,0.0,0.0,0.0,-2.23828125,0.81640625,4.796875,1.45703125,1.2421875,3.625,-3.5546875,-0.6015625,9.09765625,5.5078125,1.59765625,7.67578125,24.2,29.8,59.0,34.0
1646243927.543745,6072,1646243927,529408360,,"['FL0', 'FL1', 'FL2', 'FR0', 'FR1', 'FR2', 'RL0', 'RL1', 'RL2', 'RR0', 'RR1', 'RR2', 'FL_foot', 'FR_foot', 'RL_foot', 'RR_foot']",0.25062042474746704,1.043738842010498,-2.088616132736206,-0.12566842138767242,0.8837666511535645,-2.1609323024749756,0.013316988945007324,1.134049892425537,-2.206993818283081,-0.3172474503517151,0.7286827564239502,-1.9575111865997314,0.0,0.0,0.0,0.0,0.030906591564416885,0.0034340659622102976,0.0,-0.004292582161724567,0.0334821417927742,-0.014594780281186104,0.03519917279481888,-0.00858516525477171,0.005151099059730768,-0.05494505167007446,-0.0008585164905525744,-0.0,0.0,0.0,0.0,0.0,-1.98828125,0.8515625,4.7265625,1.3125,1.27734375,3.91015625,-3.5546875,-0.53125,8.88671875,5.3671875,1.59765625,7.8203125,24.2,30.0,59.0,34.0
1646243927.5437987,6073,1646243927,531575648,,"['FL0', 'FL1', 'FL2', 'FR0', 'FR1', 'FR2', 'RL0', 'RL1', 'RL2', 'RR0', 'RR1', 'RR2', 'FL_foot', 'FR_foot', 'RL_foot', 'RR_foot']",0.25074684619903564,1.043696641921997,-2.088658332824707,-0.12571056187152863,0.8837666511535645,-2.1609745025634766,0.013316988945007324,1.1340076923370361,-2.20695161819458,-0.3172053098678589,0.7286827564239502,-1.9575111865997314,0.0,0.0,0.0,0.0,0.08756867796182632,-0.1270604431629181,-0.13478708267211914,-0.001717032864689827,0.01116071455180645,0.004292582627385855,0.013736262917518616,-0.047218408435583115,0.09014423191547394,0.031765107065439224,0.057520605623722076,-0.0,0.0,0.0,0.0,0.0,-2.0234375,0.63671875,4.51171875,1.2421875,1.2421875,3.66015625,-3.5546875,-0.56640625,8.921875,5.7578125,1.703125,7.8203125,24.2,30.0,58.8,34.2
1646243927.543842,6074,1646243927,534198460,,"['FL0', 'FL1', 'FL2', 'FR0', 'FR1', 'FR2', 'RL0', 'RL1', 'RL2', 'RR0', 'RR1', 'RR2', 'FL_foot', 'FR_foot', 'RL_foot', 'RR_foot']",0.25091540813446045,1.043738842010498,-2.088658332824707,-0.12571056187152863,0.8838086128234863,-2.1610586643218994,0.013274848461151123,1.1339654922485352,-2.206909656524658,-0.3171631693840027,0.7286407947540283,-1.9575111865997314,0.0,0.0,0.0,0.0,0.024896975606679916,-0.03863324224948883,-0.07726648449897766,0.0,0.16140109300613403,-0.08241758495569229,-0.06353021413087845,-0.036057692021131516,0.13478708267211914,0.11332416534423828,-0.05065247416496277,-0.09186126291751862,0.0,0.0,0.0,0.0,-2.09375,0.53125,4.51171875,1.3125,1.13671875,3.73046875,-3.4453125,-0.49609375,8.9921875,5.3671875,1.59765625,7.60546875,24.2,29.8,58.6,34.4
1646243927.5438614,6075,1646243927,536399314,,"['FL0', 'FL1', 'FL2', 'FR0', 'FR1', 'FR2', 'RL0', 'RL1', 'RL2', 'RR0', 'RR1', 'RR2', 'FL_foot', 'FR_foot', 'RL_foot', 'RR_foot']",0.25108399987220764,1.043781042098999,-2.088658332824707,-0.12571056187152863,0.8837666511535645,-2.1610586643218994,0.013316988945007324,1.1339654922485352,-2.206909656524658,-0.3171210289001465,0.7285985946655273,-1.95746910572052,0.0,0.0,0.0,0.0,0.08499312400817871,0.07984203100204468,0.0,-0.0008585164323449135,-0.1116071417927742,0.047218408435583115,0.06438872963190079,0.13993819057941437,0.0558035708963871,0.13478708267211914,-0.16569368541240692,0.005151099059730768,0.0,0.0,0.0,0.0,-2.1328125,0.8515625,4.51171875,1.27734375,1.13671875,3.515625,-3.6953125,-0.53125,8.8125,5.54296875,1.66796875,7.8203125,24.0,29.6,58.4,34.4
1646243927.5438867,6076,1646243927,538614166,,"['FL0', 'FL1', 'FL2', 'FR0', 'FR1', 'FR2', 'RL0', 'RL1', 'RL2', 'RR0', 'RR1', 'RR2', 'FL_foot', 'FR_foot', 'RL_foot', 'RR_foot']",0.25125256180763245,1.043738842010498,-2.088658332824707,-0.12571056187152863,0.8837666511535645,-2.1611008644104004,0.013316988945007324,1.1338813304901123,-2.206909656524658,-0.3171210289001465,0.7286407947540283,-1.9574270248413086,0.0,0.0,0.0,0.0,0.048935435712337494,-0.006868131924420595,0.018887363374233246,0.09014422446489334,-0.1382211595773697,-0.019745878875255585,0.12190933525562286,-0.13736264407634735,-0.03434066101908684,0.02833104133605957,0.006868131924420595,0.06868132203817368,0.0,0.0,0.0,0.0,-1.6328125,0.6015625,4.44140625,1.27734375,1.2421875,3.765625,-3.5546875,-0.6015625,9.02734375,5.3671875,1.66796875,7.640625,24.2,29.6,58.0,34.6
1646243927.5439427,6077,1646243927,540862166,,"['FL0', 'FL1', 'FL2', 'FR0', 'FR1', 'FR2', 'RL0', 'RL1', 'RL2', 'RR0', 'RR1', 'RR2', 'FL_foot', 'FR_foot', 'RL_foot', 'RR_foot']",0.25154754519462585,1.043781042098999,-2.088700294494629,-0.12571056187152863,0.8837666511535645,-2.1611430644989014,0.013274848461151123,1.1338813304901123,-2.2068674564361572,-0.3171210289001465,0.7285985946655273,-1.9574270248413086,0.0,0.0,0.0,0.0,0.06953983008861542,0.12448488920927048,-0.0034340659622102976,0.026614010334014893,-0.11761675775051117,-0.0008585164905525744,-0.02317994460463524,0.0,-0.006868131924420595,-0.003434065729379654,-0.0334821417927742,-0.08585164695978165,0.0,0.0,0.0,0.0,-2.09375,0.53125,4.40625,1.34765625,0.9921875,3.625,-3.48046875,-0.63671875,8.88671875,5.5078125,1.98828125,7.5703125,24.2,29.6,57.8,34.6
1646243927.5439935,6078,1646243927,543049046,,"['FL0', 'FL1', 'FL2', 'FR0', 'FR1', 'FR2', 'RL0', 'RL1', 'RL2', 'RR0', 'RR1', 'RR2', 'FL_foot', 'FR_foot', 'RL_foot', 'RR_foot']",0.25180041790008545,1.043781042098999,-2.088700294494629,-0.12575270235538483,0.8838086128234863,-2.1611430644989014,0.013274848461151123,1.1338391304016113,-2.2068252563476562,-0.3170788884162903,0.7285985946655273,-1.9573426246643066,0.0,0.0,0.0,0.0,0.12534339725971222,0.020604396238923073,-0.0017170329811051488,-0.09615384042263031,0.0017170329811051488,0.10817307978868484,-0.07039834558963776,-0.004292582627385855,0.13307005167007446,0.03262362629175186,0.024038461968302727,0.1270604431629181,0.0,0.0,0.0,0.0,-2.16796875,0.7109375,4.44140625,1.171875,1.13671875,3.625,-3.625,-0.49609375,8.95703125,5.54296875,1.66796875,7.74609375,24.2,29.8,57.8,34.4
1646243927.545477,6079,1646243927,545228578,,"['FL0', 'FL1', 'FL2', 'FR0', 'FR1', 'FR2', 'RL0', 'RL1', 'RL2', 'RR0', 'RR1', 'RR2', 'FL_foot', 'FR_foot', 'RL_foot', 'RR_foot']",0.25205326080322266,1.043781042098999,-2.088700294494629,-0.12571056187152863,0.8838086128234863,-2.1611852645874023,0.013274848461151123,1.1337969303131104,-2.2068252563476562,-0.3170367479324341,0.7285563945770264,-1.9573426246643066,0.0,0.0,0.0,0.0,0.07898351550102234,0.05065247416496277,0.0,0.10130494087934494,0.030906593427062035,0.07984203100204468,-0.03863323852419853,-0.004292582627385855,0.09615384787321091,0.13049450516700745,-0.10559752583503723,0.009443681687116623,0.0,0.0,0.0,0.0,-1.8828125,0.74609375,4.4765625,1.45703125,1.34765625,3.625,-3.58984375,-0.53125,8.84765625,5.29296875,1.8828125,7.640625,24.4,30.2,57.6,34.2
1646243927.5854347,6080,1646243927,547417766,,"['FL0', 'FL1', 'FL2', 'FR0', 'FR1', 'FR2', 'RL0', 'RL1', 'RL2', 'RR0', 'RR1', 'RR2', 'FL_foot', 'FR_foot', 'RL_foot', 'RR_foot']",0.25230613350868225,1.043781042098999,-2.088700294494629,-0.12571056187152863,0.8838086128234863,-2.1611852645874023,0.013316988945007324,1.1337969303131104,-2.2068252563476562,-0.3170788884162903,0.7285563945770264,-1.9573005437850952,0.0,0.0,0.0,0.0,0.1450892835855484,0.11675824224948883,0.06095467135310173,0.019745878875255585,-0.03863324224948883,0.1253434121608734,0.07297389954328537,0.1227678582072258,0.08671016246080399,-0.12877745926380157,-0.024896977469325066,0.08756868541240692,0.0,0.0,0.0,0.0,-2.0234375,0.81640625,4.65625,1.34765625,1.13671875,3.625,-3.6953125,-0.49609375,8.95703125,5.33203125,1.421875,7.60546875,24.4,30.8,57.6,34.2
1646243927.5854862,6081,1646243927,549614048,,"['FL0', 'FL1', 'FL2', 'FR0', 'FR1', 'FR2', 'RL0', 'RL1', 'RL2', 'RR0', 'RR1', 'RR2', 'FL_foot', 'FR_foot', 'RL_foot', 'RR_foot']",0.25251683592796326,1.043781042098999,-2.088700294494629,-0.12575270235538483,0.8838508129119873,-2.161227226257324,0.013316988945007324,1.1337127685546875,-2.2068252563476562,-0.3170367479324341,0.7285563945770264,-1.9572584629058838,0.0,0.0,0.0,0.0,0.06009615212678909,-0.01631181314587593,0.0,-0.14852334558963776,0.03434066101908684,-0.0008585164905525744,0.07898351550102234,-0.025755494832992554,0.0,-0.04550136998295784,0.025755494832992554,0.12877747416496277,0.0,0.0,0.0,0.0,-2.1328125,0.6015625,4.51171875,1.5625,1.1015625,3.765625,-3.515625,-0.4609375,8.84765625,5.33203125,1.45703125,7.74609375,24.2,31.0,57.6,34.0
1646243927.5855162,6082,1646243927,551948560,,"['FL0', 'FL1', 'FL2', 'FR0', 'FR1', 'FR2', 'RL0', 'RL1', 'RL2', 'RR0', 'RR1', 'RR2', 'FL_foot', 'FR_foot', 'RL_foot', 'RR_foot']",0.25272753834724426,1.0438232421875,-2.088700294494629,-0.12571056187152863,0.8838508129119873,-2.161227226257324,0.013274848461151123,1.1337127685546875,-2.2067830562591553,-0.3169946074485779,0.7285141944885254,-1.9572162628173828,0.0,0.0,0.0,0.0,0.07554944604635239,0.0558035708963871,0.0017170329811051488,0.07554944604635239,-0.009443681687116623,0.07125686854124069,-0.08413460850715637,0.14165522158145905,0.16826923191547394,0.09787087142467499,-0.05065247416496277,0.08155906945466995,0.0,0.0,0.0,0.0,-1.953125,0.7109375,4.58203125,1.4921875,1.13671875,3.8359375,-3.625,-0.53125,8.84765625,5.40234375,1.84765625,7.9609375,24.2,31.2,57.4,34.0
1646243927.5855343,6083,1646243927,554170093,,"['FL0', 'FL1', 'FL2', 'FR0', 'FR1', 'FR2', 'RL0', 'RL1', 'RL2', 'RR0', 'RR1', 'RR2', 'FL_foot', 'FR_foot', 'RL_foot', 'RR_foot']",0.25276967883110046,1.043781042098999,-2.088700294494629,-0.12575270235538483,0.8838930130004883,-2.161269426345825,0.013316988945007324,1.1336705684661865,-2.2067830562591553,-0.3169946074485779,0.7285141944885254,-1.9571740627288818,0.0,0.0,0.0,0.0,-0.003434065729379654,-0.16826923191547394,0.01717033050954342,-0.10216345638036728,0.13049450516700745,0.10388049483299255,0.10302197188138962,-0.0008585164905525744,0.12190934270620346,0.13135302066802979,-0.0,0.13478708267211914,0.0,0.0,0.0,0.0,-2.2734375,0.81640625,4.51171875,1.45703125,0.921875,3.80078125,-3.5546875,-0.49609375,8.921875,5.33203125,1.3125,7.53515625,24.2,31.4,57.2,33.8
1646243927.5855649,6084,1646243927,556420581,,"['FL0', 'FL1', 'FL2', 'FR0', 'FR1', 'FR2', 'RL0', 'RL1', 'RL2', 'RR0', 'RR1', 'RR2', 'FL_foot', 'FR_foot', 'RL_foot', 'RR_foot']",0.25276967883110046,1.0438232421875,-2.088700294494629,-0.12571056187152863,0.8838508129119873,-2.161269426345825,0.013274848461151123,1.1336705684661865,-2.2067830562591553,-0.3170367479324341,0.7285141944885254,-1.9571740627288818,0.0,0.0,0.0,0.0,0.0334821417927742,-0.06524725258350372,0.030906593427062035,0.0669642835855484,-0.048076923936605453,-0.058379121124744415,-0.1425137221813202,-0.09787087887525558,0.02747252769768238,-0.042925819754600525,-0.06868132203817368,0.010302198119461536,0.0,0.0,0.0,0.0,-2.1328125,0.8515625,4.796875,1.45703125,1.02734375,3.8359375,-3.5546875,-0.53125,8.8125,5.1875,1.84765625,7.78125,24.0,31.6,57.0,33.6
1646243927.585644,6085,1646243927,558638626,,"['FL0', 'FL1', 'FL2', 'FR0', 'FR1', 'FR2', 'RL0', 'RL1', 'RL2', 'RR0', 'RR1', 'RR2', 'FL_foot', 'FR_foot', 'RL_foot', 'RR_foot']",0.25276967883110046,1.0438652038574219,-2.088700294494629,-0.12571056187152863,0.8838508129119873,-2.161227226257324,0.013316988945007324,1.1336705684661865,-2.2067830562591553,-0.3169946074485779,0.7285563945770264,-1.9571740627288818,0.0,0.0,0.0,0.0,0.03519917279481888,0.0,0.01631181314587593,0.02317994460463524,-0.03434066101908684,0.136504128575325,0.08413460850715637,-0.0008585164905525744,0.006009615492075682,0.10817307233810425,0.03519917652010918,-0.0892857164144516,0.0,0.0,0.0,0.0,-2.0234375,0.56640625,4.7265625,1.421875,0.921875,3.66015625,-3.48046875,-0.49609375,8.8125,5.1875,1.5625,7.46484375,24.0,31.6,56.6,33.4
1646243927.5856595,6086,1646243927,560844792,,"['FL0', 'FL1', 'FL2', 'FR0', 'FR1', 'FR2', 'RL0', 'RL1', 'RL2', 'RR0', 'RR1', 'RR2', 'FL_foot', 'FR_foot', 'RL_foot', 'RR_foot']",0.25268539786338806,1.0438652038574219,-2.088700294494629,-0.12571056187152863,0.8838930130004883,-2.161269426345825,0.013316988945007324,1.1337127685546875,-2.2067830562591553,-0.3169946074485779,0.7285141944885254,-1.9571319818496704,0.0,0.0,0.0,0.0,-0.0008585164323449135,-0.06009615585207939,-0.0017170329811051488,0.0,0.10817307978868484,-0.0,0.001717032864689827,0.12877747416496277,-0.04979395493865013,0.009443680755794048,-0.06782279908657074,-0.07297389954328537,0.0,0.0,0.0,0.0,-2.34375,0.4609375,4.76171875,1.45703125,1.06640625,3.9453125,-3.48046875,-0.42578125,8.921875,5.15234375,1.8125,7.5703125,24.0,32.0,56.2,33.2
1646243927.5857692,6087,1646243927,563058774,,"['FL0', 'FL1', 'FL2', 'FR0', 'FR1', 'FR2', 'RL0', 'RL1', 'RL2', 'RR0', 'RR1', 'RR2', 'FL_foot', 'FR_foot', 'RL_foot', 'RR_foot']",0.25268539786338806,1.0439074039459229,-2.088700294494629,-0.12575270235538483,0.8838930130004883,-2.161269426345825,0.013316988945007324,1.1336705684661865,-2.2067830562591553,-0.3169946074485779,0.7285141944885254,-1.957089900970459,0.0,0.0,0.0,0.0,0.01802884414792061,0.03949175775051117,0.0,-0.019745878875255585,0.030906593427062035,-0.006009615492075682,0.024038460105657578,-0.026614010334014893,-0.024896977469325066,0.007726647891104221,-0.007726648356765509,0.0223214291036129,0.0,0.0,0.0,0.0,-2.16796875,0.7109375,4.69140625,1.5625,1.13671875,3.765625,-3.375,-0.56640625,8.671875,5.1875,1.5625,7.53515625,24.2,32.2,56.0,33.0
1646243927.5858033,6088,1646243927,565263393,,"['FL0', 'FL1', 'FL2', 'FR0', 'FR1', 'FR2', 'RL0', 'RL1', 'RL2', 'RR0', 'RR1', 'RR2', 'FL_foot', 'FR_foot', 'RL_foot', 'RR_foot']",0.25268539786338806,1.0438652038574219,-2.088700294494629,-0.12571056187152863,0.8839352130889893,-2.161227226257324,0.013316988945007324,1.1337127685546875,-2.2067830562591553,-0.3169946074485779,0.7285141944885254,-1.957047700881958,0.0,0.0,0.0,0.0,0.001717032864689827,-0.06782279908657074,0.03949175775051117,0.005151098594069481,0.14337225258350372,0.16655220091342926,0.01717032864689827,0.08499313145875931,-0.00858516525477171,0.019745878875255585,-0.048076923936605453,0.19230769574642181,0.0,0.0,0.0,0.0,-2.34375,0.671875,4.7265625,1.4921875,1.02734375,4.015625,-3.41015625,-0.56640625,8.63671875,5.1875,1.34765625,7.640625,24.4,32.4,55.6,33.0
1646243927.585824,6089,1646243927,567419446,,"['FL0', 'FL1', 'FL2', 'FR0', 'FR1', 'FR2', 'RL0', 'RL1', 'RL2', 'RR0', 'RR1', 'RR2', 'FL_foot', 'FR_foot', 'RL_foot', 'RR_foot']",0.25268539786338806,1.0438652038574219,-2.088700294494629,-0.12571056187152863,0.8838930130004883,-2.161269426345825,0.013359129428863525,1.1337127685546875,-2.2067408561706543,-0.3170367479324341,0.7285563945770264,-1.957047700881958,0.0,0.0,0.0,0.0,0.0008585164323449135,-0.10559752583503723,0.0,-0.08327609300613403,-0.0669642835855484,-0.0,0.05494505167007446,0.11675824224948883,0.05151098966598511,-0.03605768829584122,0.03262362629175186,0.052369505167007446,0.0,0.0,0.0,0.0,-2.2734375,0.671875,4.62109375,1.73828125,0.9921875,3.9453125,-3.375,-0.53125,8.63671875,4.9765625,1.703125,7.42578125,24.6,32.8,55.4,33.0
1646243927.5865676,6090,1646243927,569674078,,"['FL0', 'FL1', 'FL2', 'FR0', 'FR1', 'FR2', 'RL0', 'RL1', 'RL2', 'RR0', 'RR1', 'RR2', 'FL_foot', 'FR_foot', 'RL_foot', 'RR_foot']",0.25268539786338806,1.0439074039459229,-2.088700294494629,-0.12571056187152863,0.8839352130889893,-2.161269426345825,0.013316988945007324,1.1337127685546875,-2.2067830562591553,-0.3170367479324341,0.7285563945770264,-1.957047700881958,0.0,0.0,0.0,0.0,0.0,0.04550137370824814,0.0,-0.0824175775051117,-0.0008585164905525744,-0.0,-0.13049450516700745,0.16483516991138458,-0.08585164695978165,-0.09186125546693802,0.05666209012269974,0.07726648449897766,0.0,0.0,0.0,0.0,-2.4140625,0.56640625,4.76171875,1.6328125,1.1015625,4.05078125,-3.375,-0.24609375,8.31640625,5.046875,1.84765625,7.46484375,24.8,33.2,55.0,33.0
1646243927.5866106,6091,1646243927,571887668,,"['FL0', 'FL1', 'FL2', 'FR0', 'FR1', 'FR2', 'RL0', 'RL1', 'RL2', 'RR0', 'RR1', 'RR2', 'FL_foot', 'FR_foot', 'RL_foot', 'RR_foot']",0.25268539786338806,1.0439074039459229,-2.088700294494629,-0.12566842138767242,0.8839774131774902,-2.161269426345825,0.013316988945007324,1.1337127685546875,-2.2067408561706543,-0.3170367479324341,0.7285563945770264,-1.957089900970459,0.0,0.0,0.0,0.0,0.0,0.0,-0.06181318685412407,0.13221153616905212,-0.0,-0.0,-0.08756867796182632,0.08241758495569229,0.047218408435583115,-0.0,-0.0034340659622102976,-0.012877747416496277,0.0,0.0,0.0,0.0,-2.30859375,0.42578125,4.9765625,1.66796875,1.06640625,4.05078125,-2.984375,-0.31640625,8.45703125,5.046875,1.66796875,7.35546875,25.0,33.4,54.8,33.0
1646243927.5866334,6092,1646243927,574078886,,"['FL0', 'FL1', 'FL2', 'FR0', 'FR1', 'FR2', 'RL0', 'RL1', 'RL2', 'RR0', 'RR1', 'RR2', 'FL_foot', 'FR_foot', 'RL_foot', 'RR_foot']",0.25268539786338806,1.0439496040344238,-2.088700294494629,-0.12566842138767242,0.8840193748474121,-2.161269426345825,0.013359129428863525,1.1337127685546875,-2.2067830562591553,-0.3170367479324341,0.7285563945770264,-1.957089900970459,0.0,0.0,0.0,0.0,0.1648351550102234,0.14594779908657074,-0.030906593427062035,0.08499312400817871,0.036057692021131516,-0.1004464328289032,0.031765107065439224,0.030906593427062035,-0.09787087887525558,-0.001717032864689827,-0.0,-0.06438873708248138,0.0,0.0,0.0,0.0,-2.48828125,0.390625,4.796875,1.84765625,1.06640625,4.19140625,-3.234375,-0.28125,8.38671875,4.9375,1.84765625,7.35546875,25.0,34.0,54.4,33.0
1646243927.5866573,6093,1646243927,576269341,,"['FL0', 'FL1', 'FL2', 'FR0', 'FR1', 'FR2', 'RL0', 'RL1', 'RL2', 'RR0', 'RR1', 'RR2', 'FL_foot', 'FR_foot', 'RL_foot', 'RR_foot']",0.25268539786338806,1.0439496040344238,-2.088700294494629,-0.12562628090381622,0.8840615749359131,-2.161269426345825,0.013359129428863525,1.1337127685546875,-2.2067408561706543,-0.3170367479324341,0.7285563945770264,-1.957047700881958,0.0,0.0,0.0,0.0,0.07726647704839706,0.020604396238923073,-0.041208792477846146,0.13478708267211914,0.13478708267211914,-0.015453296713531017,0.001717032864689827,-0.005151099059730768,0.010302198119461536,-0.042067304253578186,-0.078125,0.14251373708248138,0.0,0.0,0.0,0.0,-2.37890625,0.56640625,5.046875,1.91796875,1.02734375,4.265625,-3.33984375,-0.390625,8.38671875,4.76171875,1.8125,6.96484375,25.0,34.2,54.0,33.0
1646243927.5866787,6094,1646243927,578489353,,"['FL0', 'FL1', 'FL2', 'FR0', 'FR1', 'FR2', 'RL0', 'RL1', 'RL2', 'RR0', 'RR1', 'RR2', 'FL_foot', 'FR_foot', 'RL_foot', 'RR_foot']",0.25264325737953186,1.0439496040344238,-2.088700294494629,-0.12562628090381622,0.8840615749359131,-2.161269426345825,0.013401269912719727,1.1337127685546875,-2.2067408561706543,-0.3170367479324341,0.7285985946655273,-1.957089900970459,0.0,0.0,0.0,0.0,0.06953983008861542,0.0,0.0,0.009443680755794048,0.026614010334014893,-0.04035027325153351,0.16912773251533508,-0.0034340659622102976,-0.08327610045671463,-0.007726647891104221,0.058379121124744415,-0.058379121124744415,0.0,0.0,0.0,0.0,-2.734375,0.53125,4.9765625,1.84765625,0.9921875,4.3359375,-3.08984375,-0.03515625,8.2109375,4.7265625,1.77734375,6.96484375,25.0,34.2,53.6,32.8
1646243927.5867586,6095,1646243927,580721589,,"['FL0', 'FL1', 'FL2', 'FR0', 'FR1', 'FR2', 'RL0', 'RL1', 'RL2', 'RR0', 'RR1', 'RR2', 'FL_foot', 'FR_foot', 'RL_foot', 'RR_foot']",0.25260111689567566,1.0439496040344238,-2.088700294494629,-0.12562628090381622,0.8840615749359131,-2.161227226257324,0.013359129428863525,1.1337127685546875,-2.2067408561706543,-0.3170788884162903,0.7285985946655273,-1.957089900970459,0.0,0.0,0.0,0.0,-0.042925819754600525,-0.06095467135310173,-0.005151099059730768,0.0,-0.010302198119461536,-0.0,-0.001717032864689827,-0.014594780281186104,0.10216346383094788,-0.12190933525562286,0.0008585164905525744,-0.06095467135310173,0.0,0.0,0.0,0.0,-2.734375,0.390625,5.1875,1.84765625,0.921875,4.4765625,-3.01953125,-0.17578125,8.03125,4.90234375,1.66796875,7.0703125,25.0,34.4,53.4,32.8
1646243927.586821,6096,1646243927,582906678,,"['FL0', 'FL1', 'FL2', 'FR0', 'FR1', 'FR2', 'RL0', 'RL1', 'RL2', 'RR0', 'RR1', 'RR2', 'FL_foot', 'FR_foot', 'RL_foot', 'RR_foot']",0.25255897641181946,1.0439918041229248,-2.088700294494629,-0.12558414041996002,0.8840615749359131,-2.161227226257324,0.013359129428863525,1.1337969303131104,-2.2067408561706543,-0.3170788884162903,0.7285985946655273,-1.957089900970459,0.0,0.0,0.0,0.0,-0.003434065729379654,0.014594780281186104,-0.041208792477846146,0.12019230425357819,-0.07383241504430771,0.010302198119461536,-0.06181318312883377,0.14594779908657074,0.10473901033401489,-0.02747252583503723,-0.01373626384884119,0.08413461595773697,0.0,0.0,0.0,0.0,-2.984375,0.390625,5.1875,1.703125,1.171875,4.65625,-2.984375,-0.0703125,7.92578125,4.62109375,1.59765625,7.21484375,25.0,34.4,53.0,32.8
1646243927.5868657,6097,1646243927,585086208,,"['FL0', 'FL1', 'FL2', 'FR0', 'FR1', 'FR2', 'RL0', 'RL1', 'RL2', 'RR0', 'RR1', 'RR2', 'FL_foot', 'FR_foot', 'RL_foot', 'RR_foot']",0.25251683592796326,1.0439496040344238,-2.088700294494629,-0.12562628090381622,0.8841037750244141,-2.161227226257324,0.013401269912719727,1.1337969303131104,-2.2067408561706543,-0.3170788884162903,0.7286407947540283,-1.957089900970459,0.0,0.0,0.0,0.0,-0.1536744385957718,-0.11246565729379654,-0.15796703100204468,-0.14852334558963776,0.047218408435583115,-0.06095467135310173,0.0008585164323449135,-0.0223214291036129,0.1116071417927742,-0.0,0.030906593427062035,-0.0,0.0,0.0,0.0,0.0,-2.734375,0.49609375,5.29296875,1.8828125,1.06640625,4.4765625,-2.94921875,0.0,7.9609375,4.58203125,1.66796875,6.89453125,25.0,34.2,52.6,32.8
1646243927.5875177,6098,1646243927,587287733,,"['FL0', 'FL1', 'FL2', 'FR0', 'FR1', 'FR2', 'RL0', 'RL1', 'RL2', 'RR0', 'RR1', 'RR2', 'FL_foot', 'FR_foot', 'RL_foot', 'RR_foot']",0.25247469544410706,1.0439918041229248,-2.088658332824707,-0.12554199993610382,0.8841037750244141,-2.161227226257324,0.013401269912719727,1.1338391304016113,-2.2067830562591553,-0.3170788884162903,0.7286407947540283,-1.957089900970459,0.0,0.0,0.0,0.0,-0.006868131458759308,0.0008585164905525744,0.006009615492075682,0.19316619634628296,0.12620192766189575,-0.047218408435583115,0.030906591564416885,0.0626717060804367,-0.06438873708248138,0.007726647891104221,0.020604396238923073,0.036916207522153854,0.0,0.0,0.0,0.0,-2.69921875,0.42578125,5.2578125,1.703125,1.02734375,4.4765625,-2.8046875,-0.28125,7.890625,4.69140625,1.703125,7.03515625,25.0,34.2,52.4,32.8
1646243927.6274037,6099,1646243927,589485085,,"['FL0', 'FL1', 'FL2', 'FR0', 'FR1', 'FR2', 'RL0', 'RL1', 'RL2', 'RR0', 'RR1', 'RR2', 'FL_foot', 'FR_foot', 'RL_foot', 'RR_foot']",0.25247469544410706,1.0439918041229248,-2.088658332824707,-0.12554199993610382,0.8840615749359131,-2.1611852645874023,0.013401269912719727,1.1338813304901123,-2.2067408561706543,-0.3170788884162903,0.7286407947540283,-1.9571319818496704,0.0,0.0,0.0,0.0,-0.06524725258350372,0.07640796899795532,0.0,0.010302197188138962,-0.10817307978868484,0.0034340659622102976,-0.013736262917518616,0.0,0.018887363374233246,0.06095466762781143,-0.0,-0.01373626384884119,0.0,0.0,0.0,0.0,-2.87890625,0.28125,5.1875,1.84765625,1.02734375,4.796875,-2.984375,-0.17578125,8.1015625,4.83203125,1.421875,6.75390625,25.0,34.2,52.2,33.0
1646243927.6274726,6100,1646243927,591664462,,"['FL0', 'FL1', 'FL2', 'FR0', 'FR1', 'FR2', 'RL0', 'RL1', 'RL2', 'RR0', 'RR1', 'RR2', 'FL_foot', 'FR_foot', 'RL_foot', 'RR_foot']",0.25247469544410706,1.0439918041229248,-2.088658332824707,-0.12549985945224762,0.8840615749359131,-2.1611430644989014,0.013443410396575928,1.1339235305786133,-2.2067830562591553,-0.3171210289001465,0.7286407947540283,-1.957089900970459,0.0,0.0,0.0,0.0,-0.0008585164323449135,0.16826923191547394,0.0,0.1227678507566452,-0.005151099059730768,0.09615384787321091,0.10130494087934494,-0.11418269574642181,-0.0626717060804367,-0.0025755492970347404,-0.04550137370824814,0.14680631458759308,0.0,0.0,0.0,0.0,-2.984375,0.6015625,5.33203125,2.203125,0.88671875,4.76171875,-2.94921875,0.0703125,7.7109375,4.62109375,1.84765625,6.71484375,24.8,34.0,52.0,32.8
1646243927.6275015,6101,1646243927,593861812,,"['FL0', 'FL1', 'FL2', 'FR0', 'FR1', 'FR2', 'RL0', 'RL1', 'RL2', 'RR0', 'RR1', 'RR2', 'FL_foot', 'FR_foot', 'RL_foot', 'RR_foot']",0.25243255496025085,1.0439496040344238,-2.088616132736206,-0.12545770406723022,0.8841037750244141,-2.1611430644989014,0.013443410396575928,1.134049892425537,-2.2067830562591553,-0.3171210289001465,0.7286827564239502,-1.9571319818496704,0.0,0.0,0.0,0.0,0.02747252583503723,-0.05494505539536476,0.12105082720518112,0.011160713620483875,0.08585164695978165,-0.0935782939195633,-0.0,0.015453296713531017,-0.05408653989434242,0.006009615026414394,-0.09872939437627792,-0.09701236337423325,0.0,0.0,0.0,0.0,-2.87890625,0.28125,5.3671875,2.34375,0.95703125,5.08203125,-2.84375,0.0,7.78125,4.44140625,1.953125,6.75390625,24.6,34.0,52.0,32.6
1646243927.6275463,6102,1646243927,596161061,,"['FL0', 'FL1', 'FL2', 'FR0', 'FR1', 'FR2', 'RL0', 'RL1', 'RL2', 'RR0', 'RR1', 'RR2', 'FL_foot', 'FR_foot', 'RL_foot', 'RR_foot']",0.25234827399253845,1.0440337657928467,-2.088616132736206,-0.12541556358337402,0.8841037750244141,-2.1611008644104004,0.013485550880432129,1.134092092514038,-2.2067830562591553,-0.3171210289001465,0.7286827564239502,-1.9571319818496704,0.0,0.0,0.0,0.0,-0.01717032864689827,0.3013392984867096,0.020604396238923073,0.006009615026414394,0.047218408435583115,-0.0,0.02232142724096775,0.029189560562372208,0.0017170329811051488,-0.0,-0.0223214291036129,-0.02833104506134987,0.0,0.0,0.0,0.0,-2.9140625,0.42578125,5.54296875,2.23828125,0.81640625,5.046875,-2.69921875,0.0,7.67578125,4.65625,1.84765625,6.64453125,24.6,34.0,51.8,32.4
1646243927.6275709,6103,1646243927,598334076,,"['FL0', 'FL1', 'FL2', 'FR0', 'FR1', 'FR2', 'RL0', 'RL1', 'RL2', 'RR0', 'RR1', 'RR2', 'FL_foot', 'FR_foot', 'RL_foot', 'RR_foot']",0.25230613350868225,1.0439496040344238,-2.088658332824707,-0.12541556358337402,0.8841037750244141,-2.1610586643218994,0.013485550880432129,1.134176254272461,-2.2067830562591553,-0.3171631693840027,0.7287249565124512,-1.9571319818496704,0.0,0.0,0.0,0.0,-0.001717032864689827,-0.13049450516700745,-0.1296359896659851,0.0,0.06953983753919601,0.04378434270620346,-0.0,0.09186126291751862,-0.06438873708248138,-0.07726647704839706,0.09701236337423325,-0.0008585164905525744,0.0,0.0,0.0,0.0,-2.9140625,0.31640625,5.79296875,2.23828125,1.2421875,4.90234375,-2.734375,0.10546875,7.5703125,4.3359375,1.91796875,6.6796875,24.6,34.0,51.6,32.0
1646243927.6276078,6104,1646243927,600565735,,"['FL0', 'FL1', 'FL2', 'FR0', 'FR1', 'FR2', 'RL0', 'RL1', 'RL2', 'RR0', 'RR1', 'RR2', 'FL_foot', 'FR_foot', 'RL_foot', 'RR_foot']",0.25226396322250366,1.0439918041229248,-2.088616132736206,-0.12537342309951782,0.8841037750244141,-2.1610164642333984,0.013485550880432129,1.134218454360962,-2.2067830562591553,-0.3171631693840027,0.7287249565124512,-1.9571319818496704,0.0,0.0,0.0,0.0,0.01459477934986353,0.006009615492075682,0.0,0.0,-0.0,0.13478708267211914,-0.03262362629175186,0.14337225258350372,0.01373626384884119,0.03519917279481888,-0.0,-0.0,0.0,0.0,0.0,0.0,-3.01953125,0.4609375,5.6875,2.23828125,1.06640625,5.1171875,-2.5234375,0.03515625,7.5703125,4.40625,1.91796875,6.50390625,24.6,34.0,51.4,31.6
1646243927.6277218,6105,1646243927,602799820,,"['FL0', 'FL1', 'FL2', 'FR0', 'FR1', 'FR2', 'RL0', 'RL1', 'RL2', 'RR0', 'RR1', 'RR2', 'FL_foot', 'FR_foot', 'RL_foot', 'RR_foot']",0.25217968225479126,1.0439918041229248,-2.088616132736206,-0.12528914213180542,0.8841037750244141,-2.1609745025634766,0.01352769136428833,1.134218454360962,-2.2067830562591553,-0.3172053098678589,0.7286827564239502,-1.9571319818496704,0.0,0.0,0.0,0.0,-0.026614010334014893,0.01373626384884119,-0.13049450516700745,0.11418268829584122,-0.03863324224948883,0.12877747416496277,0.10903158783912659,0.0008585164905525744,0.05408653989434242,-0.01459477934986353,-0.1450892835855484,0.058379121124744415,0.0,0.0,0.0,0.0,-3.16015625,0.28125,5.54296875,2.203125,1.13671875,5.29296875,-2.734375,-0.03515625,7.53515625,4.40625,1.6328125,6.359375,24.8,34.0,51.2,31.4
1646243927.627748,6106,1646243927,605018497,,"['FL0', 'FL1', 'FL2', 'FR0', 'FR1', 'FR2', 'RL0', 'RL1', 'RL2', 'RR0', 'RR1', 'RR2', 'FL_foot', 'FR_foot', 'RL_foot', 'RR_foot']",0.25209540128707886,1.0439918041229248,-2.088573932647705,-0.12524700164794922,0.884145975112915,-2.1609323024749756,0.01352769136428833,1.134218454360962,-2.2067830562591553,-0.3172474503517151,0.7287249565124512,-1.9571740627288818,0.0,0.0,0.0,0.0,-0.0025755492970347404,0.1116071417927742,-0.0626717060804367,0.06438872963190079,-0.005151099059730768,0.03519917652010918,-0.12362636625766754,-0.09701236337423325,0.014594780281186104,-0.02833104133605957,-0.015453296713531017,-0.01631181314587593,0.0,0.0,0.0,0.0,-3.01953125,0.4609375,5.79296875,2.4140625,0.9921875,5.33203125,-2.48828125,-0.140625,7.390625,4.12109375,1.73828125,6.57421875,25.0,34.0,51.2,31.2
1646243927.6279182,6107,1646243927,607205498,,"['FL0', 'FL1', 'FL2', 'FR0', 'FR1', 'FR2', 'RL0', 'RL1', 'RL2', 'RR0', 'RR1', 'RR2', 'FL_foot', 'FR_foot', 'RL_foot', 'RR_foot']",0.25196897983551025,1.0440337657928467,-2.088531732559204,-0.12520486116409302,0.8841879367828369,-2.1609323024749756,0.013569831848144531,1.134260654449463,-2.2067830562591553,-0.3172474503517151,0.7287671566009521,-1.9572162628173828,0.0,0.0,0.0,0.0,-0.11847526580095291,0.03777472674846649,0.0,-0.011160713620483875,-0.07726648449897766,-0.06009615585207939,0.0008585164323449135,0.00858516525477171,0.03863324224948883,-0.0,0.1493818759918213,-0.06868132203817368,0.0,0.0,0.0,0.0,-3.125,0.390625,5.828125,2.37890625,1.20703125,5.1875,-2.6640625,-0.10546875,7.25,4.3359375,1.73828125,6.2890625,25.0,34.0,51.2,31.0
1646243927.6279392,6108,1646243927,609427468,,"['FL0', 'FL1', 'FL2', 'FR0', 'FR1', 'FR2', 'RL0', 'RL1', 'RL2', 'RR0', 'RR1', 'RR2', 'FL_foot', 'FR_foot', 'RL_foot', 'RR_foot']",0.25184255838394165,1.0440337657928467,-2.088489532470703,-0.12520486116409302,0.8842723369598389,-2.1608901023864746,0.01352769136428833,1.134260654449463,-2.2068252563476562,-0.3172895908355713,0.7287249565124512,-1.9571740627288818,0.0,0.0,0.0,0.0,-0.15796703100204468,0.05151098966598511,-0.05666209012269974,0.02232142724096775,0.18114697933197021,0.0017170329811051488,-0.13478708267211914,0.002575549529865384,0.10645604133605957,-0.06782279908657074,-0.03176511079072952,0.018887363374233246,0.0,0.0,0.0,0.0,-3.125,0.28125,6.11328125,2.4140625,1.2421875,5.54296875,-2.5234375,-0.03515625,7.21484375,4.05078125,1.703125,6.3984375,24.8,34.0,51.2,31.0
1646243927.6280932,6109,1646243927,611672509,,"['FL0', 'FL1', 'FL2', 'FR0', 'FR1', 'FR2', 'RL0', 'RL1', 'RL2', 'RR0', 'RR1', 'RR2', 'FL_foot', 'FR_foot', 'RL_foot', 'RR_foot']",0.25171613693237305,1.0440337657928467,-2.0884475708007812,-0.12516272068023682,0.8842301368713379,-2.1608481407165527,0.013611972332000732,1.134260654449463,-2.2068252563476562,-0.3173317313194275,0.7287249565124512,-1.9571740627288818,0.0,0.0,0.0,0.0,-0.09100273996591568,0.0017170329811051488,-0.007726648356765509,0.1227678507566452,-0.04035027325153351,0.0008585164905525744,0.06353021413087845,0.0,0.0,-0.13478708267211914,-0.12791895866394043,0.04035027325153351,0.0,0.0,0.0,0.0,-3.125,0.56640625,5.93359375,2.5234375,1.171875,5.40234375,-2.734375,0.0,7.21484375,4.0859375,1.66796875,6.3984375,24.8,34.0,51.4,31.0
1646243927.6281252,6110,1646243927,613891965,,"['FL0', 'FL1', 'FL2', 'FR0', 'FR1', 'FR2', 'RL0', 'RL1', 'RL2', 'RR0', 'RR1', 'RR2', 'FL_foot', 'FR_foot', 'RL_foot', 'RR_foot']",0.25150540471076965,1.0440759658813477,-2.0884053707122803,-0.12516272068023682,0.8843145370483398,-2.160763740539551,0.013611972332000732,1.134260654449463,-2.2068674564361572,-0.3173738718032837,0.7287671566009521,-1.9572162628173828,0.0,0.0,0.0,0.0,-0.14423075318336487,0.002575549529865384,0.0008585164905525744,-0.031765107065439224,0.03434066101908684,0.015453296713531017,0.06009615212678909,0.0,-0.03262362629175186,-0.10302197188138962,0.0017170329811051488,-0.0,0.0,0.0,0.0,0.0,-3.5546875,0.56640625,6.04296875,2.4140625,1.13671875,5.6875,-2.55859375,0.0,7.14453125,4.0859375,1.953125,6.1484375,24.8,33.8,51.4,31.0
1646243927.628187,6111,1646243927,616076405,,"['FL0', 'FL1', 'FL2', 'FR0', 'FR1', 'FR2', 'RL0', 'RL1', 'RL2', 'RR0', 'RR1', 'RR2', 'FL_foot', 'FR_foot', 'RL_foot', 'RR_foot']",0.25137898325920105,1.0440759658813477,-2.0883631706237793,-0.12512058019638062,0.8843564987182617,-2.16072154045105,0.013611972332000732,1.134218454360962,-2.206909656524658,-0.3173738718032837,0.7287671566009521,-1.9572162628173828,0.0,0.0,0.0,0.0,-0.03262362629175186,0.0,0.025755494832992554,-0.01802884414792061,0.04550137370824814,0.024038461968302727,-0.008585164323449135,-0.08842720091342926,-0.06868132203817368,-0.02232142724096775,0.0008585164905525744,-0.0,0.0,0.0,0.0,0.0,-3.234375,0.390625,6.18359375,2.6640625,1.34765625,5.86328125,-2.5234375,-0.03515625,6.89453125,4.015625,1.77734375,6.25390625,24.8,33.6,51.2,31.0
1646243927.628281,6112,1646243927,618266843,,"['FL0', 'FL1', 'FL2', 'FR0', 'FR1', 'FR2', 'RL0', 'RL1', 'RL2', 'RR0', 'RR1', 'RR2', 'FL_foot', 'FR_foot', 'RL_foot', 'RR_foot']",0.25116828083992004,1.0441181659698486,-2.0883209705352783,-0.12507842481136322,0.8843986988067627,-2.160679340362549,0.013654112815856934,1.134260654449463,-2.20695161819458,-0.3174160122871399,0.7287671566009521,-1.9572584629058838,0.0,0.0,0.0,0.0,-0.2051854282617569,0.01116071455180645,0.02146291173994541,0.02747252583503723,0.015453296713531017,0.019745878875255585,0.05151098594069481,0.005151099059730768,-0.01717033050954342,-0.10302197188138962,-0.0008585164905525744,-0.08241758495569229,0.0,0.0,0.0,0.0,-3.4453125,0.42578125,6.11328125,2.76953125,1.02734375,5.7578125,-2.59375,0.03515625,6.75390625,4.546875,1.703125,6.00390625,24.8,33.6,51.2,31.0
1646243927.6283035,6113,1646243927,620471094,,"['FL0', 'FL1', 'FL2', 'FR0', 'FR1', 'FR2', 'RL0', 'RL1', 'RL2', 'RR0', 'RR1', 'RR2', 'FL_foot', 'FR_foot', 'RL_foot', 'RR_foot']",0.25099971890449524,1.0441181659698486,-2.0883209705352783,-0.12503628432750702,0.8844408988952637,-2.160637378692627,0.013654112815856934,1.134218454360962,-2.206993818283081,-0.3174160122871399,0.7287671566009521,-1.9572162628173828,0.0,0.0,0.0,0.0,-0.059237632900476456,-0.05494505539536476,-0.0034340659622102976,0.030048076063394547,-0.0,-0.0,0.024038460105657578,-0.07984203100204468,-0.06953983753919601,0.024038460105657578,-0.02146291173994541,0.07039835304021835,0.0,0.0,0.0,0.0,-3.41015625,0.49609375,6.359375,2.48828125,1.421875,5.86328125,-2.37890625,0.17578125,7.0,4.05078125,1.703125,6.21875,25.0,33.6,51.2,31.2
1646243927.628325,6114,1646243927,622679034,,"['FL0', 'FL1', 'FL2', 'FR0', 'FR1', 'FR2', 'RL0', 'RL1', 'RL2', 'RR0', 'RR1', 'RR2', 'FL_foot', 'FR_foot', 'RL_foot', 'RR_foot']",0.25078898668289185,1.0441603660583496,-2.0882787704467773,-0.12499414384365082,0.8845250606536865,-2.160595178604126,0.013654112815856934,1.134260654449463,-2.206993818283081,-0.3174581527709961,0.7287671566009521,-1.9572584629058838,0.0,0.0,0.0,0.0,-0.048076920211315155,0.005151099059730768,0.08155906945466995,0.07898351550102234,0.0626717060804367,0.0017170329811051488,-0.06782279908657074,-0.009443681687116623,0.03176511079072952,-0.0,-0.03176511079072952,-0.026614010334014893,0.0,0.0,0.0,0.0,-3.19921875,0.56640625,6.18359375,2.6640625,1.4921875,6.00390625,-2.34375,-0.24609375,6.89453125,4.12109375,1.66796875,5.828125,25.0,33.6,51.2,31.4
1646243927.6283345,6115,1646243927,624895127,,"['FL0', 'FL1', 'FL2', 'FR0', 'FR1', 'FR2', 'RL0', 'RL1', 'RL2', 'RR0', 'RR1', 'RR2', 'FL_foot', 'FR_foot', 'RL_foot', 'RR_foot']",0.25036758184432983,1.0442023277282715,-2.0882787704467773,-0.12495200335979462,0.8845672607421875,-2.160552978515625,0.013654112815856934,1.134260654449463,-2.207036018371582,-0.3175002932548523,0.7288093566894531,-1.9572584629058838,0.0,0.0,0.0,0.0,-0.089285708963871,0.0008585164905525744,-0.030906593427062035,0.0824175775051117,-0.15109890699386597,-0.05408653989434242,-0.0008585164323449135,-0.007726648356765509,-0.04550137370824814,0.05494505167007446,0.09787087887525558,0.002575549529865384,0.0,0.0,0.0,0.0,-3.48046875,0.63671875,6.2890625,2.76953125,1.4921875,6.04296875,-2.34375,0.0,6.609375,4.12109375,1.91796875,5.96875,25.0,33.8,51.2,31.6
1646243927.6284854,6116,1646243927,627099679,,"['FL0', 'FL1', 'FL2', 'FR0', 'FR1', 'FR2', 'RL0', 'RL1', 'RL2', 'RR0', 'RR1', 'RR2', 'FL_foot', 'FR_foot', 'RL_foot', 'RR_foot']",0.25011470913887024,1.0442023277282715,-2.0882368087768555,-0.12495200335979462,0.8846936225891113,-2.160468578338623,0.013654112815856934,1.134260654449463,-2.207036018371582,-0.3175424337387085,0.7288093566894531,-1.9573005437850952,0.0,0.0,0.0,0.0,-0.10817307233810425,0.019745878875255585,0.030048077926039696,0.0,0.08756868541240692,0.1073145642876625,-0.0,0.0,0.09958790987730026,-0.09529532492160797,0.04292582347989082,-0.059237636625766754,0.0,0.0,0.0,0.0,-3.41015625,0.63671875,6.2890625,2.8046875,1.45703125,6.00390625,-2.37890625,0.0703125,6.75390625,3.91015625,1.73828125,5.96875,25.0,33.8,51.4,31.8
